SampleTimeStamp;SentTimeStamp;ReceivedTimeStamp;lat;lon;alt;vel_north;vel_east;vel_down;roll;pitch;heading;wander;track;speed;arate_lon;arate_trans;arate_down;accel_lon;accel_trans;accel_down;alignment;timeDistance.time1;timeDistance.time2;timeDistance.distanceTag;timeDistance.time1Type;timeDistance.time2Type;timeDistance.distanceType;
1510748666.206886;1510748666.206886;1510748666.207022;57.77343583769877;12.76652059908753;228.2827173448857;-0.5578616;1.936882;-0.06568743;-1.483542449241476;-4.593616839942686;285.3405331785975;72.88899276226213;106.0675;2.01562;0.01479491;-0.08920854;0.2608514;0.05439215;-0.02679229;0.05675455;0;303884.129385967;11233.76318475508;-0.001;1;0;2;
1510748666.283694;1510748666.283694;1510748666.283865;57.77343565492355;12.76652192671282;228.285393886301;-0.5562027;1.935407;-0.05972442;-1.480156452500397;-4.593307077566638;285.3437410757761;72.89069942681552;106.0337;2.013743;0.2885867;0.00468747;0.02945805;0.009136515;-0.1392226;0.1074096;0;303884.1693859568;11233.80318474489;-0.001;1;0;2;
1510748666.356701;1510748666.356701;1510748666.356806;57.77343547190774;12.76652325277538;228.2879719270244;-0.5564275;1.934242;-0.05832721;-1.475044000339445;-4.596170774639893;285.3451292343569;72.89240609286652;106.049;2.012686;0.3674482;-0.1197235;-0.08098446;-0.04902443;-0.08626922;0.1343661;0;303884.2093859466;11233.84318473469;-0.001;1;0;2;
1510748666.416697;1510748666.416697;1510748666.416806;57.77343538024519;12.76652391539129;228.2891811832476;-0.5569835;1.932386;-0.05477398;-1.469439145190479;-4.594944357425963;285.3443990301172;72.89325942616236;106.0789;2.011056;0.2346374;0.1187291;-0.06227151;0.1163374;-0.06968464;-0.01285137;0;303884.2293859415;11233.8631847296;-0.001;1;0;2;
1510748666.486885;1510748666.486885;1510748666.48699;57.77343519662256;12.76652523917222;228.2916533584223;-0.5592481;1.92923;-0.05813959;-1.463679907120103;-4.597028584812496;285.3454382334684;72.89496609412011;106.1659;2.008653;-0.0698994;-0.1235729;0.1878578;0.08728831;-0.07363372;0.05945962;0;303884.2693869313;11233.9031857194;-0.001;1;0;2;
1510748666.567036;1510748666.567036;1510748666.567205;57.77343501357306;12.76652656150269;228.294146372496;-0.5547718;1.928947;-0.05977464;-1.45883533044059;-4.598938233398069;285.3418978427879;72.89667276351042;106.0454;2.007139;-0.1857622;-0.1598292;-0.07131225;-0.02873315;0.01924938;0.05841851;0;303884.3093869211;11233.94318570921;-0.001;1;0;2;
1510748666.646831;1510748666.646831;1510748666.647024;57.77343483071449;12.76652788232332;228.296703902151;-0.55722;1.926604;-0.05735702;-1.454729673270407;-4.600661894580368;285.340407295073;72.89837943409186;106.1311;2.005566;0.4223605;0.07281339;0.1054901;-0.06712539;-0.02189525;0.07716211;0;303884.349386911;11233.98318569902;-0.001;1;0;2;
1510748666.788344;1510748666.788344;1510748666.788451;57.77343455707274;12.76652986117019;228.3006142686871;-0.5498707;1.925733;-0.06152083;-1.444148350910876;-4.599587874290812;285.336109454313;72.90093944187062;105.9361;2.0027;0.04795756;-0.02289216;-0.2751345;-0.0758903;0.01934904;0.1079819;0;303884.4093878957;11234.04318668373;-0.001;1;0;2;
1510748666.866841;1510748666.866841;1510748666.867032;57.77343437508108;12.76653118021223;228.303198325739;-0.5501538;1.925798;-0.0592777;-1.436208823748661;-4.597064030083765;285.334974344623;72.90264611372692;105.9434;2.00284;0.3827462;0.03165352;-0.1587787;-0.01646502;0.05857999;0.1227748;0;303884.4493878855;11234.08318667354;-0.001;1;0;2;
1510748666.946641;1510748666.946641;1510748666.946752;57.77343419348285;12.76653249895107;228.3056912099223;-0.550952;1.925489;-0.05563425;-1.424209741751878;-4.59228144845117;285.3345801325353;72.90435278566544;105.9677;2.002763;0.5690019;0.1184224;0.007894197;0.02773166;0.0543401;0.1657936;0;303884.4893878752;11234.12318666334;-0.001;1;0;2;
1510748667.026691;1510748667.026691;1510748667.026807;57.77343401213507;12.76653381813012;228.3080540571484;-0.5488456;1.927292;-0.05214541;-1.411240165566993;-4.587407228936854;285.3345054372086;72.90605945720064;105.8957;2.003918;0.43917;0.1174722;-0.07172302;-0.01913782;0.08751117;0.08188168;0;303884.5293888651;11234.16318765315;-0.001;1;0;2;
1510748667.081395;1510748667.081395;1510748667.081504;57.77343383079533;12.76653513825696;228.3103420526769;-0.5485728;1.927351;-0.05392089;-1.404493776017343;-4.587355075314688;285.3363521283246;72.90776612811938;105.8877;2.0039;-0.0321769;-0.1001124;0.01207765;0.03158516;0.04969759;-0.06680598;0;303884.5693888549;11234.20318764296;-0.001;1;0;2;
1510748667.093782;1510748667.093782;1510748667.094123;57.77343364911941;12.76653645844506;228.3126430204614;-0.5520533;1.929144;-0.05503097;-1.397067306298751;-4.589791950495608;285.3376988066516;72.90947279909311;105.9693;2.006579;0.1204124;-0.213557;0.1115199;-0.1582687;-0.05885848;0.1037465;0;303884.6093888447;11234.24318763276;-0.001;1;0;2;
1510748667.105713;1510748667.105713;1510748667.105843;57.77343346685225;12.76653777958595;228.3149692038641;-0.5514244;1.93075;-0.05464728;-1.392014323858296;-4.590317479166856;285.338375347082;72.91117946925036;105.9394;2.00795;0.06559207;-0.0420714;-0.09254336;-0.1036703;-0.0249567;-0.0389193;0;303884.6493888345;11234.28318762257;-0.001;1;0;2;
1510748667.124446;1510748667.124446;1510748667.124555;57.77343328417511;12.76653910062792;228.3174262532408;-0.5542168;1.92968;-0.05680577;-1.389453844574135;-4.58953634470925;285.3372430780527;72.91288613955524;106.0244;2.00769;0.1348394;0.1504758;0.07039353;-0.07886537;-0.07183576;-0.1924684;0;303884.6893898243;11234.32318861238;-0.001;1;0;2;
1510748667.141981;1510748667.141981;1510748667.142114;57.77343310117664;12.76654042212848;228.3199924949821;-0.5538808;1.931095;-0.06147123;-1.387476566833972;-4.58493811932204;285.335442068548;72.91459280936448;106.0041;2.008958;0.02686005;0.1368626;-0.02174891;0.0003824185;-0.03980939;-0.2022017;0;303884.7293898141;11234.36318860218;-0.001;1;0;2;
1510748667.160549;1510748667.160549;1510748667.160656;57.77343291806205;12.76654174484472;228.322648014367;-0.5562192;1.933455;-0.06001133;-1.38871190397823;-4.579912584717926;285.3333433892907;72.91629947818664;106.0495;2.011872;0.1026388;0.2247078;0.1954924;-0.08452179;0.02297869;0.1595386;0;303884.7693898039;11234.40318859199;-0.001;1;0;2;
1510748667.175943;1510748667.175943;1510748667.176076;57.77343273466224;12.7665430702516;228.3252816050069;-0.5539246;1.939328;-0.0581382;-1.388052818368148;-4.576113447836943;285.3312762803754;72.91800614475157;105.9408;2.016885;-0.03951152;0.187993;0.01357939;-0.1094627;0.04429536;0.1575111;0;303884.8093907937;11234.4431895818;-0.001;1;0;2;
1510748667.188465;1510748667.188465;1510748667.188568;57.77343255097876;12.76654439902545;228.3277779582906;-0.5565009;1.943767;-0.05780404;-1.381525710561389;-4.569087971675081;285.3299808907439;72.91971280823033;105.9764;2.021862;0.5007955;0.1389712;-0.001810038;0.07641489;-0.008816071;-0.1818209;0;303884.8493907835;11234.4831895716;-0.001;1;0;2;
1510748667.216776;1510748667.216776;1510748667.216885;57.77343236693726;12.76654573173468;228.3302408474537;-0.5533266;1.952495;-0.05899237;-1.377494159327988;-4.564936197691066;285.3294324443902;72.92141946849125;105.8224;2.029386;-0.3039195;-0.1064133;-0.1503883;-0.2427441;0.02937732;0.1596453;0;303884.8893907733;11234.52318956141;-0.001;1;0;2;
1510748667.286998;1510748667.286998;1510748667.2871;57.77343218252201;12.7665470692357;228.3326171088901;-0.5538147;1.960299;-0.05434598;-1.370888724797007;-4.562492525382345;285.3310302290665;72.92312612463402;105.7758;2.037028;-0.1020449;-0.01779994;-0.04433426;-0.2106728;0.121061;0.179778;0;303884.9293907632;11234.56318955122;-0.001;1;0;2;
1510748667.367893;1510748667.367893;1510748667.368031;57.77343199779799;12.76654841159232;228.3349664276491;-0.5604354;1.965225;-0.0538711;-1.356625753801687;-4.560487928363474;285.3320836752171;72.92483277660334;105.9169;2.043574;0.6797399;0.1556571;0.1570598;-0.1053917;-0.07421875;-0.2160718;0;303884.969391753;11234.60319054102;-0.001;1;0;2;
1510748667.523346;1510748667.523346;1510748667.52345;57.77343152077374;12.76655180497208;228.3406672656328;-0.564574;1.988966;-0.05897382;-1.324876914925344;-4.551206790073302;285.3334619875346;72.92561146821174;105.8468;2.067542;0.2079126;0.07886393;-0.006103366;-0.2788558;-0.003617517;-0.06806206;0;303885.0693929823;11234.70319151554;-0.001;1;0;2;
1510748667.539492;1510748667.539492;1510748667.539778;57.77343132699571;12.76655317496638;228.3429859498937;-0.5659111;1.998676;-0.05936263;-1.311528517667197;-4.545386842536737;285.3310786184084;72.92545788008186;105.8091;2.077249;0.3011206;0.1823402;-0.2228745;-0.1738771;-0.1399657;-0.1360175;0;303885.1093929721;11234.74319150535;-0.001;1;0;2;
1510748667.567636;1510748667.567636;1510748667.568039;57.77343113204726;12.76655455104908;228.3453604615055;-0.5691822;2.007984;-0.06027792;-1.303818965016741;-4.540508645630402;285.3282613494844;72.9253042869346;105.8259;2.087096;0.1107505;0.1448923;-0.1511632;-0.1685031;0.003165448;0.01735928;0;303885.1493929619;11234.78319149516;-0.001;1;0;2;
1510748667.576479;1510748667.576479;1510748667.576587;57.77343093560867;12.76655593391016;228.3477779828837;-0.5768948;2.018367;-0.06039004;-1.300489412172174;-4.538125551756358;285.3273728170362;72.92515068812452;105.9511;2.099194;0.1586724;0.1165655;0.07776657;-0.190883;-0.1096685;-0.00479565;0;303885.1893929517;11234.82319148496;-0.001;1;0;2;
1510748667.598822;1510748667.598822;1510748667.598948;57.77343063742354;12.76655802297642;228.3513027363475;-0.5834422;2.036555;-0.05787959;-1.296444053817342;-4.537714765756558;285.3293689821126;72.92492027739894;105.9862;2.118481;0.340276;0.07527842;0.1019454;-0.262972;-0.020106;-0.06303996;0;303885.2493939364;11234.88319246968;-0.001;1;0;2;
1510748667.636732;1510748667.636732;1510748667.636833;57.77343043736482;12.76655942576164;228.3535628023008;-0.5822376;2.050709;-0.05615193;-1.296113424398407;-4.537367154197452;285.3346318815601;72.924766661584;105.8503;2.131762;0.1449669;0.05134042;0.01310312;-0.3444416;0.003615447;-0.05241702;0;303885.2893939263;11234.92319245948;-0.001;1;0;2;
1510748667.716704;1510748667.716704;1510748667.71678;57.77343023641513;12.76656083674675;228.3558504484513;-0.5859629;2.061274;-0.05788836;-1.299719124629199;-4.538747624973363;285.3412881301719;72.92461303889192;105.869;2.142942;0.009806853;0.0437542;0.2013988;-0.2665423;0.0411499;0.007263298;0;303885.3293939161;11234.96319244929;-0.001;1;0;2;
1510748667.796692;1510748667.796692;1510748667.796762;57.77343003457715;12.76656225536274;228.3581683715873;-0.5875398;2.074191;-0.06124882;-1.298686615806826;-4.538499525399819;285.3472375563242;72.92445940964882;105.8154;2.155799;-0.2573163;-0.01748305;0.05175463;-0.2508098;0.00669289;-0.2252548;0;303885.3693949059;11235.0031934391;-0.001;1;0;2;
1510748667.856672;1510748667.856672;1510748667.856749;57.77342993346576;12.76656296785943;228.3593937063373;-0.5882542;2.080684;-0.06056309;-1.302010371169601;-4.539991075419848;285.3489015598285;72.92438259250213;105.7867;2.162242;0.03532602;0.05030858;-0.0441696;-0.3541793;-0.07477718;0.0185081;0;303885.3893949008;11235.023193434;-0.001;1;0;2;
1510748667.976769;1510748667.976769;1510748667.977625;57.77342962781696;12.76656511703212;228.3631501013374;-0.5946239;2.098706;-0.06603348;-1.300775318189302;-4.540386545676469;285.3486974611526;72.92415213109575;105.8189;2.181318;-0.1512738;-0.08572234;-0.04230171;-0.2949207;0.08485086;-0.01265563;0;303885.4493948855;11235.08319341871;-0.001;1;0;2;
1510748668.009533;1510748668.009533;1510748668.009635;57.77342942230087;12.76656656008028;228.3656616488752;-0.5990507;2.111615;-0.0642403;-1.29667513429903;-4.534721861418681;285.346711836827;72.92399848128301;105.8383;2.194944;0.01182319;0.06630551;-0.06885231;-0.4039199;-0.08851764;0.1162833;0;303885.4893958753;11235.12319440852;-0.001;1;0;2;
1510748668.024219;1510748668.024219;1510748668.02433;57.77342921526101;12.76656801113258;228.3681637072193;-0.6058488;2.122131;-0.06324027;-1.299340071921047;-4.528641924629143;285.3468625776529;72.92384482468361;105.9336;2.206919;-0.01973541;0.1468512;0.2178196;-0.314303;-0.007297979;0.07464311;0;303885.5293958651;11235.16319439833;-0.001;1;0;2;
1510748668.036409;1510748668.036409;1510748668.03651;57.77342900647481;12.76656947026308;228.3705968358507;-0.6089171;2.134922;-0.06113651;-1.298571083873713;-4.519222749862057;285.3481075202798;72.92369116102738;105.9191;2.220061;-0.04718059;0.2579126;0.1343516;-0.3104628;0.00169245;0.09708256;0;303885.5693958549;11235.20319438813;-0.001;1;0;2;
1510748668.043104;1510748668.043104;1510748668.043164;57.77342879617847;12.76657093676339;228.3729830871549;-0.6132665;2.146243;-0.05939319;-1.29723166073884;-4.508263053274287;285.3521991901633;72.92353749094484;105.9467;2.232141;0.3241275;0.3479237;0.1649244;-0.3112558;-0.08247964;-0.02465214;0;303885.6093958447;11235.24319437794;-0.001;1;0;2;
1510748668.052746;1510748668.052746;1510748668.052809;57.77342858459205;12.76657241057626;228.3753754061335;-0.6147413;2.15598;-0.06118777;-1.291147000906036;-4.496818033410469;285.3593373181421;72.92338381445802;105.9146;2.24191;0.460822;0.2561367;0.1638589;-0.2050554;0.009165227;0.07209475;0;303885.6493968345;11235.28319536775;-0.001;1;0;2;
1510748668.076876;1510748668.076876;1510748668.076986;57.77342837271699;12.7665738902281;228.3777410182216;-0.6145451;2.164698;-0.06112137;-1.271738375580727;-4.481052614807927;285.3645457080258;72.92323013276503;105.8489;2.250241;0.6077722;0.3490826;0.1252768;-0.202883;0.01103773;-0.0551129;0;303885.6893968243;11235.32319535756;-0.001;1;0;2;
1510748668.092632;1510748668.092632;1510748668.093006;57.77342816166935;12.76657537508462;228.3800987780169;-0.6106644;2.172978;-0.05873907;-1.249360175620178;-4.461535599415464;285.3671834233986;72.92307644659596;105.6968;2.257154;0.3378634;0.5242477;0.1009156;-0.2806069;0.02279923;0.07161818;0;303885.7293968141;11235.36319534736;-0.001;1;0;2;
1510748668.106698;1510748668.106698;1510748668.106807;57.77342795165169;12.76657686501055;228.3823500777534;-0.610265;2.177552;-0.05536548;-1.245035868807111;-4.438745451683448;285.3692919393794;72.92292275628616;105.6557;2.26145;0.2967697;0.6468028;0.1910987;-0.06695716;-0.04604485;0.03745117;0;303885.7693978039;11235.40319633717;-0.001;1;0;2;
1510748668.186774;1510748668.186774;1510748668.186875;57.77342774173981;12.76657835710513;228.384526688584;-0.6083221;2.182129;-0.05517126;-1.241831155148824;-4.414221644412867;285.3683456964226;72.9227690642233;105.5771;2.265335;0.008491755;0.5240877;-0.1656915;-0.07769728;-0.04900194;0.08782381;0;303885.8093977937;11235.44319632698;-0.001;1;0;2;
1510748668.266706;1510748668.266706;1510748668.266883;57.77342753029679;12.76657985046874;228.386667188562;-0.6171513;2.181024;-0.05389876;-1.227728045458137;-4.395154245831207;285.3671026689265;72.92261537115682;105.7996;2.266659;0.6894701;0.4658991;0.1192277;0.0160538;-0.1275016;-0.01666092;0;303885.8493977836;11235.48319631679;-0.001;1;0;2;
1510748668.336672;1510748668.336672;1510748668.336789;57.7734273175479;12.76658134343004;228.3888611152581;-0.6194676;2.181249;-0.05513555;-1.211161514147342;-4.382591974836582;285.3659660768953;72.9224616786415;105.8544;2.267507;0.4905281;0.3157288;0.1681127;-0.01809108;0.004141282;-0.02061918;0;303885.8893987734;11235.52319730659;-0.001;1;0;2;
1510748668.39818;1510748668.39818;1510748668.398304;57.77342710437621;12.76658283637165;228.3910984398527;-0.6179548;2.18114;-0.05586194;-1.204593205411353;-4.373204125012403;285.3665151442385;72.92230798632983;105.8183;2.266989;0.0700018;0.3492013;0.09557694;0.02851656;-0.0432178;-0.1491886;0;303885.9293987632;11235.5631972964;-0.001;1;0;2;
1510748668.414913;1510748668.414913;1510748668.415026;57.77342689089557;12.76658432903203;228.393390418198;-0.617071;2.181327;-0.05932699;-1.214570491753769;-4.365905021992154;285.3704561807133;72.92215429441785;105.7956;2.266928;-0.3339089;0.1220472;0.01025218;0.04673313;-0.03418876;-0.01961813;0;303885.969398753;11235.60319728621;-0.001;1;0;2;
1510748668.459336;1510748668.459336;1510748668.459436;57.77342635192402;12.76658807239112;228.3994874594933;-0.6208133;2.177926;-0.06288037;-1.253058923767311;-4.344186558625533;285.3814624795665;72.923155136376;105.9101;2.264679;-0.4750177;0.1471149;-0.07124101;0.0765973;-0.02058985;-0.1005737;0;303886.0693999823;11235.70319826073;-0.001;1;0;2;
1510748668.475463;1510748668.475463;1510748668.475562;57.77342613450016;12.76658956940416;228.4020708916564;-0.6231438;2.176097;-0.06393807;-1.275714513747496;-4.335583398216917;285.3869897267959;72.92374015070239;105.9795;2.26356;-0.9695927;0.09588017;0.217046;-0.01994767;-0.01578921;0.06890758;0;303886.1093999721;11235.74319825053;-0.001;1;0;2;
1510748668.486461;1510748668.486461;1510748668.486557;57.77342591727245;12.76659106565545;228.4046500336021;-0.6206404;2.176295;-0.06167067;-1.305049445700499;-4.326235917207129;285.3925988363974;72.92432516573369;105.9172;2.263062;-0.9065571;0.1893043;0.06917661;-0.03199818;0.08009451;0.1484289;0;303886.1493999619;11235.78319824034;-0.001;1;0;2;
1510748668.546678;1510748668.546678;1510748668.546743;57.77342570011521;12.76659256100044;228.4071831269706;-0.623391;2.174149;-0.0601204;-1.337668227828029;-4.315953146751899;285.4004502800569;72.92491018144277;105.9991;2.261755;-0.6890301;0.2406276;0.1630711;0.04989422;-0.1018242;0.01430521;0;303886.1894009517;11235.82319923015;-0.001;1;0;2;
1510748668.680682;1510748668.680682;1510748668.680794;57.77342537325803;12.76659480197733;228.4109412479373;-0.6265736;2.173184;-0.05890699;-1.373614553246744;-4.304744287377322;285.4140312688913;72.92578770663594;106.0834;2.261708;-0.4376303;0.1265045;0.4316363;-0.1032067;0.070222;0.1868898;0;303886.2494009365;11235.88319921486;-0.001;1;0;2;
1510748668.760531;1510748668.760531;1510748668.760709;57.77342515586744;12.76659629594469;228.4133178972882;-0.6227394;2.173333;-0.05202218;-1.381553456923852;-4.296536573910208;285.4204077209099;72.92637272331139;105.9889;2.260792;0.1833141;0.401969;0.2766059;0.004495112;0.1283604;0.02786152;0;303886.2894009263;11235.92319920467;-0.001;1;0;2;
1510748668.840416;1510748668.840416;1510748668.840482;57.77342493966035;12.76659779066133;228.4155396806505;-0.6164473;2.175635;-0.05051295;-1.384771552952145;-4.288292082047335;285.4261368056995;72.92695773931389;105.8196;2.261282;-0.1848559;0.2860259;0.06806181;0.03225127;0.007986882;-0.06302138;0;303886.3294019161;11235.96320019447;-0.001;1;0;2;
1510748668.865456;1510748668.865456;1510748668.865561;57.77342472460889;12.76659928598665;228.4176202917015;-0.613273;2.176083;-0.05028211;-1.388449447993539;-4.28002774706133;285.4322976889541;72.92754275478792;105.7391;2.26085;-0.1992264;0.1137842;0.1148491;-0.02703733;0.09359497;0.01003287;0;303886.3694019059;11236.00320018428;-0.001;1;0;2;
1510748668.875202;1510748668.875202;1510748668.875286;57.77342461736595;12.76660003356687;228.4186086258825;-0.6148976;2.175108;-0.04557219;-1.384987167238006;-4.273945198247437;285.4347771240499;72.92783526247126;105.7855;2.260352;0.2790413;0.4261935;0.1449751;0.09798473;-0.01108657;-0.1329185;0;303886.3894019008;11236.02320017918;-0.001;1;0;2;
1510748668.895907;1510748668.895907;1510748668.896015;57.77342429655987;12.76660227520423;228.4216268254537;-0.6130424;2.174141;-0.04770463;-1.368602315834269;-4.255721658114282;285.4381239868835;72.92871278655038;105.7468;2.258918;0.3180009;0.3739411;0.1469924;0.03099949;0.06305762;0.009271853;0;303886.4494028855;11236.0832011639;-0.001;1;0;2;
1510748668.911253;1510748668.911253;1510748668.911384;57.77342408253953;12.76660376834178;228.4237192952521;-0.6136257;2.173562;-0.04873858;-1.349899912624586;-4.24222300540369;285.4421768875444;72.9292978034504;105.7651;2.258519;0.5974985;0.4140835;0.1358319;-0.007254639;-0.01057543;-0.0402764;0;303886.4894028753;11236.1232011537;-0.001;1;0;2;
1510748668.923673;1510748668.923673;1510748668.923791;57.77342386870501;12.76660526191256;228.4258537896671;-0.6129568;2.173681;-0.05131117;-1.338296425657344;-4.231064796963297;285.4432787442615;72.92988282030331;105.7479;2.258452;0.1522318;0.2321827;0.09334207;0.09217181;-0.01512957;-0.1018234;0;303886.5294028651;11236.16320114351;-0.001;1;0;2;
1510748668.936264;1510748668.936264;1510748668.936371;57.77342365412653;12.76660675422761;228.4280260716698;-0.6153221;2.17144;-0.05090196;-1.328187667657404;-4.223953133061683;285.4456204589902;72.93046783834225;105.8212;2.256939;0.1281673;0.2722214;0.1106228;0.06577966;-0.1243295;-0.05105059;0;303886.5694028549;11236.20320113332;-0.001;1;0;2;
1510748668.951796;1510748668.951796;1510748668.95187;57.77342343908072;12.76660824503921;228.4302548828156;-0.6173314;2.168408;-0.0537491;-1.32172124936582;-4.21852658288738;285.4478894668565;72.93105285777267;105.8913;2.254571;0.3834066;0.2231769;0.08276588;0.09319733;-0.1139496;-0.1420985;0;303886.6094038447;11236.24320212313;-0.001;1;0;2;
1510748669.030425;1510748669.030425;1510748669.030531;57.77342322381907;12.76660973412756;228.4325940539438;-0.6130511;2.168405;-0.05567877;-1.316640122009793;-4.212025374787303;285.448463945384;72.93163787871273;105.7867;2.2534;0.0928265;0.2712941;-0.1796127;0.01986785;0.03954742;0.05134538;0;303886.6494038345;11236.28320211293;-0.001;1;0;2;
1510748669.084508;1510748669.084508;1510748669.084667;57.773423008389;12.76661122204758;228.4349546054323;-0.6187154;2.167042;-0.05387605;-1.314494101809306;-4.202419943902124;285.453718109326;72.93222290035486;105.9347;2.253637;-0.03560767;0.3850142;0.4135213;-0.0380714;0.04794263;0.1143593;0;303886.6894038243;11236.32320210274;-0.001;1;0;2;
1510748669.147113;1510748669.147113;1510748669.14725;57.77342279390545;12.76661270947847;228.4371882534889;-0.6140099;2.166096;-0.04864709;-1.320428072572865;-4.18420382635045;285.4572226736944;72.93280792226398;105.8261;2.25144;0.1511398;0.7184619;0.1267916;0.08212278;-0.02388523;-0.07405078;0;303886.7294048141;11236.36320309255;-0.001;1;0;2;
1510748669.227047;1510748669.227047;1510748669.227228;57.77342257955787;12.76661419665946;228.4393300095425;-0.6138222;2.165962;-0.04837461;-1.33489512934324;-4.165591623858948;285.4609670667585;72.93339294447689;105.8224;2.251259;-0.2755293;0.5787405;0.0827652;0.03717903;-0.09124572;-0.09750294;0;303886.7694048039;11236.40320308235;-0.001;1;0;2;
1510748669.28088;1510748669.28088;1510748669.280952;57.77342236457627;12.76661568299958;228.4413393600968;-0.6144399;2.165115;-0.04720246;-1.341683563377253;-4.147837286985801;285.4640051807044;72.93397796735754;105.8435;2.250613;-0.2856719;0.3860785;-0.04109646;-0.001271397;-0.1063867;-0.01928749;0;303886.8094047938;11236.44320307216;-0.001;1;0;2;
1510748669.289323;1510748669.289323;1510748669.289425;57.77342214911229;12.7666171691768;228.4432927793936;-0.6188208;2.165464;-0.04922649;-1.345398959261074;-4.135496814962746;285.4650973277635;72.93456299063014;105.9483;2.252148;-0.009245129;0.009097081;0.1148042;-0.06726667;-0.1238823;0.03863348;0;303886.8494057836;11236.48320406197;-0.001;1;0;2;
1510748669.308814;1510748669.308814;1510748669.308961;57.77342193355558;12.76661865498254;228.445259285522;-0.6155922;2.164463;-0.04667632;-1.351662506978906;-4.128510308327141;285.4651974940857;72.93514801450621;105.8762;2.2503;-0.3050734;0.1281796;0.01192424;0.04612316;0.05228846;0.1522052;0;303886.8894057734;11236.52320405178;-0.001;1;0;2;
1510748669.321146;1510748669.321146;1510748669.321227;57.77342171797725;12.76662014010329;228.4472483659217;-0.6170292;2.163792;-0.04771851;-1.352024582177703;-4.124851513999628;285.4685952040952;72.93573303886444;105.9161;2.250049;-0.06587674;0.07358854;0.1923476;0.1256921;0.007177664;-0.02201372;0;303886.9294057632;11236.56320404158;-0.001;1;0;2;
1510748669.334223;1510748669.334223;1510748669.334284;57.77342150328812;12.76662162483162;228.4492923797281;-0.6107754;2.163307;-0.04974071;-1.348073946344482;-4.123557813185171;285.4721108428921;72.93631806358185;105.7662;2.247876;0.07596354;0.04919244;-0.05590199;0.1061641;-0.0110645;-0.2152542;0;303886.969405753;11236.60320403139;-0.001;1;0;2;
1510748669.436849;1510748669.436849;1510748669.437962;57.77342097087694;12.76662534180052;228.4552146323331;-0.6075208;2.160663;-0.04742197;-1.352914333992064;-4.132244462687884;285.4823561221748;72.93883407885802;105.7046;2.244448;-0.199662;-0.01810087;0.08860955;0.08599375;-0.06588759;-0.1070704;0;303887.0694069823;11236.70320500591;-0.001;1;0;2;
1510748669.50828;1510748669.50828;1510748669.508416;57.77342075636745;12.76662682566439;228.4575463818891;-0.6109426;2.15502;-0.04579884;-1.351216733395545;-4.129002400080342;285.4857919994185;72.9399809474463;105.8279;2.239947;0.2836477;0.2757905;0.1341251;0.1236106;-0.103489;-0.2469156;0;303887.1094069721;11236.74320499572;-0.001;1;0;2;
1510748669.588517;1510748669.588517;1510748669.588696;57.77342054141727;12.76662830585989;228.4598750875942;-0.6105688;2.150374;-0.0461862;-1.344519301860317;-4.11702904320228;285.4857347716021;72.9411278188786;105.8512;2.235376;0.227188;0.4063444;0.06868243;0.1068106;0.01743148;-0.0004581702;0;303887.1494079619;11236.78320598552;-0.001;1;0;2;
1510748669.668698;1510748669.668698;1510748669.668807;57.77342032623592;12.7666297836433;228.4621215446471;-0.6094988;2.148576;-0.04590756;-1.342736740050827;-4.094854068557416;285.4872715308663;72.94227469194823;105.8374;2.233353;-0.2733465;0.4536249;0.03205917;0.05588131;0.03485282;0.113783;0;303887.1894079518;11236.82320597533;-0.001;1;0;2;
1510748669.737814;1510748669.737814;1510748669.737975;57.77342000380575;12.76663199637972;228.4654325090038;-0.6100459;2.143753;-0.04540202;-1.362521775622144;-4.06106036313318;285.4951850052996;72.94399500492878;105.8847;2.228864;-0.4683827;0.3833682;0.1663703;0.08481469;-0.03720022;-0.01433781;0;303887.2494079365;11236.88320596004;-0.001;1;0;2;
1510748669.751101;1510748669.751101;1510748669.751291;57.7734197886971;12.76663346925156;228.4676987031658;-0.610118;2.141829;-0.04730911;-1.378422800674021;-4.048179922654666;285.5001522216162;72.94514188261374;105.9;2.227033;-0.3259129;0.1344185;0.01447929;-0.02043312;-0.08824013;0.01903775;0;303887.2894089263;11236.92320694985;-0.001;1;0;2;
1510748669.765633;1510748669.765633;1510748669.765785;57.77341957306507;12.76663494015995;228.4700631202095;-0.6108052;2.13961;-0.05005629;-1.39552171220045;-4.044850870877343;285.504644898313;72.94628876237425;105.9327;2.225087;-0.6302668;-0.1370482;0.06135777;-0.07292106;0.03592135;0.07615486;0;303887.3294089161;11236.96320693966;-0.001;1;0;2;
1510748669.778596;1510748669.778596;1510748669.778661;57.77341935759128;12.76663640912686;228.4724500277061;-0.6122646;2.136035;-0.04955212;-1.417063896961315;-4.041473496005984;285.508385896322;72.94743564387068;105.9942;2.222052;-0.8591051;0.007071567;0.1879455;0.08225734;-0.1295077;-0.03516982;0;303887.3694089059;11237.00320692946;-0.001;1;0;2;
1510748669.78385;1510748669.78385;1510748669.78391;57.77341924989457;12.76663714297947;228.4737214061009;-0.6111954;2.135776;-0.05330272;-1.433049037159831;-4.044388438909124;285.5096421522524;72.94800908543453;105.9695;2.221508;-0.8055338;-0.2441929;0.1027924;-0.0475074;0.03553785;0.09018009;0;303887.3894099008;11237.02320792437;-0.001;1;0;2;
1510748669.794821;1510748669.794821;1510748669.794986;57.77341892706242;12.766639341309;228.4773440587287;-0.6115556;2.129835;-0.04946251;-1.468098176807008;-4.037731670034702;285.5068464603153;72.94972941235679;106.0208;2.215897;-0.3282745;0.133909;-0.06018025;0.1046426;-0.09540537;-0.03880348;0;303887.4494098855;11237.08320790908;-0.001;1;0;2;
1510748669.831817;1510748669.831817;1510748669.831925;57.77341871192979;12.76664080415335;228.4797774970602;-0.6073703;2.127702;-0.04878192;-1.487784601134682;-4.033755146836934;285.5054306130648;72.95087629920975;105.9318;2.212694;-0.39837;0.2283652;-0.131468;0.06647313;0.04829712;-0.1100501;0;303887.4894098753;11237.12320789889;-0.001;1;0;2;
1510748669.912202;1510748669.912202;1510748669.912305;57.77341849760636;12.76664226464375;228.482184951154;-0.6057424;2.125423;-0.04873229;-1.500085545715998;-4.025497349595088;285.5046771087706;72.95202318775209;105.9075;2.210056;-0.3232104;0.1977916;-0.006083187;0.005234737;0.1852023;0.04837414;0;303887.5294108651;11237.16320888869;-0.001;1;0;2;
1510748669.99149;1510748669.99149;1510748669.991596;57.77341828423592;12.76664372410991;228.4844698469523;-0.6034416;2.124385;-0.04382265;-1.507221767346233;-4.012826095058466;285.5083346110767;72.95317007671986;105.8574;2.208428;-0.2884559;0.3130124;0.1512612;0.05290045;0.06880637;0.1491564;0;303887.569410855;11237.2032088785;-0.001;1;0;2;
1510748670.071094;1510748670.071094;1510748670.071505;57.77341807178019;12.76664518304891;228.4866187453647;-0.5989742;2.123855;-0.03896034;-1.511525021776007;-4.000587533428282;285.5165397362475;72.95431696591062;105.7496;2.206701;-0.1682512;0.4102426;0.06775863;0.105871;0.03849787;0.06467249;0;303887.6094108447;11237.24320886831;-0.001;1;0;2;
1510748670.106925;1510748670.106925;1510748670.107038;57.77341785998347;12.76664664106781;228.4886134958988;-0.6011345;2.121627;-0.03595539;-1.51394636476743;-3.988861255684096;285.5264514432315;72.95546385579794;105.8194;2.205145;0.1637863;0.388963;0.2677654;0.04936499;-0.04489512;-0.03483194;0;303887.6494108345;11237.28320885812;-0.001;1;0;2;
1510748670.168125;1510748670.168125;1510748670.168535;57.77341764774161;12.76664809767669;228.4905239653824;-0.6010359;2.119802;-0.03656435;-1.509179204137408;-3.980135402537195;285.5385082224884;72.95661074680102;105.8298;2.203362;0.2630667;0.176615;0.2327695;0.1076322;0.02856161;-0.04121505;0;303887.6894118243;11237.32320984792;-0.001;1;0;2;
1510748670.189868;1510748670.189868;1510748670.193769;57.77341743513445;12.76664955330536;228.4924570728995;-0.6036872;2.119337;-0.03845645;-1.498432046251599;-3.97860495072512;285.5507326527716;72.95775763882655;105.8995;2.20364;0.200488;-0.0796782;0.4282849;-0.008277692;0.09637883;0.0355113;0;303887.7294118142;11237.36320983773;-0.001;1;0;2;
1510748670.219002;1510748670.219002;1510748670.219108;57.77341722297684;12.76665100789212;228.4944267986651;-0.5990292;2.118343;-0.04085867;-1.491527853836447;-3.977659944385409;285.5597622969701;72.95890453195088;105.7899;2.201412;-0.2676965;-0.1389096;0.1503795;-0.0642572;0.131384;0.1015317;0;303887.769411804;11237.40320982754;-0.001;1;0;2;
1510748670.229719;1510748670.229719;1510748670.229824;57.77341701099967;12.76665246133781;228.4965069185834;-0.5998214;2.116852;-0.04134699;-1.48839027438295;-3.977477069288347;285.5670903859549;72.96005142619849;105.8204;2.200192;0.1053539;0.000272674;0.03112476;-0.02303427;0.02263969;0.007114777;0;303887.8094127938;11237.44321081735;-0.001;1;0;2;
1510748670.237595;1510748670.237595;1510748670.237702;57.77341679933753;12.76665391293791;228.4987106347026;-0.5998854;2.112812;-0.04440274;-1.491075065367496;-3.979187530240125;285.5720823542221;72.96119832226748;105.8507;2.196323;-0.02527985;0.04043677;0.01158697;0.1087551;-0.09439149;-0.1466892;0;303887.8494127836;11237.48321080715;-0.001;1;0;2;
1510748670.249262;1510748670.249262;1510748670.249366;57.77341658683697;12.76665536237247;228.5009805533947;-0.6045662;2.109367;-0.04663181;-1.485664741845633;-3.978630471813111;285.5784467251258;72.96234521990363;105.9928;2.194295;0.2397113;0.06726294;0.2699897;0.1055956;-0.07306573;-0.1514857;0;303887.8894127734;11237.52321079696;-0.001;1;0;2;
1510748670.26643;1510748670.26643;1510748670.266536;57.77341637457543;12.76665681072825;228.503214386466;-0.6002786;2.1096;-0.04428423;-1.478269466506874;-3.972148779934726;285.5821666276995;72.96349211830609;105.8835;2.193341;0.01357706;0.2193256;0.08204945;0.08768112;-0.01219985;0.04864253;0;303887.9294127632;11237.56321078677;-0.001;1;0;2;
1510748670.278099;1510748670.278099;1510748670.278204;57.77341616272827;12.76665825825578;228.5053038941857;-0.6000417;2.107916;-0.03960613;-1.46929055183343;-3.958075733918095;285.5876850905482;72.96463901700567;105.8896;2.191657;0.2068794;0.4279619;0.2141615;0.06880617;-0.01367861;0.06248626;0;303887.969413753;11237.60321177658;-0.001;1;0;2;
1510748670.54704;1510748670.54704;1510748670.547152;57.77341562837991;12.7666618811267;228.5096635966667;-0.5984384;2.105444;-0.04058624;-1.469662883863487;-3.928965906123099;285.6047920845468;72.96535549310423;105.8669;2.18884;-0.1109303;-0.08189015;0.2251185;0.09709827;0.0558685;0.05245268;0;303888.0694129823;11237.70321175109;-0.001;1;0;2;
1510748670.614547;1510748670.614547;1510748670.614643;57.77341541345486;12.76666332922867;228.5114129220406;-0.6000119;2.104443;-0.04147181;-1.468172999360367;-3.929200325316262;285.6106054763421;72.96535531590446;105.9137;2.188308;-0.04995664;-0.164086;0.1864097;-0.04061885;0.02994871;0.1187042;0;303888.1094139721;11237.7432127409;-0.001;1;0;2;
1510748670.629586;1510748670.629586;1510748670.631321;57.77341519803149;12.7666647756474;228.5131926517006;-0.6037199;2.100907;-0.03888609;-1.464386494687601;-3.926430544444597;285.6172549808339;72.96535513993962;106.0326;2.18593;0.4056107;0.2125171;0.3441212;-0.04774379;-0.001854073;0.02645773;0;303888.1494139619;11237.78321273071;-0.001;1;0;2;
1510748670.639213;1510748670.639213;1510748670.639316;57.7734149824436;12.76666622151972;228.5150141463515;-0.6004856;2.101374;-0.04038945;-1.461539854582177;-3.923269036417705;285.6235619563228;72.96535496444947;105.9477;2.185488;0.0855234;0.1982395;0.1178044;0.06466212;0.07240181;-0.08220906;0;303888.1894139517;11237.82321272051;-0.001;1;0;2;
1510748670.650789;1510748670.650789;1510748670.650852;57.77341465911801;12.76666838857496;228.5176414951016;-0.6024151;2.099358;-0.03820591;-1.460287576376077;-3.913300549157154;285.6356661203796;72.96535470241452;106.0109;2.184081;0.05363169;0.1986064;0.3940602;0.04086993;0.04939583;-0.04131117;0;303888.2494149364;11237.88321370522;-0.001;1;0;2;
1510748670.658086;1510748670.658086;1510748670.658187;57.77341444433399;12.766669832271;228.5193081337948;-0.597742;2.098105;-0.03823127;-1.462159027472959;-3.902218429417339;285.6437247090461;72.96535452843847;105.9021;2.181591;-0.02825603;0.2884457;0.1354628;0.1014406;0.004954325;-0.09542923;0;303888.2894149262;11237.92321369503;-0.001;1;0;2;
1510748670.666684;1510748670.666684;1510748670.666853;57.77341422974232;12.76667127428258;228.5210183792044;-0.5964162;2.096455;-0.04011486;-1.458417344737138;-3.88849383873434;285.6524465307569;72.96535435567245;105.8804;2.179641;0.1838161;0.3507834;0.09465703;0.1240599;0.05502611;-0.1284281;0;303888.3294149161;11237.96321368484;-0.001;1;0;2;
1510748670.696927;1510748670.696927;1510748670.697536;57.77341401548004;12.76667271550565;228.5228108537467;-0.5982804;2.094783;-0.04105784;-1.455848170835424;-3.875645769077977;285.6614910955719;72.96535418360995;105.9396;2.178545;0.03209672;0.3304439;0.343285;0.05395511;0.001485912;-0.05722406;0;303888.3694159059;11238.00321467464;-0.001;1;0;2;
1510748670.756719;1510748670.756719;1510748670.756896;57.77341390855718;12.76667343607787;228.5237221738217;-0.5959855;2.095881;-0.03981096;-1.459570366288496;-3.870928672525199;285.6658798887231;72.96535409775682;105.8736;2.178971;0.0229519;0.3130602;0.1766925;-0.001407289;0.0124213;0.05870173;0;303888.3894159007;11238.02321466955;-0.001;1;0;2;
1510748670.876974;1510748670.876974;1510748670.87716;57.77341358727322;12.76667559680711;228.5263494937917;-0.5965741;2.095079;-0.03885669;-1.463207637815914;-3.86227400476087;285.6758052851795;72.96535384128939;105.8943;2.178361;0.0545665;-0.03605253;-0.04627861;-0.0250847;-0.1185876;0.243824;0;303888.4494158854;11238.08321465426;-0.001;1;0;2;
1510748670.958468;1510748670.958468;1510748670.958585;57.77341337207844;12.76667703642955;228.5280075027292;-0.600582;2.09458;-0.03659137;-1.465137049063821;-3.865485639222493;285.6823106873418;72.96535367139829;105.9993;2.178982;-0.007679255;-0.1957694;0.1267422;-0.002859335;-0.06153714;0.1522666;0;303888.4894168752;11238.12321564406;-0.001;1;0;2;
1510748671.036783;1510748671.036783;1510748671.036892;57.77341315665109;12.76667847578951;228.5295660360671;-0.6003394;2.093855;-0.03331291;-1.473247391250973;-3.872827551385254;285.6877366790439;72.96535350203007;105.9984;2.178219;-0.2803939;-0.1838065;0.0816848;0.02269928;-0.03667266;0.06960445;0;303888.5294168651;11238.16321563387;-0.001;1;0;2;
1510748671.082385;1510748671.082385;1510748671.082456;57.77341294066925;12.76667991426857;228.5310172054117;-0.6030407;2.091978;-0.03110207;-1.48336510802305;-3.877007942158122;285.6947315937338;72.96535333323931;106.0803;2.177161;-0.1098711;0.04283082;0.1839912;0.1154085;-0.008359612;-0.1264774;0;303888.5694168549;11238.20321562368;-0.001;1;0;2;
1510748671.091553;1510748671.091553;1510748671.091616;57.7734127244785;12.76668135105654;228.53242847078;-0.6024048;2.089173;-0.03194123;-1.491505487359913;-3.870654283785293;285.7020761601167;72.9653531654148;106.0847;2.17429;-0.2331486;0.3229823;0.1903736;0.01145489;-0.03029256;-0.1904041;0;303888.6094168447;11238.24321561349;-0.001;1;0;2;
1510748671.101447;1510748671.101447;1510748671.101549;57.77341250872659;12.76668278670504;228.5338934835527;-0.6011338;2.088152;-0.03403436;-1.498110416376445;-3.855996278165409;285.7082321397129;72.96535299825315;106.06;2.172957;0.07262458;0.409922;0.1203581;0.07296077;0.0594635;-0.06944895;0;303888.6494178345;11238.28321660329;-0.001;1;0;2;
1510748671.109815;1510748671.109815;1510748671.109982;57.77341229339538;12.76668422164293;228.5354240425585;-0.6018467;2.08768;-0.03615382;-1.502120377293458;-3.837612652485409;285.7148520207861;72.96535283148548;106.0815;2.1727;-0.05032136;0.3978097;0.342733;-0.0001500614;-0.006409053;0.04684367;0;303888.6894178243;11238.3232165931;-0.001;1;0;2;
1510748671.117633;1510748671.117633;1510748671.11774;57.77341207906094;12.76668565654993;228.537013473451;-0.5966963;2.088513;-0.03606608;-1.503670212885456;-3.818683437063592;285.719943760095;72.96535266475414;105.9448;2.172081;-0.1103913;0.4432563;0.2238448;0.02177537;0.0995132;0.0445996;0;303888.7294178141;11238.36321658291;-0.001;1;0;2;
1510748671.131926;1510748671.131926;1510748671.132031;57.77341186570705;12.76668709153716;228.5387162493394;-0.5925564;2.089191;-0.03763518;-1.506814593309209;-3.807137451998766;285.7264694274825;72.96535249820892;105.8349;2.171599;-0.05606481;0.3556171;0.04840595;0.07039858;0.04319952;-0.08688948;0;303888.7694188039;11238.40321757271;-0.001;1;0;2;
1510748671.1378;1510748671.1378;1510748671.13791;57.77341165268442;12.76668852617503;228.5404805172217;-0.5932997;2.088526;-0.04018099;-1.507374963448517;-3.801333724403835;285.7339958378532;72.96535233210786;105.8586;2.171162;0.2267907;0.1358547;0.09072429;0.04833121;-0.009890307;-0.078673;0;303888.8094187937;11238.44321756252;-0.001;1;0;2;
1510748671.166803;1510748671.166803;1510748671.166909;57.77341143944867;12.76668996088953;228.5422242324963;-0.5947325;2.088229;-0.03891073;-1.502949005956156;-3.798324239977438;285.7414686980143;72.96535216598532;105.8971;2.171269;0.1898691;0.1268826;0.1494982;0.04445765;-0.01757696;-0.04291966;0;303888.8494187835;11238.48321755233;-0.001;1;0;2;
1510748671.247021;1510748671.247021;1510748671.247156;57.77341122574052;12.76669139521751;228.5439132562784;-0.5948552;2.089283;-0.03729067;-1.492885620760473;-3.797608157973336;285.7491217453032;72.96535200019321;105.8926;2.172316;0.01515194;-0.01251645;0.1494757;0.002226559;-0.01537375;0.124411;0;303888.8894187734;11238.52321754213;-0.001;1;0;2;
1510748671.316813;1510748671.316813;1510748671.316932;57.77341101203995;12.7666928296399;228.545471733554;-0.5950204;2.08935;-0.03336116;-1.485990179546176;-3.796182852199439;285.7562131377793;72.96535183436271;105.8963;2.172426;0.1415683;0.01121573;0.1228794;-0.03118139;0.01501391;0.2256568;0;303888.9294197632;11238.56321853194;-0.001;1;0;2;
1510748671.39675;1510748671.39675;1510748671.396832;57.77341079838091;12.76669426400004;228.5468761453963;-0.596455;2.08937;-0.02926084;-1.486540428944352;-3.791838918688845;285.7645496614158;72.96535166851801;105.9325;2.172838;-0.0412735;0.1523345;0.2086048;-0.0315732;-0.09921107;0.04497376;0;303888.9694197529;11238.60321852175;-0.001;1;0;2;
1510748671.501942;1510748671.501942;1510748671.502362;57.77341026253053;12.76669785041419;228.5504081001424;-0.6007438;2.086369;-0.03557346;-1.488302692170701;-3.773000331431675;285.775796664287;72.9653488944207;106.0631;2.171135;0.06515026;0.08299977;0.03620132;-0.02253779;0.02673128;-0.0837639;0;303889.0694209823;11238.70321949626;-0.001;1;0;2;
1510748671.51895;1510748671.51895;1510748671.519287;57.77341004740823;12.7666992845207;228.5520263868013;-0.6036841;2.084989;-0.03884927;-1.488163599451421;-3.766377198829663;285.7783662940973;72.96534747072567;106.1478;2.170625;0.01733103;0.06465385;0.3220713;0.02769812;0.05689094;-0.1609564;0;303889.1094209721;11238.74321948607;-0.001;1;0;2;
1510748671.532318;1510748671.532318;1510748671.53245;57.77340983295604;12.76670071752811;228.5537827011358;-0.5961127;2.083676;-0.0406566;-1.491634127568713;-3.759430587954105;285.7806867615641;72.96534604800998;105.9651;2.16727;-0.04234852;0.2923343;-0.1297723;0.1186407;0.06379667;-0.2093088;0;303889.1494209619;11238.78321947588;-0.001;1;0;2;
1510748671.544853;1510748671.544853;1510748671.54496;57.77340961919046;12.76670214968772;228.5556889647484;-0.5950882;2.083269;-0.04360754;-1.499898293137121;-3.751392506557862;285.7854597973188;72.96534462592624;105.9421;2.166596;-0.2468596;0.2995991;0.05467288;0.05482773;0.07617391;-0.1075304;0;303889.1894219517;11238.82322046569;-0.001;1;0;2;
1510748671.586744;1510748671.586744;1510748671.586917;57.77340929874679;12.76670429845992;228.5584314782875;-0.5951566;2.084558;-0.03553563;-1.502388077648437;-3.736522222696244;285.7949614955012;72.96534249198979;105.9344;2.167854;0.3665786;0.3899652;-0.01629353;0.1012077;-0.0627788;0.0827171;0;303889.2494219364;11238.8832204504;-0.001;1;0;2;
1510748671.666773;1510748671.666773;1510748671.666879;57.77340908512103;12.76670573175961;228.5599668967584;-0.5979048;2.086185;-0.03142545;-1.496875769379114;-3.728109868213768;285.8049343640803;72.96534106849616;105.9924;2.170175;0.1674875;0.1502415;0.3901033;0.08161677;0.08032217;0.08649226;0;303889.2894219263;11238.92322044021;-0.001;1;0;2;
1510748671.746821;1510748671.746821;1510748671.74693;57.77340887176153;12.7667071662235;228.5613006515643;-0.5984179;2.087073;-0.02793849;-1.488009024068157;-3.724445659149802;285.8142484297684;72.96533964419017;105.999;2.17117;0.4221193;0.02067417;0.3329915;-0.06218881;-0.1171801;0.03086326;0;303889.3294229161;11238.96322143001;-0.001;1;0;2;
1510748671.826893;1510748671.826893;1510748671.827724;57.77340865812664;12.76670860068863;228.562464355845;-0.5977677;2.087563;-0.02609527;-1.480734292892425;-3.718070650421092;285.8240881813431;72.96533821977253;105.9789;2.171462;0.1800797;0.09086169;0.2858262;-0.1063266;-0.07870717;0.02213953;0;303889.3694229058;11239.00322141982;-0.001;1;0;2;
1510748671.8807;1510748671.8807;1510748671.880952;57.77340855146644;12.76670931806563;228.5630203093629;-0.5945892;2.088256;-0.02317727;-1.477155257052683;-3.712462139974953;285.8263880463534;72.96533750746201;105.8932;2.171256;0.2239103;0.3907349;-0.05202203;0.1048623;-0.0454368;-0.1234491;0;303889.3894229007;11239.02322141472;-0.001;1;0;2;
1510748671.954845;1510748671.954845;1510748671.954948;57.77340823048522;12.76671146939669;228.5648058826326;-0.6003662;2.087783;-0.02508613;-1.479998841688332;-3.691728794005777;285.8347711102984;72.96533537117664;106.0432;2.17239;0.02701866;0.4474916;0.2042145;-0.01221304;-0.002436391;-0.01147047;0;303889.4494238854;11239.08322239943;-0.001;1;0;2;
1510748671.962907;1510748671.962907;1510748671.963017;57.77340801564268;12.76671290362999;228.5660365806537;-0.6009384;2.088113;-0.02640405;-1.483377078468373;-3.674282130408137;285.8374585016444;72.96533394697981;106.0553;2.172865;-0.06856282;0.4955739;0.02078862;0.1188274;0.01741723;-0.07653682;0;303889.4894238753;11239.12322238924;-0.001;1;0;2;
1510748671.970698;1510748671.970698;1510748671.970803;57.7734078000483;12.76671433834822;228.5673114745479;-0.6009036;2.089035;-0.02986082;-1.483807015556659;-3.660119636075944;285.8391418163204;72.96533252250777;106.0477;2.173742;0.07812397;0.2472554;-0.1380001;0.1031195;0.04432579;-0.1213735;0;303889.5294238651;11239.16322237905;-0.001;1;0;2;
1510748671.975857;1510748671.975857;1510748671.975961;57.77340758402533;12.76671577303939;228.5686656850634;-0.6042386;2.089756;-0.0320897;-1.483259843043444;-3.651920899899591;285.8421338997132;72.96533109822707;106.1269;2.175358;-0.09552766;0.02164887;0.2135074;-0.04660895;0.1357373;0.009243286;0;303889.5694238549;11239.20322236886;-0.001;1;0;2;
1510748671.98624;1510748671.98624;1510748671.986397;57.7734073683939;12.76671720849815;228.570069917281;-0.6023318;2.091163;-0.03200967;-1.484305473548359;-3.648633405372638;285.8477570195869;72.96532967340069;106.0683;2.176181;-0.1617387;-0.03974894;0.2771626;-0.08142782;0.08202522;0.1800412;0;303889.6094248447;11239.24322335866;-0.001;1;0;2;
1510748672.017503;1510748672.017503;1510748672.019914;57.77340715366269;12.76671864504479;228.5714754850989;-0.5983086;2.092957;-0.03114574;-1.488244231232133;-3.647222343831752;285.8537092955498;72.96532824775676;105.9535;2.176796;-0.2685951;0.005262221;0.1765976;-0.008347377;0.1336416;0.1784908;0;303889.6494248345;11239.28322334847;-0.001;1;0;2;
1510748672.035992;1510748672.035992;1510748672.036099;57.77340693909888;12.76672008148948;228.5728579046285;-0.6014285;2.092297;-0.02936715;-1.484244706972796;-3.642904249681929;285.861052187504;72.9653268219047;106.0372;2.177022;0.2516013;0.1819616;0.2934689;-0.02978175;-0.007347269;-0.03876138;0;303889.6894248243;11239.32322333828;-0.001;1;0;2;
1510748672.078608;1510748672.078608;1510748672.07871;57.77340672461914;12.76672151824383;228.5741929100565;-0.5991208;2.09399;-0.02946459;-1.479475711885846;-3.63487479187551;285.8655264029808;72.96532539575777;105.9666;2.178013;-0.02693552;0.1847122;0.1205858;-0.0141222;-0.01738595;-0.02818333;0;303889.7294258141;11239.36322432809;-0.001;1;0;2;
1510748672.130498;1510748672.130498;1510748672.130608;57.77340651005932;12.7667229552652;228.575439719695;-0.5998937;2.093246;-0.02724296;-1.470138767669995;-3.62245184399842;285.8693953860737;72.96532396916791;105.9915;2.17751;0.2933222;0.3189445;0.1164951;0.02692334;-0.07979813;-0.08350878;0;303889.7694258039;11239.40322431789;-0.001;1;0;2;
1510748672.211101;1510748672.211101;1510748672.211508;57.77340629588104;12.76672439226256;228.5766863051251;-0.596305;2.09427;-0.02986022;-1.470004624339764;-3.608913499471602;285.8706807060137;72.96532254280085;105.8933;2.17751;-0.2662032;0.2784139;-0.1518538;-0.05502569;-0.06111802;-0.1092005;0;303889.8094257937;11239.4432243077;-0.001;1;0;2;
1510748672.281081;1510748672.281081;1510748672.281189;57.7734060812495;12.76672582905533;228.5780189939528;-0.5990063;2.094659;-0.03243957;-1.476430681958093;-3.595608899610077;285.8728676328734;72.96532111666957;105.9589;2.178625;-0.3902258;0.1351176;-0.08077345;-0.08621256;-0.03452468;0.06849962;0;303889.8494267836;11239.48322529751;-0.001;1;0;2;
1510748672.360829;1510748672.360829;1510748672.361164;57.77340586559799;12.76672726584337;228.5794257409141;-0.6067919;2.09358;-0.03017541;-1.48406638291421;-3.587364073560806;285.8758480747165;72.96531969072964;106.1634;2.179741;0.2237976;0.1813888;0.2281632;-0.01281535;-0.08663152;0.08022396;0;303889.8894267734;11239.52322528732;-0.001;1;0;2;
1510748672.376859;1510748672.376859;1510748672.376966;57.77340564899246;12.76672870319394;228.5808625919426;-0.6065513;2.095511;-0.03225854;-1.488258858260955;-3.588022153609282;285.8776386534375;72.96531826468014;106.1432;2.181529;0.009913548;-0.1829188;0.03708274;-0.0191783;0.008994889;0.06084597;0;303889.9294267631;11239.56322527712;-0.001;1;0;2;
1510748672.385778;1510748672.385778;1510748672.385884;57.77340543174666;12.76673014113744;228.582210167664;-0.6083003;2.096142;-0.02697222;-1.489743366447838;-3.592447421458834;285.8831944664933;72.96531683807413;106.1827;2.182622;0.2165096;0.00672904;0.2905921;0.01030241;0.06922386;-0.01716521;0;303889.9694267529;11239.60322526693;-0.001;1;0;2;
1510748672.41428;1510748672.41428;1510748672.414383;57.77340489163736;12.76673374085115;228.585534324233;-0.5975388;2.099522;-0.02775972;-1.468734719836226;-3.595227456622032;285.9021739537421;72.96618523092123;105.8867;2.182899;0.2305753;0.1600233;-0.001722759;0.06521741;0.08015388;-0.1568802;0;303890.0694279823;11239.70322624145;-0.001;1;0;2;
1510748672.429292;1510748672.429292;1510748672.429398;57.77340467698617;12.76673517961877;228.5869170503525;-0.5972701;2.095176;-0.02914796;-1.455815015610918;-3.581938909146952;285.9081558046685;72.96664885006668;105.9112;2.178645;0.2222321;0.4671507;0.1849119;0.1339816;-0.05733434;-0.1312423;0;303890.1094279721;11239.74322623126;-0.001;1;0;2;
1510748672.470783;1510748672.470783;1510748672.470894;57.77340446327766;12.76673661639549;228.5884516292355;-0.5973023;2.091285;-0.03228165;-1.445258236958812;-3.565976477700307;285.9088967756288;72.96711247105688;105.9401;2.174912;0.4565236;0.531116;0.1280178;0.1396845;-0.1601948;-0.15037;0;303890.1494289619;11239.78322722106;-0.001;1;0;2;
1510748672.547168;1510748672.547168;1510748672.547361;57.77340424951236;12.76673805039845;228.590063000606;-0.5978064;2.088932;-0.03696978;-1.434409191403883;-3.548142064570288;285.9087458807469;72.96757609435235;105.97;2.172789;0.2470617;0.2394944;0.1783464;0.06022961;-0.06536979;-0.03975557;0;303890.1894289517;11239.82322721087;-0.001;1;0;2;
1510748672.687464;1510748672.687464;1510748672.687574;57.77340392776457;12.76674019871433;228.5925426064632;-0.6005242;2.086888;-0.0361216;-1.416991420584946;-3.532497574519166;285.9079218325633;72.96827153203276;106.0537;2.171573;0.4999284;0.02747929;-0.007233007;0.06341713;-0.1047715;0.008606813;0;303890.2494289365;11239.88322719558;-0.001;1;0;2;
1510748672.766965;1510748672.766965;1510748672.767077;57.77340371169132;12.7667416298011;228.594169852347;-0.6050159;2.085496;-0.0336596;-1.409668054404331;-3.532125955191938;285.9133940804249;72.96873515830461;106.1778;2.171483;0.2449864;-0.09434172;0.3674567;0.009537224;0.0390507;0.1412234;0;303890.2894299263;11239.92322818539;-0.001;1;0;2;
1510748672.814424;1510748672.814424;1510748672.81453;57.77340349526632;12.76674306049721;228.5956255307707;-0.604984;2.085609;-0.02845726;-1.408324596585458;-3.533089403526749;285.9241847920356;72.96919878480743;106.1761;2.171582;-0.1036109;-0.08275632;0.464309;-0.007544844;-0.1151711;0.1643443;0;303890.329429916;11239.9632281752;-0.001;1;0;2;
1510748672.826381;1510748672.826381;1510748672.826485;57.77340327893361;12.76674449075473;228.5969646229552;-0.6020509;2.085289;-0.02643994;-1.41628313355551;-3.536175374614206;285.9363826504176;72.96966241183817;106.1041;2.17046;-0.05054424;-0.1608389;0.1974265;0.08589457;0.003966911;0.116354;0;303890.3694299058;11240.003228165;-0.001;1;0;2;
1510748672.841907;1510748672.841907;1510748672.841971;57.77340306199758;12.76674591900134;228.5982433605614;-0.6074428;2.081342;-0.02572189;-1.429221581170846;-3.536659575360216;285.952732047429;72.97012604034768;106.27;2.168172;-0.1060411;-0.002062419;0.5940481;-0.007042655;-0.0204991;-0.09766071;0;303890.4094308957;11240.04322915481;-0.001;1;0;2;
1510748672.847658;1510748672.847658;1510748672.847718;57.77340295349345;12.76674663249588;228.5989137442897;-0.6057371;2.080887;-0.02983194;-1.435792301972262;-3.535795505608511;285.9594285236929;72.97035785515727;106.23;2.167258;-0.5320904;-0.1365006;0.4259202;0.04475942;-0.03041103;0.04233594;0;303890.4294308906;11240.06322914971;-0.001;1;0;2;
1510748672.863951;1510748672.863951;1510748672.864323;57.77340273636818;12.76674805873764;228.6003207097894;-0.6050128;2.079493;-0.02992362;-1.446554092149581;-3.533428143903323;285.9700093218329;72.9708214854753;106.222;2.165718;-0.3215187;0.04425448;0.1661765;0.02478516;-0.04823735;0.0336101;0;303890.4694308804;11240.10322913952;-0.001;1;0;2;
1510748672.886456;1510748672.886456;1510748672.886564;57.77340251882159;12.76674948380161;228.6018033402069;-0.6059302;2.078489;-0.02928139;-1.450775145989486;-3.530947339616539;285.9799863742694;72.97128511671767;106.2527;2.16501;0.1076466;0.2166677;0.1953626;0.006249209;0.05101233;-0.04255164;0;303890.5094308702;11240.14322912933;-0.001;1;0;2;
1510748672.900749;1510748672.900749;1510748672.900859;57.77340230190674;12.7667509085529;228.6032954834431;-0.606797;2.077796;-0.03087912;-1.452635682798449;-3.525898163018253;285.9864965084345;72.97174874824212;106.2799;2.164587;0.3027371;0.0940897;0.3691969;0.01914581;0.07223523;-0.07916146;0;303890.54943186;11240.18323011914;-0.001;1;0;2;
1510748672.957441;1510748672.957441;1510748672.957795;57.77340208583473;12.76675233336002;228.604735077221;-0.6018926;2.077873;-0.0277459;-1.455502033047138;-3.520008360141311;285.9940047669222;72.97221237965427;106.1546;2.163291;-0.04673149;0.216977;0.3092658;0.03161782;0.09133948;0.01558254;0;303890.5894318498;11240.22323010894;-0.001;1;0;2;
1510748673.037502;1510748673.037502;1510748673.03764;57.77340187023007;12.76675375776619;228.6061033647446;-0.5985699;2.078384;-0.02670207;-1.458383646577628;-3.515545026030431;286.0023153609222;72.97267601142754;106.0663;2.16286;-0.1478243;0.1055946;0.1351906;-0.003436715;0.1058853;0.1028845;0;303890.6294318396;11240.26323009875;-0.001;1;0;2;
1510748673.085057;1510748673.085057;1510748673.085162;57.77340165444636;12.76675518135326;228.6073644549997;-0.6021903;2.076614;-0.0253802;-1.455297481777371;-3.510185593231973;286.0122346319039;72.97313964369739;106.1715;2.162165;0.1291985;0.04812754;0.2861298;0.02444944;-0.01796024;0.04991983;0;303890.6694328294;11240.30323108856;-0.001;1;0;2;
1510748673.151346;1510748673.151346;1510748673.15149;57.77340143828687;12.76675660446301;228.6086347034548;-0.6031537;2.07668;-0.02422758;-1.446418420924944;-3.510884160452448;286.0206423240938;72.97360327660307;106.1955;2.162497;0.3512525;-0.01219248;0.1895415;0.03117896;-0.1016864;0.04852212;0;303890.7094328192;11240.34323107837;-0.001;1;0;2;
1510748673.230613;1510748673.230613;1510748673.230715;57.77340122189189;12.7667580272963;228.6099123327745;-0.6043828;2.075976;-0.02423198;-1.437192689037645;-3.517942205753615;286.0290094056082;72.97406690999907;106.232;2.162164;0.2002104;-0.1623173;0.2793927;-0.03170235;-0.04791475;0.04052963;0;303890.749432809;11240.38323106817;-0.001;1;0;2;
1510748673.244485;1510748673.244485;1510748673.246243;57.7734010056668;12.76675945015564;228.6111320076583;-0.6023685;2.077123;-0.02302051;-1.432734081062337;-3.527174463092893;286.0364987653891;72.97453054357041;106.1722;2.162704;0.1681366;-0.2347155;0.1772466;0.0610325;0.0535669;-0.01443585;0;303890.7894327989;11240.42323105798;-0.001;1;0;2;
1510748673.256409;1510748673.256409;1510748673.256559;57.77340078953421;12.76676087333974;228.6122347607043;-0.6034088;2.077228;-0.01966511;-1.430858669873974;-3.533164123822436;286.0447904930494;72.97499417673519;106.1979;2.163095;0.2202411;-0.07677467;0.250436;0.01926306;-0.04358741;-0.06755392;0;303890.8294337887;11240.46323204779;-0.001;1;0;2;
1510748673.271582;1510748673.271582;1510748673.271687;57.77340057357229;12.76676229663567;228.6132638859605;-0.599417;2.077859;-0.02014661;-1.426368069399336;-3.536795871558441;286.0509062161645;72.97545780976982;106.0917;2.162591;-0.146404;-0.1099941;0.03710236;0.0006170592;0.0436729;-0.02087574;0;303890.8694337785;11240.5032320376;-0.001;1;0;2;
1510748673.290828;1510748673.290828;1510748673.290937;57.77340035754087;12.76676371956765;228.6142773052015;-0.6022442;2.077254;-0.01997333;-1.41873682002014;-3.536163996585778;286.0575464996592;72.97592144286853;106.1681;2.162795;0.07303735;0.006407818;0.2624686;-0.02129794;0.06370277;0.01747188;0;303890.9094337682;11240.5432320274;-0.001;1;0;2;
1510748673.302857;1510748673.302857;1510748673.302955;57.77340014203573;12.76676514179465;228.6153779361991;-0.6009668;2.07513;-0.02357446;-1.409928225385467;-3.532393135381582;286.0637579941206;72.97638507643764;106.1513;2.160399;0.257597;0.1012323;0.2358838;0.008593093;-0.02273154;-0.06466567;0;303890.949434758;11240.58323301721;-0.001;1;0;2;
1510748673.313522;1510748673.313522;1510748673.313626;57.77339992668972;12.76676656317358;228.6166538500313;-0.59891;2.075444;-0.02624943;-1.402739477631783;-3.530115369416513;286.0717218668736;72.97684871072852;106.0965;2.160129;-0.02440024;0.117459;0.1415873;-0.01773096;-0.01442577;-0.01689466;0;303890.9894347479;11240.62323300702;-0.001;1;0;2;
1510748673.319469;1510748673.319469;1510748673.319573;57.77339981852273;12.76676727327525;228.6172817892041;-0.5996949;2.075354;-0.02730979;-1.397305368834361;-3.527858343368749;286.0771123902225;72.97690663180842;106.1172;2.160261;0.2082773;0.04514772;0.1702674;-0.03703679;-0.06218283;0.05660325;0;303891.0094349976;11240.64323300192;-0.001;1;0;2;
1510748673.471149;1510748673.471149;1510748673.471356;57.773399493527;12.76676940362094;228.6191699931911;-0.601229;2.07391;-0.02630923;-1.387800974795687;-3.527795044780912;286.0929377687127;72.97690649897069;106.1669;2.159301;0.2432269;0.05388029;0.1653862;0.04565999;-0.1379022;-0.1306974;0;303891.0694349823;11240.70323298663;-0.001;1;0;2;
1510748673.550479;1510748673.550479;1510748673.550568;57.77339927631372;12.76677082330021;228.6204569262509;-0.6038603;2.073777;-0.02895431;-1.387563640989238;-3.533300916046484;286.1039419835483;72.97690641117268;106.235;2.159907;0.009518684;-0.2485479;0.260153;0.004365615;-0.1269919;0.05833998;0;303891.1094359721;11240.74323397644;-0.001;1;0;2;
1510748673.63085;1510748673.63085;1510748673.630942;57.7733990586036;12.76677224250243;228.6217318538067;-0.6037588;2.07319;-0.02771139;-1.391638935558291;-3.540179282607733;286.1130016614469;72.97690632398557;106.2367;2.159315;-0.2728904;-0.169251;0.1816238;-0.06589688;-0.01573725;-0.00370125;0;303891.149435962;11240.78323396625;-0.001;1;0;2;
1510748673.691849;1510748673.691849;1510748673.691955;57.77339884047201;12.76677366070834;228.6230017788207;-0.6068468;2.071117;-0.028682;-1.403650656941026;-3.544092012201216;286.1217784142104;72.97690623764872;106.3308;2.158191;-0.3880199;-0.09477905;0.2705001;-0.07282913;-0.09838092;-0.01519105;0;303891.1894359518;11240.82323395605;-0.001;1;0;2;
1510748673.706348;1510748673.706348;1510748673.706453;57.77339851212864;12.76677578557856;228.6249451774389;-0.605571;2.068858;-0.03056245;-1.415503063444923;-3.53606747540983;286.1328652299359;72.97690610964469;106.3152;2.155665;-0.1649468;0.1461363;-0.02138636;0.03142064;-0.05619165;-0.1136043;0;303891.2494369365;11240.88323494077;-0.001;1;0;2;
1510748673.716698;1510748673.716698;1510748673.7168;57.77339829366984;12.76677720083186;228.6262664893801;-0.604898;2.069329;-0.03104842;-1.417586020180531;-3.525815359795411;286.1371267584848;72.97690602528905;106.2945;2.155927;-0.1137369;0.06507458;0.0364017;-0.08050564;-0.01817572;0.04955553;0;303891.2894369263;11240.92323493057;-0.001;1;0;2;
1510748673.725969;1510748673.725969;1510748673.726074;57.77339807576086;12.76677861654757;228.6275675265325;-0.6032634;2.069298;-0.02666817;-1.417192148301931;-3.516702853843458;286.1425244952902;72.9769059405003;106.253;2.155439;0.04872932;0.2024577;0.170897;-0.01258643;0.06071128;0.1538701;0;303891.3294369161;11240.96323492038;-0.001;1;0;2;
1510748673.73673;1510748673.73673;1510748673.737552;57.77339785874145;12.76678003346026;228.6287777134249;-0.6012453;2.072459;-0.02451449;-1.411270179860066;-3.511640458168511;286.1502556478001;72.97690585467656;106.1781;2.157912;0.1629987;0.04674048;0.2553048;-0.007460616;0.09613115;0.07620495;0;303891.3694379059;11241.00323591019;-0.001;1;0;2;
1510748673.75552;1510748673.75552;1510748673.755632;57.77339775064998;12.76678074238272;228.6293494786923;-0.5999311;2.072739;-0.02465301;-1.408976613154587;-3.510693444652671;286.1544916717874;72.97690581142778;106.1425;2.157815;-0.006321039;-0.05586396;0.2842736;-0.04946772;0.007583281;0.1581925;0;303891.3894379008;11241.02323590509;-0.001;1;0;2;
