SampleTimeStamp;SentTimeStamp;ReceivedTimeStamp;lat;lon;alt;vel_north;vel_east;vel_down;roll;pitch;heading;wander;track;speed;arate_lon;arate_trans;arate_down;accel_lon;accel_trans;accel_down;alignment;timeDistance.time1;timeDistance.time2;timeDistance.distanceTag;timeDistance.time1Type;timeDistance.time2Type;timeDistance.distanceType;
1510748920.634172;1510748920.634172;1510748920.634291;57.77291275934159;12.77020941412816;232.2643556617772;-0.002903021;-0.003346491;0.0004883204;-0.854841007771061;-1.837763830520605;106.0854262489422;72.78103266206308;229.0589;0.004430185;0.05590444;0.0643088;-0.02894326;0.008763683;-0.01338025;0.003098172;0;304138.5511838596;11488.18498192255;-0.001;1;0;2;
1510748920.714107;1510748920.714107;1510748920.714173;57.77291275946779;12.77020941507362;232.2643729947905;-0.003592975;-0.003546258;0.0005946338;-0.8553466630123994;-1.837942610073577;106.085704531941;72.78109964140711;224.6251;0.005048309;-0.06249081;0.06036685;-0.07191484;-0.0002444581;-0.002419551;0.00517864;0;304138.5911848494;11488.22498291236;-0.001;1;0;2;
1510748920.794105;1510748920.794105;1510748920.794169;57.77291275956441;12.77020941609878;232.2643893262434;-0.003070121;-0.003621051;-0.0009283858;-0.855237507291899;-1.838486173365261;106.0848493108949;72.78116662062442;229.7069;0.004747384;-0.1734034;-0.07232928;-0.03506245;-0.002849735;-0.0172956;0.002857814;0;304138.6311848392;11488.26498290217;-0.001;1;0;2;
1510748920.874035;1510748920.874035;1510748920.874139;57.77291275992668;12.77020941740461;232.2643998742274;-0.001648952;-0.002766719;-0.0004311017;-0.8550613249551126;-1.839046273924894;106.0856089652393;72.7812335996783;239.2052;0.003220834;-0.1680749;-0.04010632;0.08396307;0.004687266;0.007467247;-0.0193022;0;304138.671184829;11488.30498289197;-0.001;1;0;2;
1510748920.954064;1510748920.954064;1510748920.954127;57.77291276007358;12.77020941871228;232.2644116793342;-0.001931959;-0.002600134;8.202468e-05;-0.8560902311113482;-1.840086831618819;106.0845384940825;72.78130057860736;233.3868;0.003239315;0.02827666;-0.01072537;0.001022279;0.006138623;-0.0004351344;0.00900827;0;304138.7111858188;11488.34498388178;-0.001;1;0;2;
1510748921.034099;1510748921.034099;1510748921.03421;57.77291276040435;12.77020942007384;232.2644151848512;-0.004011142;-0.003684049;-9.487062e-05;-0.8553450446644634;-1.840575663672297;106.0850818699434;72.78136755761579;222.566;0.005446235;-0.1527653;-0.01786427;-0.1331408;-0.01149057;-0.002881945;-0.01433598;0;304138.7511858086;11488.38498387159;-0.001;1;0;2;
1510748921.08754;1510748921.08754;1510748921.0878;57.77291276075989;12.7702094210424;232.2644153042224;-0.001554193;-0.003502348;0.0007770026;-0.8558793839054969;-1.840130478098956;106.0861584677724;72.78143453700493;246.0704;0.003831705;-0.08414834;0.07246765;0.05696549;-0.0245143;-0.01746546;-0.00779509;0;304138.7911857984;11488.4249838614;-0.001;1;0;2;
1510748921.150646;1510748921.150646;1510748921.150808;57.77291276095305;12.77020942139877;232.264434490294;-0.001785231;-0.00441411;-0.0007425373;-0.8569679580336108;-1.840688169771072;106.0850838332231;72.78150151675972;247.9798;0.004761451;0.01914385;-0.03610732;-0.02588364;-0.01055994;-0.002371221;-0.01224111;0;304138.8311857882;11488.4649838512;-0.001;1;0;2;
1510748921.230583;1510748921.230583;1510748921.230681;57.77291276128391;12.77020942162348;232.2644508835223;-0.002103767;-0.004521455;-0.000312803;-0.8563659613396427;-1.840593539320581;106.0846229831696;72.78156849670832;245.0481;0.004986922;0.1706215;0.006463157;-0.09666641;-0.0064157;0.004291336;-0.001765614;0;304138.871186778;11488.50498484101;-0.001;1;0;2;
1510748921.300661;1510748921.300661;1510748921.300824;57.77291276145589;12.77020942182477;232.2644642365441;-0.003335798;-0.00469746;-0.0006224409;-0.8562271011003066;-1.840235137594054;106.0836594006574;72.78163547665908;234.6204;0.005761395;0.0165082;-0.02225322;-0.1321667;0.006679514;-0.00675031;-0.006704341;0;304138.9111867679;11488.54498483082;-0.001;1;0;2;
1510748921.380485;1510748921.380485;1510748921.380587;57.77291276153492;12.77020942222383;232.264471953885;-0.001615838;-0.003519286;0.0003305544;-0.8560715774478267;-1.83979205163559;106.0826832599137;72.78170245644614;245.3383;0.003872507;-0.005940238;0.04307505;0.04572418;0.01268686;-0.002345832;0.002351959;0;304138.9511867577;11488.58498482063;-0.001;1;0;2;
1510748921.454162;1510748921.454162;1510748921.454271;57.77291276180132;12.77020942299226;232.2644728642364;-0.002684749;-0.003785568;-0.0004707055;-0.8543094433363755;-1.83957375073699;106.0830855296731;72.78176943599694;234.6555;0.004640948;0.03854396;-0.04554942;-0.08480635;-0.001649533;-0.01170763;0.005152171;0;304138.9911877475;11488.62498581043;-0.001;1;0;2;
1510748921.48161;1510748921.48161;1510748921.481674;57.77291276216501;12.77020942349586;232.2644617143005;-0.004386069;-0.00379884;0.0003812193;-0.8539182451771388;-1.839812345917195;106.0825499501914;72.7816293275132;220.8963;0.005802481;-0.09561809;0.0142349;-0.1799917;0.01615388;0.003640555;0.006054575;0;304139.0111869971;11488.64498580534;-0.001;1;0;2;
1510748921.496896;1510748921.496896;1510748921.498647;57.77291276145702;12.77020942433191;232.2644204653714;-0.000138028;-0.002470789;-8.202009e-05;-0.8531230383161852;-1.840617552394026;106.0845876779246;72.78120900182842;266.8026;0.002474642;0.200141;-0.02759083;0.1011112;0.01256958;0.0006116377;-0.006788412;0;304139.0711869819;11488.70498579005;-0.001;1;0;2;
1510748921.51702;1510748921.51702;1510748921.517127;57.77291276088875;12.77020942484266;232.2643949199362;0.0005540398;-0.002583506;-0.0006790851;-0.8537300440865466;-1.841087454201814;106.0850246692602;72.78092878468891;282.1039;0.002642245;0.1004125;-0.06859145;0.1658092;-0.01087769;-0.01351244;-0.007820128;0;304139.1111869717;11488.74498577985;-0.001;1;0;2;
1510748921.526156;1510748921.526156;1510748921.526268;57.77291276035263;12.77020942523831;232.2643753527987;-0.00330513;-0.003946069;-0.0009479747;-0.8552825469408073;-1.841398556962067;106.0850246741056;72.78064856762016;230.0513;0.005147363;-0.03262738;-0.07287721;-0.15791;-0.009779571;0.006805208;0.001539047;0;304139.1511879615;11488.78498676966;-0.001;1;0;2;
1510748921.537847;1510748921.537847;1510748921.537959;57.77291275989532;12.77020942546875;232.2643642863391;-0.003266837;-0.003659235;0.001043075;-0.8562571266369656;-1.84168054372455;106.0849453589218;72.7803683506974;228.2426;0.004905326;-0.04492288;0.1092993;-0.1383608;-0.01201703;0.004178135;0.004732261;0;304139.1911879512;11488.82498675947;-0.001;1;0;2;
1510748921.604204;1510748921.604204;1510748921.604463;57.77291275907672;12.77020942542877;232.2643467965081;-0.00250704;-0.004099649;-0.0005370637;-0.8576995209510903;-1.841480149919706;106.0851642654388;72.77994802568358;238.5531;0.004805453;-0.1845978;-0.02345425;0.01813602;-0.001526201;0.01336215;-0.002035687;0;304139.251187936;11488.88498674418;-0.001;1;0;2;
1510748921.684102;1510748921.684102;1510748921.684228;57.77291275842465;12.77020942530199;232.2643259992045;-0.001035406;-0.003616424;-0.0001148956;-0.8573234735351906;-1.841102829482406;106.0855754823087;72.77966780913516;254.0232;0.003761726;-0.06228358;-0.01081491;0.1349844;-0.00157358;0.008201219;0.01531428;0;304139.2911889258;11488.92498773398;-0.001;1;0;2;
1510748921.764152;1510748921.764152;1510748921.764255;57.77291275787373;12.77020942531075;232.2643050039662;-0.0003499497;-0.003262275;-0.0004993884;-0.8551747451301647;-1.841297864718756;106.087389854345;72.77938759253621;263.8772;0.003280991;-0.06645462;-0.05541351;0.214602;0.005785672;-0.00276606;-0.0002762303;0;304139.3311889156;11488.96498772379;-0.001;1;0;2;
1510748921.844132;1510748921.844132;1510748921.844195;57.77291275706339;12.7702094253987;232.2642788293154;-0.002970588;-0.003666361;-4.022074e-05;-0.8535595518197081;-1.841261880547143;106.0870714104224;72.77910737577541;230.9846;0.00471875;0.1815888;-0.01755269;-0.1024251;0.002387429;0.0009427665;0.00333127;0;304139.3711889054;11489.0049877136;-0.001;1;0;2;
1510748921.944094;1510748921.944094;1510748921.944159;57.77291275634455;12.77020942564535;232.2642608831865;-0.002550605;-0.003301516;-0.0001897868;-0.8538576791159403;-1.841801153043795;106.0876172805227;72.77882715886565;232.3119;0.004172001;0.004683472;-0.01372532;-0.03603121;0.002455073;-0.01617484;-0.002516012;0;304139.4111898952;11489.0449887034;-0.001;1;0;2;
1510748921.959378;1510748921.959378;1510748921.959484;57.77291275571172;12.77020942603349;232.2642450078301;-0.002602207;-0.003505808;-0.0009776242;-0.8540575109041654;-1.84218165075974;106.0879623553327;72.77854694183567;233.4151;0.004366025;0.002139569;-0.0830872;-0.07158875;0.0001343997;-0.01349467;0.005178883;0;304139.451189885;11489.08498869321;-0.001;1;0;2;
1510748921.969762;1510748921.969762;1510748921.969868;57.77291275509744;12.77020942638551;232.2642220020184;-0.003543041;-0.003943754;-0.0005331481;-0.8538253242146133;-1.842112683724076;106.0877029280618;72.77826672483543;228.0637;0.005301542;0.01002341;-0.04427524;-0.1567642;-0.01630243;-0.0008448851;-0.01119544;0;304139.4911898748;11489.12498868302;-0.001;1;0;2;
1510748921.977605;1510748921.977605;1510748921.97771;57.77291275459926;12.77020942659314;232.2642012268631;-0.002298582;-0.003635407;0.0001625881;-0.8537683598094155;-1.842073979822528;106.088782536753;72.77798650801468;237.6958;0.004301123;-0.001527303;0.02331046;-0.03196325;-0.02076002;0.009552212;0.003802608;0;304139.5311908646;11489.16498967282;-0.001;1;0;2;
1510748921.98438;1510748921.98438;1510748921.984484;57.77291275402882;12.77020942666284;232.2641878646578;-0.002597578;-0.003508125;0.0004938102;-0.8554123628964059;-1.841908683758135;106.0898112926026;72.77770629128915;233.482;0.004365129;0.03454594;0.06463179;-0.06124114;-0.0004213051;0.009836027;0.007253415;0;304139.5711908544;11489.20498966263;-0.001;1;0;2;
1510748921.989152;1510748921.989152;1510748921.989259;57.77291275370095;12.77020942673237;232.2641775034615;-0.003308296;-0.003503507;0.0006059379;-0.8554963390752729;-1.841491980927382;106.089752578665;72.77756618289682;226.6415;0.004818649;0.06375513;0.07237811;-0.1364586;0.008668098;-0.0130171;0.009070566;0;304139.5911908493;11489.22498965754;-0.001;1;0;2;
1510748921.996425;1510748921.996425;1510748921.996545;57.77291275305082;12.77020942701251;232.2641688989009;-0.002841336;-0.003159523;-8.336121e-05;-0.8552791756032438;-1.841983189244128;106.0895953215117;72.77728596593629;228.0352;0.004249209;0.04553517;0.002947549;-0.08596986;0.01637111;-0.001392415;0.0008379562;0;304139.6311908391;11489.26498964734;-0.001;1;0;2;
1510748922.003808;1510748922.003808;1510748922.003915;57.77291275244457;12.7702094275732;232.2641536900162;0.0004563572;-0.002271832;-0.001033367;-0.8542422064968893;-1.842604326610594;106.090246541261;72.77700574878149;281.3582;0.002317214;0.2896137;-0.1026021;0.1438422;-0.003686563;0.001682322;0.005991881;0;304139.671191829;11489.30499063715;-0.001;1;0;2;
1510748922.074329;1510748922.074329;1510748922.074435;57.77291275166368;12.77020942814394;232.2641244264067;-0.002967901;-0.003026414;-7.786043e-05;-0.8550372350859038;-1.842746488780262;106.0904887135271;72.77672553159452;225.5593;0.004238822;-0.03817341;-0.02840448;-0.040145;-0.001428715;-0.007882984;-0.009408669;0;304139.7111918188;11489.34499062696;-0.001;1;0;2;
1510748922.1142;1510748922.1142;1510748922.114301;57.77291275083799;12.77020942859592;232.2640910813493;-0.001586694;-0.002970137;-0.0002610841;-0.8550485606129843;-1.842563827844808;106.0901425070219;72.77644531450738;241.8882;0.00336739;0.03425939;-0.04215539;0.05440395;-0.02476734;0.007669247;0.0008501167;0;304139.7511918086;11489.38499061676;-0.001;1;0;2;
1510748922.194175;1510748922.194175;1510748922.1943;57.77291275015402;12.77020942892586;232.2640608046649;-0.002413935;-0.00341892;-0.0005990437;-0.8541823868292855;-1.841984625337377;106.0902036911863;72.77616509757307;234.7759;0.004185223;-0.05409021;-0.03817901;-0.01576008;-0.005521343;-0.0001049627;-0.01109429;0;304139.7911917983;11489.42499060657;-0.001;1;0;2;
1510748922.274153;1510748922.274153;1510748922.274256;57.7729127495536;12.77020942912396;232.2640514143218;-0.003883902;-0.004163668;-0.001059972;-0.8530924704119039;-1.842338959343772;106.0907479454948;72.77588488073306;226.991;0.005693929;0.04135259;-0.06753719;-0.1678909;0.005737088;0.008469318;0.01068588;0;304139.8311927881;11489.46499159638;-0.001;1;0;2;
1510748922.344085;1510748922.344085;1510748922.344191;57.77291274887683;12.77020942917024;232.2640412035229;-0.003356888;-0.003785383;-1.428309e-05;-0.8532600901074519;-1.842371362264847;106.0912889495755;72.77560466401754;228.4333;0.005059429;0.08263972;0.02387193;-0.1248621;0.002789052;0.005990735;-0.006458005;0;304139.871192778;11489.50499158618;-0.001;1;0;2;
1510748922.37086;1510748922.37086;1510748922.371101;57.77291274815374;12.77020942918994;232.2640230594875;-0.003686758;-0.004035792;-0.0003897842;-0.8533267840637613;-1.841955101025569;106.0911783407655;72.77532444731675;227.5878;0.005466242;0.09378938;-0.01477958;-0.1771384;-0.003741444;0.0005023681;-0.0007287515;0;304139.9111927678;11489.54499157599;-0.001;1;0;2;
1510748922.378929;1510748922.378929;1510748922.379028;57.77291274759068;12.77020942926243;232.2639986520731;-0.001136111;-0.003239795;-8.005818e-05;-0.8533282052639067;-1.84177299474818;106.0916127228016;72.77504423058645;250.6756;0.003433223;0.07163892;-0.01819438;0.03999985;-0.001991431;0.005913838;0.002104506;0;304139.9511937576;11489.5849925658;-0.001;1;0;2;
1510748922.385082;1510748922.385082;1510748922.385985;57.77291274703374;12.77020942938187;232.2639683271217;-0.002274997;-0.003566876;-0.0001105773;-0.8537728527162877;-1.841861795209735;106.0922945733797;72.77476401380891;237.4698;0.004230628;-0.07908244;-0.03584135;-0.004507268;0.001779459;0.01097489;-0.005738695;0;304139.9911937474;11489.6249925556;-0.001;1;0;2;
1510748922.390375;1510748922.390375;1510748922.390504;57.77291274703595;12.77020942958289;232.2638747474818;-0.001996906;-0.003251736;0.00052768;-0.8542127159516744;-1.841605706529961;106.0927299026526;72.77468489624788;238.4457;0.003815943;0.001806312;0.01285071;0.01108451;-0.007003384;0.01049608;0.002199738;0;304140.0111939971;11489.64499255051;-0.001;1;0;2;
1510748922.399988;1510748922.399988;1510748922.400095;57.77291274659044;12.77020942952932;232.2637893144069;-0.002820788;-0.003704684;-0.0003482286;-0.8544144337918539;-1.841998935337065;106.0927700663354;72.7746057786769;232.7139;0.004656343;-0.06506891;-0.05496417;-0.03671134;-0.001293098;0.008848983;0.002704107;0;304140.031193992;11489.66499254541;-0.001;1;0;2;
1510748922.405644;1510748922.405644;1510748922.405749;57.772912746061;12.77020942944363;232.2637078093532;-0.00317284;-0.003775786;-0.0006590423;-0.8552004350717473;-1.842521010449665;106.0924318766894;72.77452666110136;229.9592;0.004931884;-0.04587492;-0.06792445;-0.06898011;0.002745349;-0.001887217;-0.01074481;0;304140.051193987;11489.68499254031;-0.001;1;0;2;
1510748922.413908;1510748922.413908;1510748922.414025;57.77291274512429;12.77020942932693;232.2635416797526;-0.001784775;-0.003276611;-9.107983e-05;-0.8561528143330911;-1.842599403941871;106.0927294823428;72.77436842600187;241.4228;0.003731167;-0.2520698;-0.002951391;0.1213095;0.003427673;-0.002632122;0.005451432;0;304140.0911949768;11489.72499353012;-0.001;1;0;2;
1510748922.454074;1510748922.454074;1510748922.454136;57.77291274419279;12.77020942920121;232.2633843369699;-0.003452776;-0.003781227;-0.0001840892;-0.8556638816481353;-1.842349457630006;106.0924022527479;72.77421019091739;227.5997;0.005120482;0.0686816;0.008335716;-0.1319936;-0.01683503;0.01402745;-0.002534473;0;304140.1311949666;11489.76499351993;-0.001;1;0;2;
1510748922.531398;1510748922.531398;1510748922.531462;57.77291274330933;12.77020942908906;232.2632223229035;-0.002225243;-0.003249695;0.0004091238;-0.8549004220623774;-1.841983035408296;106.0925911653479;72.7740519558544;235.5984;0.003938556;0.0215847;0.03409585;0.001802662;0.002169349;0.008500223;-0.008370126;0;304140.1711949563;11489.80499350974;-0.001;1;0;2;
1510748922.610854;1510748922.610854;1510748922.610919;57.7729127423082;12.77020942896839;232.2630467521775;-0.001914524;-0.003380127;6.87406e-06;-0.8561614044849998;-1.841588121522227;106.0925430476968;72.77389372075949;240.4725;0.00388467;-0.1410657;-0.03884129;0.07467104;-0.01145966;0.003439151;-0.006124326;0;304140.2111949462;11489.84499349954;-0.001;1;0;2;
1510748922.670619;1510748922.670619;1510748922.670718;57.77291274184692;12.77020942892445;232.2629558642394;-0.001326175;-0.002907672;0.001051396;-0.8556548094259391;-1.841594038478996;106.0924684489686;72.77381460320304;245.4825;0.003195825;0.04180995;0.03474893;0.07316992;0.003600023;0.002763073;0.003545322;0;304140.2311959411;11489.86499449445;-0.001;1;0;2;
1510748922.750592;1510748922.750592;1510748922.750656;57.77291274090004;12.77020942884612;232.2627667316398;-0.004040172;-0.003785995;0.0009309473;-0.8560940583963409;-1.841440964618198;106.0922814095572;72.77365636806694;223.1398;0.005536854;-0.05742573;0.01752592;-0.1463175;-0.01150865;0.007995985;0.006953876;0;304140.2711959309;11489.90499448426;-0.001;1;0;2;
1510748922.806735;1510748922.806735;1510748922.806853;57.77291274005156;12.770209428786;232.2625888298316;-0.002052524;-0.003200901;0.000451479;-0.8561411970934403;-1.84175445016305;106.0930400392952;72.77349813294309;237.3307;0.00380245;-0.04007668;-0.001244082;0.03086297;0.01193201;-0.00401403;0.001318156;0;304140.3111959207;11489.94499447406;-0.001;1;0;2;
1510748922.824565;1510748922.824565;1510748922.824837;57.77291273920688;12.77020942872912;232.2624096332042;-0.0009420332;-0.002902591;0.001176341;-0.8551536497085507;-1.841214485640892;106.0940453432307;72.77333989788185;252.0192;0.003051632;-0.03783072;0.05985586;0.1444683;-0.01737373;0.00259801;-0.0001256706;0;304140.3511969105;11489.98499546387;-0.001;1;0;2;
1510748922.843094;1510748922.843094;1510748922.84321;57.77291273774343;12.77020942824539;232.2621637047583;-0.001725897;-0.003854431;-0.0007310546;-0.8546859682320623;-1.841417321823858;106.0943183340506;72.77310254550956;245.8786;0.004223194;0.0733568;-0.07777928;0.02741376;-0.02205208;0.004984093;-0.006163507;0;304140.4111968952;11490.04499544858;-0.001;1;0;2;
1510748922.849813;1510748922.849813;1510748922.849947;57.77291273713606;12.77020942801179;232.2620772806989;-0.003878013;-0.004087282;0.0002973582;-0.8547553881531582;-1.840806259000231;106.0933526450759;72.7730234280926;226.505;0.005634257;-0.03909124;0.01201418;-0.116352;0.007220644;0.005155134;0.002377731;0;304140.4311968901;11490.06499544348;-0.001;1;0;2;
1510748922.860395;1510748922.860395;1510748922.860496;57.77291273621046;12.77020942775052;232.2619098390138;-0.002911683;-0.00339789;0.001313226;-0.8546833425422403;-1.840171430332447;106.094187812268;72.77286519318744;229.4064;0.004474769;-0.176268;0.07941658;0.0154275;5.005278e-05;-0.004667582;0.01107451;0;304140.4711968799;11490.10499543329;-0.001;1;0;2;
1510748922.87151;1510748922.87151;1510748922.871612;57.77291273514594;12.7702094276279;232.261736025932;-0.003006915;-0.003093179;0.001118409;-0.8545850174711181;-1.840147796441646;106.0938996255999;72.7727069580861;225.8102;0.004313848;-0.1026319;0.02756419;-0.007215634;0.007629008;0.001394837;0.01255189;0;304140.5111978697;11490.1449964231;-0.001;1;0;2;
1510748922.900544;1510748922.900544;1510748922.900617;57.77291273391531;12.77020942763288;232.2615504016372;-0.003368177;-0.003065057;0.001096676;-0.8545775538252104;-1.840348940153404;106.0927710393108;72.77254872282668;222.3023;0.00455403;0.01930417;-0.0037306;-0.05384263;0.003871792;0.01739148;0.002115933;0;304140.5511978595;11490.18499641291;-0.001;1;0;2;
1510748922.980589;1510748922.980589;1510748922.980697;57.77291273287531;12.77020942781601;232.2613653172633;0.000829824;-0.001992055;0.000592217;-0.8541568842639828;-1.841094919731267;106.0936515286081;72.7723904874898;292.615;0.002157983;0.1279822;-0.05298176;0.2678483;-0.008783462;0.007882077;-0.00592348;0;304140.5911978494;11490.22499640271;-0.001;1;0;2;
1510748923.060857;1510748923.060857;1510748923.060922;57.7729127317829;12.77020942791409;232.2611821290685;-0.00298043;-0.003176575;0.0009902298;-0.8553009365383942;-1.84146215766584;106.0939389374892;72.77223225219213;226.8247;0.004355868;-0.07152044;0.002273925;-0.02509179;-0.008809767;-0.001914152;-0.006760852;0;304140.6311988392;11490.26499739252;-0.001;1;0;2;
1510748923.097243;1510748923.097243;1510748923.097304;57.77291273086445;12.77020942790194;232.2610133559157;-0.001425418;-0.003126512;0.0002507484;-0.8552757013625572;-1.841760440028671;106.0946045673069;72.77207401702515;245.4911;0.003436116;-0.03928604;-0.02525082;0.08198194;-0.008593642;0.01374972;-0.0006132674;0;304140.671198829;11490.30499738233;-0.001;1;0;2;
1510748923.174432;1510748923.174432;1510748923.174498;57.77291273002908;12.77020942774067;232.2608544117216;-0.003550326;-0.003877037;0.000642783;-0.8546611330259201;-1.841939661528747;106.0953650280989;72.77191578200286;227.5187;0.005257017;-0.3202513;0.01867203;-0.02777332;-0.00827744;0.004288554;-0.005553667;0;304140.7111988188;11490.34499737214;-0.001;1;0;2;
1510748923.23552;1510748923.23552;1510748923.235633;57.77291272906325;12.77020942737231;232.2606904909275;-0.001898529;-0.003361288;0.001170404;-0.8555223111683308;-1.841754374290607;106.0951889163791;72.77175754710775;240.5413;0.003860397;-0.02102019;0.05106667;0.02462921;-0.009391346;-0.003795748;-0.002968475;0;304140.7511988085;11490.38499736194;-0.001;1;0;2;
1510748923.246533;1510748923.246533;1510748923.246641;57.77291272813135;12.77020942697958;232.2605249273605;-0.001954997;-0.003675642;0.000245038;-0.855476080619088;-1.841696764823859;106.0950086929172;72.77159931224055;241.9924;0.004163215;-0.04282688;-0.04383746;0.02247489;0.007034487;-0.0016446;7.200815e-05;0;304140.7911997983;11490.42499835175;-0.001;1;0;2;
1510748923.259093;1510748923.259093;1510748923.259199;57.77291272714515;12.77020942670201;232.2603478184256;-0.001849355;-0.003194374;0.0008429607;-0.855509050339501;-1.841001714997286;106.0949519521772;72.77144107730956;239.9317;0.003691089;0.08679827;0.003626049;0.02118004;0.0128072;0.007330024;0.0009289171;0;304140.8311997882;11490.46499834156;-0.001;1;0;2;
1510748923.266299;1510748923.266299;1510748923.266404;57.77291272605091;12.77020942653099;232.260175818967;-0.001703593;-0.002727085;0.001640073;-0.8551508612227928;-1.84083132518535;106.0950412842056;72.7712828422769;238.0072;0.003215466;0.1800982;0.0541377;0.04742136;0.003021489;0.01333754;0.01670148;0;304140.871199778;11490.50499833137;-0.001;1;0;2;
1510748923.275333;1510748923.275333;1510748923.275446;57.7729127248581;12.77020942641354;232.2600081054144;-0.001058809;-0.002459275;0.001139744;-0.8556233740593164;-1.841479101077699;106.0952990110213;72.7711246071572;246.7063;0.002677519;0.1277072;0.001517556;0.12202;0.006570833;-0.002721412;0.003604619;0;304140.9112007678;11490.54499932117;-0.001;1;0;2;
1510748923.283982;1510748923.283982;1510748923.284081;57.77291272374593;12.77020942650716;232.2598347694496;-0.00261455;-0.002875873;0.0009068554;-0.8541112966459268;-1.841846134268516;106.0957269387962;72.7709663719085;227.725;0.00388671;0.1005722;-0.01727522;-0.02134471;-0.008302247;-0.005866045;0.009514413;0;304140.9512007576;11490.58499931098;-0.001;1;0;2;
1510748923.292701;1510748923.292701;1510748923.292818;57.77291272260262;12.77020942664134;232.2596620723771;-0.003658061;-0.00313691;0.0008487565;-0.8538076915501699;-1.841626401131266;106.0958319957336;72.77080813661981;220.6142;0.004818882;0.03417822;0.004107441;-0.100252;-0.007992061;-0.0006865475;-0.02184254;0;304140.9912007474;11490.62499930079;-0.001;1;0;2;
1510748923.304232;1510748923.304232;1510748923.304342;57.77291272095324;12.7702094260396;232.2596514189783;-0.001561754;-0.002488492;0.001262648;-0.8539071853208223;-1.841628151023029;106.0956846764002;72.7710708180078;237.888;0.00293797;0.1059663;0.03996095;0.06782173;-0.009114302;0.006517282;-0.002096628;0;304141.0112009972;11490.64499929569;-0.001;1;0;2;
1510748923.494485;1510748923.494485;1510748923.494623;57.77291271990749;12.77020942614644;232.2596235487036;-0.003121663;-0.003291613;0.0009268922;-0.8553066968160816;-1.841897542324546;106.0937422120545;72.77185886226061;226.518;0.004536463;-0.02094314;0.0124247;-0.04185316;-0.01361542;0.00900036;0.003418377;0;304141.0712019819;11490.7050002804;-0.001;1;0;2;
1510748923.574412;1510748923.574412;1510748923.574514;57.77291271940499;12.77020942616949;232.2595927145801;-0.002315254;-0.003393776;0.0008898598;-0.8546468420254939;-1.841669751954903;106.0936291500437;72.77238422523256;235.698;0.004108299;0.04456845;-0.007617212;-0.00685712;-0.01569286;0.004819409;-8.652111e-05;0;304141.1112019717;11490.74500027021;-0.001;1;0;2;
1510748923.654385;1510748923.654385;1510748923.65449;57.77291271874776;12.77020942600027;232.2595588436254;-0.001662167;-0.003150356;0.00101269;-0.8546944026057964;-1.841656659383126;106.0920089997997;72.77290958827793;242.1833;0.003561957;-0.01850242;-0.003033548;0.07219912;0.008211709;0.009737132;-0.001320251;0;304141.1512019614;11490.78500026002;-0.001;1;0;2;
1510748923.685768;1510748923.685768;1510748923.685929;57.77291271833024;12.77020942602076;232.2595153350078;1.851241e-05;-0.002492744;0.001300578;-0.8544633512143232;-1.840980177936732;106.0926842663628;72.77343495130224;270.4255;0.002492813;-0.002952451;0.02310463;0.2094102;-0.001756027;-0.004680909;-0.008106026;0;304141.1912029513;11490.82500124982;-0.001;1;0;2;
1510748923.697288;1510748923.697288;1510748923.697393;57.77291271752077;12.77020942606764;232.2594745910341;-0.001182326;-0.002617538;0.0005581878;-0.8552789223998231;-1.841588150098891;106.0918722848428;72.77422299565053;245.6916;0.002872176;0.1007638;-0.02031394;0.05151551;0.00545198;0.000353481;-0.01931523;0;304141.251202936;11490.88500123454;-0.001;1;0;2;
1510748923.704565;1510748923.704565;1510748923.704693;57.77291271702502;12.77020942638382;232.2594376431163;-0.001520529;-0.002661002;0.0003361237;-0.8564455186283011;-1.84086885849514;106.0917976245352;72.77474835837189;240.2558;0.00306479;-0.02964066;-0.04212062;0.0525354;0.002414686;-0.0006990717;0.001055487;0;304141.2912029258;11490.92500122434;-0.001;1;0;2;
1510748923.710762;1510748923.710762;1510748923.71094;57.77291271633332;12.77020942654359;232.2594060629409;-0.004296509;-0.003642848;-8.927737e-06;-0.8568720273248901;-1.840888097539059;106.0898160878789;72.77527372111554;220.2934;0.005632969;-0.0122687;-0.07531764;-0.1792017;0.003085007;0.01024291;0.0002073464;0;304141.3312039156;11490.96500221415;-0.001;1;0;2;
1510748923.717488;1510748923.717488;1510748923.717588;57.77291271569963;12.7702094267099;232.2593730718382;-0.003598976;-0.003051582;0.001215644;-0.8562268622272458;-1.841066582544745;106.0895056285947;72.77579908393847;220.2947;0.004718557;-0.07402167;0.02893723;-0.05091728;0.004938649;0.01811699;-0.002824325;0;304141.3712039054;11491.00500220396;-0.001;1;0;2;
1510748923.744164;1510748923.744164;1510748923.744336;57.77291271490005;12.77020942681914;232.2593431601621;-0.002507199;-0.002946057;0.0004663591;-0.8555222615712627;-1.841060307894365;106.0886900095597;72.77632444679581;229.601;0.003868501;0.1211151;-0.0230756;-0.00374019;-0.001863241;0.01342991;0.007527716;0;304141.4112038952;11491.04500219376;-0.001;1;0;2;
1510748923.824141;1510748923.824141;1510748923.824265;57.77291271401626;12.77020942677197;232.2593160454425;-0.003980047;-0.003313267;0.001658475;-0.855233686790007;-1.841107092587736;106.0873836706698;72.77684980975452;219.7763;0.00517866;-0.02982397;0.08508679;-0.09085222;-0.02094784;-0.0008671384;0.00660804;0;304141.451204885;11491.08500318357;-0.001;1;0;2;
1510748923.904145;1510748923.904145;1510748923.904314;57.77291271342126;12.77020942644775;232.2592864412491;-0.003822052;-0.004611127;-0.0009595414;-0.8536084364534074;-1.841825021913934;106.0876769040548;72.77737517300973;230.3455;0.005989204;-0.08801323;-0.1688808;-0.1083389;-0.05131119;-0.01589255;0.05660667;0;304141.4912048748;11491.12500317338;-0.001;1;0;2;
1510748923.984133;1510748923.984133;1510748923.984259;57.77291271273506;12.77020942551431;232.2592504257195;-0.003276;-0.00582398;0.0005384347;-0.8546291693585364;-1.842873060773664;106.0864796326497;72.77790053665835;240.6422;0.006682134;-0.08860903;-0.0522045;-0.1213564;-0.1019219;0.01864383;0.05850168;0;304141.5312048646;11491.16500316319;-0.001;1;0;2;
1510748924.064249;1510748924.064249;1510748924.064363;57.77291271256613;12.77020942332934;232.2592207419569;-0.0006255273;-0.00743925;0.0009694765;-0.8531261724075474;-1.843861964019188;106.0857310067718;72.77842590142586;265.1936;0.007465502;0.1167837;-0.03160104;-0.04786925;-0.07977071;-0.01344513;0.01080146;0;304141.5712048545;11491.20500315299;-0.001;1;0;2;
1510748924.085999;1510748924.085999;1510748924.08606;57.77291271260548;12.77020942175322;232.2591909143417;-0.0009143781;-0.008362551;0.001170566;-0.8540199583896395;-1.843655479567618;106.0859739739697;72.77868858425484;263.7599;0.008412393;-0.1260917;-0.01317483;-0.02869821;-0.02769829;0.004572526;0.02452428;0;304141.5912058494;11491.2250041479;-0.001;1;0;2;
1510748924.107131;1510748924.107131;1510748924.107234;57.77291271265819;12.77020941764845;232.2591662104672;-0.0005934281;-0.01005629;-0.000339982;-0.8538367367549287;-1.844494972210448;106.0843038674701;72.7792139505918;266.6229;0.01007378;-0.02771539;-0.05107001;-0.07625344;-0.05523093;-0.02059158;-0.01637648;0;304141.6312058392;11491.26500413771;-0.001;1;0;2;
1510748924.116653;1510748924.116653;1510748924.116757;57.77291271293159;12.77020941231621;232.2591330190969;0.0001064648;-0.01232464;0.0006264457;-0.8551160134069472;-1.843793239838332;106.0834445451267;72.77973931805309;270.4949;0.0123251;-0.04705838;0.01462481;-0.06616937;-0.05008385;0.004705254;-0.05334577;0;304141.671205829;11491.30500412751;-0.001;1;0;2;
1510748924.127105;1510748924.127105;1510748924.127206;57.77291271349339;12.77020940551832;232.2591041735656;0.001553047;-0.01446451;-0.0001186617;-0.8548498216063287;-1.84274096506853;106.0830935112579;72.78026468681604;276.1284;0.01454764;-0.1977455;-0.03644827;0.06709978;-0.07924666;0.010125;0.02268305;0;304141.7112058188;11491.34500411732;-0.001;1;0;2;
1510748924.135738;1510748924.135738;1510748924.135852;57.77291271411751;12.77020939695089;232.2590662495903;0.001525988;-0.0167261;0.0009088363;-0.8554034383730182;-1.842095547678829;106.082541973165;72.78079005703621;275.2129;0.01679557;0.07158892;0.02768808;-0.04644824;-0.05874927;-0.008040578;0.01565147;0;304141.7512068086;11491.38500510713;-0.001;1;0;2;
1510748924.144806;1510748924.144806;1510748924.144912;57.77291271500384;12.77020938669601;232.2590379091561;-1.337099e-05;-0.01936126;-0.0002190776;-0.8553962096357297;-1.844935402240016;106.0822412826545;72.78131542854457;269.9604;0.01936126;0.01004233;-0.1933004;-0.1836823;-0.002343334;0.03147581;0.04619127;0;304141.7912067984;11491.42500509693;-0.001;1;0;2;
1510748924.15297;1510748924.15297;1510748924.153085;57.77291271601563;12.77020937412803;232.2590064019995;0.002316303;-0.02629652;-0.0007291715;-0.8598389824686647;-1.850320158488415;106.082627522626;72.78184080186006;275.0338;0.02639834;-0.144506;-0.1413452;-0.1384761;-0.2706425;0.004028126;-0.07022975;0;304141.8312067882;11491.46500508674;-0.001;1;0;2;
1510748924.161161;1510748924.161161;1510748924.16123;57.77291271832514;12.77020935643191;232.2589567880789;0.004579523;-0.0319599;-0.0005957236;-0.8539334750163156;-1.850580182630853;106.081864245222;72.78236617984597;278.1544;0.03228633;0.0001878498;-0.2908287;-0.1683387;-0.02972385;0.04436313;0.1648756;0;304141.871207778;11491.50500607655;-0.001;1;0;2;
1510748924.234385;1510748924.234385;1510748924.234485;57.77291272105622;12.77020933317896;232.258922497446;0.008071682;-0.04549405;0.002183087;-0.8589782262677654;-1.86347368430071;106.0826464414464;72.78289156186754;280.0609;0.04620455;-0.1700704;-0.1736715;-0.0722428;-0.4731999;0.0319941;-0.05112828;0;304141.9112077678;11491.54500606636;-0.001;1;0;2;
1510748924.304179;1510748924.304179;1510748924.304241;57.7729127259116;12.7702092968531;232.2588732802162;0.02049931;-0.07053684;-0.001366428;-0.8566341948144499;-1.874787954464593;106.0820382069174;72.78341695506489;286.2048;0.0734552;0.0377751;-0.6062521;0.1282566;-0.7060661;-0.08119798;0.1559925;0;304141.9512077576;11491.58500605616;-0.001;1;0;2;
1510748924.384479;1510748924.384479;1510748924.384634;57.77291273418609;12.77020924053466;232.2588412991482;0.02598996;-0.1033412;0.003752933;-0.8566713154567056;-1.903324774570836;106.0839982232594;72.78394236447474;284.1169;0.1065593;-0.1293309;-0.7126157;-0.04431761;-0.9435661;0.01069305;0.2098706;0;304141.9912087474;11491.62500704597;-0.001;1;0;2;
1510748924.424274;1510748924.424274;1510748924.424387;57.77291274006783;12.77020920375398;232.2587776726297;0.03341534;-0.1238559;0.001370894;-0.8595299426851758;-1.920310109135434;106.0844707376208;72.78382817803676;285.0985;0.1282843;-0.1532465;-1.003534;0.1230647;-1.080297;-0.0001903534;0.04183588;0;304142.0112089972;11491.64500704088;-0.001;1;0;2;
1510748924.540678;1510748924.540678;1510748924.540799;57.77291274679214;12.77020915946965;232.2587242836938;0.04076426;-0.145067;0.004957042;-0.8588572193661024;-1.940991230448652;106.0865840197828;72.78371399764515;285.6955;0.1506857;0.08941259;-0.950891;0.111296;-0.9590262;0.02147236;0.195349;0;304142.0312089921;11491.66500703578;-0.001;1;0;2;
1510748924.556282;1510748924.556282;1510748924.556342;57.77291275425697;12.77020910891081;232.2586463810524;0.04333348;-0.1627012;0.002095718;-0.8590593521366255;-1.962256936889486;106.0867838467218;72.78359982243565;284.9138;0.168373;-0.2610623;-1.232773;-0.001049261;-0.9398304;-0.047574;0.1613768;0;304142.051208987;11491.68500703068;-0.001;1;0;2;
1510748924.560431;1510748924.560431;1510748924.560489;57.77291277262516;12.77020898796671;232.2584847010708;0.0576669;-0.2043892;0.007214128;-0.8576185527801498;-2.014994102445929;106.0889613913558;72.78337148844032;285.756;0.2123686;0.05209493;-1.257789;0.05448079;-1.144007;-0.02936822;0.1679526;0;304142.0912089768;11491.72500702049;-0.001;1;0;2;
1510748924.567187;1510748924.567187;1510748924.567292;57.7729127952217;12.77020884211956;232.2581092642381;0.06786522;-0.2359193;0.008594912;-0.8530975643046922;-2.053595326019541;106.0906217885401;72.78314317617682;286.0486;0.2454865;0.2334145;-0.941243;0.03473612;-0.7849823;-0.01395101;-0.02886051;0;304142.1312099666;11491.7650080103;-0.001;1;0;2;
1510748924.575171;1510748924.575171;1510748924.57528;57.77291282068259;12.77020867523118;232.2577788997417;0.0754927;-0.2663435;0.009777393;-0.8513426358767118;-2.088233951692493;106.0894892286974;72.78291488172667;285.8249;0.2768357;0.02572069;-0.5907669;-0.003640927;-0.8283654;-0.03153272;-0.09151405;0;304142.1712099564;11491.8050080001;-0.001;1;0;2;
1510748924.582844;1510748924.582844;1510748924.582948;57.77291284920318;12.77020848923099;232.2573753965082;0.08333494;-0.2929926;0.006982444;-0.8506224778642346;-2.101840046058197;106.0883663514888;72.78268660437594;285.8772;0.3046135;0.2093305;-0.2737516;-0.08879357;-0.6574345;0.01060358;-0.1721921;0;304142.2112099462;11491.84500798991;-0.001;1;0;2;
1510748924.588805;1510748924.588805;1510748924.588934;57.77291286442689;12.77020838990156;232.2572097489478;0.08778475;-0.3048636;0.007278356;-0.8502794376715473;-2.103347649544836;106.0870865037573;72.78257247125944;286.0636;0.3172506;0.05069095;-0.04338954;0.0276307;-0.713117;-0.00462435;-0.06459614;0;304142.2312099411;11491.86500798482;-0.001;1;0;2;
1510748924.596169;1510748924.596169;1510748924.596276;57.7729128970501;12.77020817782879;232.2569053543548;0.09730851;-0.3321313;0.006876559;-0.851539398247692;-2.096929868334631;106.0861940054425;72.78234421684505;286.3297;0.3460927;0.1400829;0.3009213;0.1606823;-0.7358691;0.01351538;-0.09239201;0;304142.2712109309;11491.90500897462;-0.001;1;0;2;
1510748924.654235;1510748924.654235;1510748924.654298;57.77291293269426;12.77020794645644;232.2566928698632;0.1036619;-0.3622989;0.004064591;-0.8511728707581312;-2.083549529123454;106.0851000963662;72.78211597908444;285.967;0.3768372;0.08829847;0.3699048;-0.005566017;-0.7782751;0.003881624;-0.06859718;0;304142.3112109207;11491.94500896443;-0.001;1;0;2;
1510748924.734305;1510748924.734305;1510748924.734377;57.77291297165767;12.77020769359779;232.256574785762;0.11331;-0.3958304;0.002803578;-0.8525449845349521;-2.075541536771609;106.0858114797402;72.78188775931628;285.9742;0.4117291;-0.1190772;0.1753864;0.0619969;-0.8267152;-0.01331414;0.04814417;0;304142.3512109105;11491.98500895424;-0.001;1;0;2;
1510748924.870728;1510748924.870728;1510748924.870793;57.77291303686055;12.77020727233223;232.25642560751;0.1272759;-0.4458702;0.004060152;-0.8513228399950304;-2.076353560360357;106.0877393791785;72.78154546468561;285.9317;0.4636802;0.03635402;0.008541698;-0.05404934;-0.8363023;-0.04216969;-0.01408559;0;304142.4112118952;11492.04500993895;-0.001;1;0;2;
1510748924.950691;1510748924.950691;1510748924.950764;57.77291308468559;12.77020696431062;232.2562924487284;0.1380199;-0.4757633;0.002351598;-0.8532831526206647;-2.082112802925018;106.0900519936815;72.78131729102816;286.1776;0.4953789;0.04677067;-0.2080355;0.05710384;-0.7106958;-0.0228456;0.0307655;0;304142.451211885;11492.08500992876;-0.001;1;0;2;
1510748925.024735;1510748925.024735;1510748925.024808;57.77291313564143;12.77020663664447;232.2561158925353;0.1457002;-0.5045244;0.003200773;-0.8542562517851559;-2.087059796694595;106.0899850723662;72.78108913393064;286.108;0.5251414;-0.1248518;-0.2057898;-0.02098991;-0.7220875;-0.003500044;0.09478294;0;304142.4912118749;11492.12500991856;-0.001;1;0;2;
1510748925.032437;1510748925.032437;1510748925.032561;57.77291318949403;12.77020629058414;232.2558531593845;0.1518715;-0.5322446;0.006653061;-0.8548486258106118;-2.086995870201044;106.088475490076;72.78086099255827;285.9257;0.5534883;-0.1489961;0.000416218;-0.1772231;-0.7160553;0.001847469;0.1081192;0;304142.5312118647;11492.16500990837;-0.001;1;0;2;
1510748925.04235;1510748925.04235;1510748925.042457;57.77291324620721;12.77020592708284;232.2555360160815;0.1610352;-0.5575339;0.008861815;-0.8555309857433485;-2.08230376578414;106.08779980669;72.78063286618467;286.1106;0.5803243;0.04343611;0.1668018;-0.06860229;-0.7364922;0.01933386;0.1115302;0;304142.5712128545;11492.20501089818;-0.001;1;0;2;
1510748925.047439;1510748925.047439;1510748925.047543;57.77291330566879;12.77020554552132;232.255170668872;0.1697182;-0.5840429;0.01033149;-0.8560136708129873;-2.075280723509512;106.0877737712715;72.78040475522648;286.2034;0.6082026;0.0461973;0.269475;0.05678313;-0.6829998;0.01493528;-0.005708661;0;304142.6112128443;11492.24501088799;-0.001;1;0;2;
1510748925.053013;1510748925.053013;1510748925.053121;57.77291336792154;12.77020514467966;232.2548172471477;0.1796714;-0.6136735;0.007311739;-0.858642050207045;-2.072124946832607;106.0884031533477;72.78017666040301;286.319;0.6394349;0.1318193;-0.03956563;0.1543689;-0.7055192;0.003893289;-0.05317351;0;304142.6512128341;11492.28501087779;-0.001;1;0;2;
1510748925.058643;1510748925.058643;1510748925.058747;57.77291343328204;12.77020472384155;232.2544688479451;0.1869998;-0.6441654;0.006196582;-0.8617778806314385;-2.073091480841161;106.0900227545551;72.77994858234811;286.1879;0.6707593;-0.2627055;-0.2113377;0.1244951;-0.7612537;-0.024069;0.02294662;0;304142.6912138239;11492.3250118676;-0.001;1;0;2;
1510748925.06382;1510748925.06382;1510748925.063947;57.7729135020809;12.77020428299933;232.2541321545808;0.1984911;-0.6727645;0.007294986;-0.8617413377791094;-2.077200536579218;106.092476506983;72.77972052115874;286.4381;0.7014349;0.1123278;-0.1733627;0.2658659;-0.8283153;-0.003804477;0.08982459;0;304142.7312138137;11492.36501185741;-0.001;1;0;2;
1510748925.088029;1510748925.088029;1510748925.088978;57.77291357379598;12.77020382228786;232.2538081268275;0.204693;-0.7026336;0.008048411;-0.8623251805989695;-2.082932248936814;106.0934131279235;72.77949247662617;286.242;0.7318423;-0.04282781;-0.1388711;0.1374323;-0.7676034;0.0205225;0.08869214;0;304142.7712138035;11492.40501184722;-0.001;1;0;2;
1510748925.154423;1510748925.154423;1510748925.154487;57.77291364838555;12.77020334325232;232.253432772542;0.2130021;-0.7289571;0.009702495;-0.8612298739293229;-2.083293411633693;106.0942253617653;72.77926444785487;286.2884;0.7594395;0.1605138;0.01135728;0.1228105;-0.7256508;-0.004473604;0.02652363;0;304142.8112147933;11492.44501283702;-0.001;1;0;2;
1510748925.23459;1510748925.23459;1510748925.2347;57.77291372549081;12.77020284657449;232.2530139944982;0.2169382;-0.7548085;0.01262794;-0.8624165065591336;-2.078799311480902;106.0928151919841;72.77903643409098;286.0351;0.785365;0.156755;0.2972956;-0.2127574;-0.6311523;-0.06272211;-0.02305795;0;304142.8512147831;11492.48501282683;-0.001;1;0;2;
1510748925.310668;1510748925.310668;1510748925.31078;57.77291380549476;12.77020233307367;232.2525613799544;0.2249475;-0.7789514;0.01251507;-0.8614900658189963;-2.072755386559124;106.0914684171111;72.77880843466178;286.1078;0.8107815;0.07238125;0.2748586;-0.1378836;-0.5861739;-0.02112126;-0.06549846;0;304142.8912147729;11492.52501281664;-0.001;1;0;2;
1510748925.391012;1510748925.391012;1510748925.391123;57.77291388806059;12.77020180334141;232.252064343137;0.2326466;-0.803401;0.01167336;-0.8607950068098067;-2.064870919840176;106.0900895045414;72.77858044904141;286.1498;0.8364075;-0.01688563;0.1572309;-0.07052707;-0.5815085;-0.02365663;-0.006028986;0;304142.9312147627;11492.56501280644;-0.001;1;0;2;
1510748925.446022;1510748925.446022;1510748925.446126;57.77291397314792;12.77020125708227;232.2515803673794;0.2411351;-0.8279997;0.01087481;-0.860741789369555;-2.059918352093354;106.0895931679329;72.77835247730125;286.2369;0.8623977;0.05189142;0.006154031;0.06313183;-0.6873328;0.01607588;0.07383218;0;304142.9712157525;11492.60501379625;-0.001;1;0;2;
1510748925.46455;1510748925.46455;1510748925.465888;57.77291419793682;12.77019982185167;232.2502935484967;0.2573942;-0.8911387;0.01149495;-0.8594111274732538;-2.05942132507144;106.093733725119;72.77722651783442;286.1107;0.9275667;0.02136767;-0.1413823;-0.1176468;-0.6198949;-0.06105099;0.04167923;0;304143.0712149818;11492.70501377077;-0.001;1;0;2;
1510748925.481806;1510748925.481806;1510748925.481923;57.77291429203558;12.77019921828293;232.2497454585722;0.2676585;-0.915014;0.01127016;-0.8592731105924674;-2.062431320740159;106.0961494241322;72.77672054970675;286.3052;0.9533581;-0.05185572;-0.187299;0.1537157;-0.6287567;-0.0364328;0.02912314;0;304143.1112159716;11492.74501476058;-0.001;1;0;2;
1510748925.4916;1510748925.4916;1510748925.491704;57.77291438854503;12.77019859869428;232.2491805629204;0.2723351;-0.9388725;0.01342017;-0.8593967453311199;-2.063960544208757;106.0965113936992;72.77621459509979;286.1757;0.9775725;-0.121332;-0.03480169;-0.02229588;-0.6586076;-0.009532972;0.1030461;0;304143.1512159614;11492.78501475038;-0.001;1;0;2;
1510748925.514685;1510748925.514685;1510748925.514843;57.77291448763345;12.77019796363308;232.2485841684119;0.2789914;-0.9621319;0.01357974;-0.8606809246710518;-2.062415580359581;106.0968875777739;72.77570865370356;286.1707;1.001765;-0.09566373;-0.006841848;-0.1030022;-0.5992343;0.007421635;0.05296366;0;304143.1912159512;11492.82501474019;-0.001;1;0;2;
1510748925.654329;1510748925.654329;1510748925.654445;57.77291464061973;12.77019698324598;232.2476254893815;0.2906467;-0.9939507;0.0141018;-0.8617706998171147;-2.052947762352207;106.0955250039548;72.77494976536813;286.2997;1.035574;0.01472099;0.08441793;0.05477821;-0.5585824;0.002326354;0.03978917;0;304143.251216936;11492.8850157249;-0.001;1;0;2;
1510748925.734199;1510748925.734199;1510748925.734262;57.7729147453102;12.77019631095906;232.2469778036714;0.2976366;-1.015893;0.01463946;-0.8629400965049117;-2.046477071529895;106.0942996138375;72.7744438556128;286.3295;1.058596;0.03227584;0.0727523;0.1570393;-0.6133756;0.0406235;0.07402676;0;304143.2912169258;11492.92501571471;-0.001;1;0;2;
1510748925.814205;1510748925.814205;1510748925.814336;57.77291485227015;12.77019562396748;232.2463176649783;0.3013967;-1.038359;0.01533375;-0.8624967583443567;-2.041274395517627;106.0950057490832;72.77393795835181;286.186;1.081216;-0.06258278;0.06437557;0.01502679;-0.6041481;0.009605763;0.07201881;0;304143.3312169156;11492.96501570451;-0.001;1;0;2;
1510748925.894242;1510748925.894242;1510748925.894313;57.77291496142963;12.77019492231233;232.2456836688144;0.306364;-1.060632;0.01452748;-0.8610003679857373;-2.040598525073874;106.0975326096079;72.77343207339028;286.1114;1.103993;0.07489192;-0.06168604;-0.05077131;-0.6011416;0.06987374;0.03932953;0;304143.3712179054;11493.00501669432;-0.001;1;0;2;
1510748925.905931;1510748925.905931;1510748925.906036;57.77291507270508;12.77019420614518;232.2450562057215;0.3139226;-1.081568;0.01491001;-0.8593755256996362;-2.041538019073327;106.1003720702787;72.77292620064863;286.1852;1.126205;0.0476194;-0.05041037;0.05822743;-0.5835105;0.01938751;0.06549475;0;304143.4112178952;11493.04501668413;-0.001;1;0;2;
1510748925.913231;1510748925.913231;1510748925.913394;57.77291518623878;12.77019347552598;232.2444276810117;0.3192683;-1.102338;0.01527848;-0.8558348107405249;-2.043961094353342;106.1034752470668;72.77242034010588;286.1525;1.147642;-0.07979395;-0.02458153;0.05623335;-0.4937732;0.0103852;-0.007929136;0;304143.451217885;11493.08501667393;-0.001;1;0;2;
1510748925.920241;1510748925.920241;1510748925.920347;57.77291530186373;12.77019273106908;232.2437895457704;0.3249559;-1.122049;0.0163083;-0.8544752982323336;-2.045841779245395;106.1051974129696;72.77191449119817;286.1515;1.168157;0.03894534;0.07722084;-0.07006878;-0.4608598;-0.05169792;-0.02849938;0;304143.4912188748;11493.12501766374;-0.001;1;0;2;
1510748925.927447;1510748925.927447;1510748925.927555;57.7729154198517;12.7701919737405;232.2431145172839;0.3335593;-1.140761;0.01694652;-0.8521271277232564;-2.044760457299826;106.1058794397218;72.77140865327935;286.299;1.188528;0.1262406;0.1048028;0.04095827;-0.4872839;-0.08157925;0.02110799;0;304143.5312188646;11493.16501765355;-0.001;1;0;2;
1510748925.936837;1510748925.936837;1510748925.936999;57.77291553982937;12.77019120346952;232.2423946490455;0.3404141;-1.159171;0.01800875;-0.850232827795378;-2.041470056999166;106.1035173262376;72.77090282626226;286.3659;1.208122;0.008956483;0.1332213;0.1875773;-0.4189178;-0.0137599;0.05711595;0;304143.5712188544;11493.20501764335;-0.001;1;0;2;
1510748925.94176;1510748925.94176;1510748925.941881;57.77291560062002;12.77019081355684;232.2420220031785;0.3401226;-1.170408;0.01885232;-0.8491798600920554;-2.039637015871982;106.1022877500961;72.77064991680271;286.2039;1.218827;-0.03657055;0.1626712;-0.1093621;-0.5316757;-0.00185519;0.03972281;0;304143.5912188493;11493.22501763826;-0.001;1;0;2;
1510748925.970643;1510748925.970643;1510748925.970729;57.77291572367067;12.770190024145;232.2412230015356;0.3456944;-1.188682;0.02138886;-0.8486994651212504;-2.032711795618463;106.1008555479122;72.7701441061635;286.2156;1.237929;0.1670914;0.3217346;-0.1168792;-0.4543155;-0.04183476;0.01274847;0;304143.6312198391;11493.26501862806;-0.001;1;0;2;
1510748926.050705;1510748926.050705;1510748926.050771;57.77291584883692;12.77018922169687;232.2404099518559;0.3545215;-1.207295;0.0204915;-0.848128937581342;-2.027700802384569;106.1007832160852;72.76963830652974;286.3648;1.258272;0.2869874;0.1946875;0.1538075;-0.4037991;-0.03447964;-0.04929352;0;304143.6712198289;11493.30501861787;-0.001;1;0;2;
1510748926.089098;1510748926.089098;1510748926.089214;57.77291597583764;12.77018840642834;232.2396074384232;0.3557623;-1.227291;0.01773342;-0.848013124756211;-2.024938567614218;106.1005940709968;72.76913251762798;286.1656;1.277814;-0.1346385;-0.05823751;-0.04937364;-0.4049078;0.003933728;0.02142107;0;304143.7112198187;11493.34501860768;-0.001;1;0;2;
1510748926.164338;1510748926.164338;1510748926.16441;57.7729161048049;12.77018757902817;232.2388128098795;0.3624658;-1.244945;0.01782178;-0.8450069264280506;-2.024176648659291;106.1025790482897;72.76862673904056;286.2329;1.296638;0.1746652;-0.06499846;0.01856724;-0.4898842;-0.02738179;0.03362703;0;304143.7512198085;11493.38501859749;-0.001;1;0;2;
1510748926.244234;1510748926.244234;1510748926.244324;57.77291623541948;12.77018673982767;232.2380359180604;0.3653978;-1.262478;0.01733973;-0.8489492462423355;-2.023891679302827;106.104455102812;72.76812097030742;286.142;1.314293;-0.1581983;-0.09258084;-0.07617639;-0.4658825;0.07808773;0.04358701;0;304143.7912207983;11493.42501958729;-0.001;1;0;2;
1510748926.314423;1510748926.314423;1510748926.314515;57.77291636793644;12.7701858896907;232.237246346118;0.3701348;-1.278756;0.01847445;-0.8527782736584931;-2.021225913782689;106.1063649665781;72.76761521093641;286.143;1.331246;-0.2039889;0.06274669;-0.1561377;-0.5131986;0.0005329724;0.02930667;0;304143.8312207882;11493.4650195771;-0.001;1;0;2;
1510748926.325263;1510748926.325263;1510748926.325372;57.77291650259484;12.77018502885553;232.2364761343007;0.3778805;-1.293876;0.01845207;-0.85280589812194;-2.017406921160097;106.1079645989967;72.76710946070897;286.2806;1.347928;-0.003500887;0.1145645;-0.05324655;-0.4390176;-0.008364329;-0.01056952;0;304143.871220778;11493.50501956691;-0.001;1;0;2;
1510748926.332123;1510748926.332123;1510748926.332249;57.77291663906759;12.77018415734389;232.235726670234;0.3845504;-1.308777;0.01910083;-0.8521452253202145;-2.012713161354149;106.1079651104625;72.76660371948947;286.3741;1.364103;0.1421438;0.2287771;0.04320466;-0.3735675;-0.04145309;-0.02675449;0;304143.9112217678;11493.54502055671;-0.001;1;0;2;
1510748926.336987;1510748926.336987;1510748926.337089;57.77291677721273;12.77018327497126;232.2350022809622;0.3878477;-1.325374;0.01825461;-0.8524510443777734;-2.009333152192533;106.1078590633134;72.76609798737928;286.3112;1.380957;-0.09363865;0.1760079;0.0234721;-0.3438976;-0.04386211;-0.04122503;0;304143.9512217576;11493.58502054652;-0.001;1;0;2;
1510748926.344987;1510748926.344987;1510748926.345087;57.7729169166936;12.77018238154744;232.2342623058314;0.390426;-1.341984;0.01768302;-0.8580705015870745;-2.00684429418216;106.1075283550568;72.76559226448961;286.2214;1.397625;-0.09791309;0.0260767;-0.1039985;-0.3645869;-0.004551997;0.02670446;0;304143.9912217474;11493.62502053633;-0.001;1;0;2;
1510748926.348627;1510748926.348627;1510748926.348728;57.77291698821687;12.77018193299258;232.2338753022433;0.3946619;-1.349799;0.01946205;-0.8608995734711911;-2.006435304093483;106.1081317949208;72.76532762355183;286.2982;1.406313;-0.202843;0.05535687;0.08323076;-0.4628495;-0.02898766;0.08197278;0;304144.0112219971;11493.64502053123;-0.001;1;0;2;
1510748926.359217;1510748926.359217;1510748926.359334;57.77291705885764;12.77018148118593;232.2334524986679;0.3982077;-1.356329;0.01979166;-0.8617461060144084;-2.004376711191278;106.1086699951945;72.76506298485766;286.3618;1.413576;0.003947529;0.06161336;0.1672374;-0.3404312;0.02301289;0.04153226;0;304144.031221992;11493.66502052613;-0.001;1;0;2;
1510748926.37425;1510748926.37425;1510748926.374355;57.77291712983627;12.7701810269478;232.2330262943292;0.3992261;-1.364065;0.02079268;-0.8624729870040018;-2.002937783269043;106.1086864401281;72.76479834817025;286.3134;1.421286;-0.103046;0.08148336;0.06447234;-0.3814301;-0.008626034;0.05882553;0;304144.0512229869;11493.68502152104;-0.001;1;0;2;
1510748926.448656;1510748926.448656;1510748926.44883;57.77291727319026;12.77018011107199;232.232133130073;0.4034788;-1.378893;0.0226622;-0.8606742927492139;-2.000404942511993;106.1101023919124;72.76426908115047;286.31;1.436712;0.2309863;0.1483241;-0.0183883;-0.3619694;-0.05055324;-0.05114219;0;304144.0912229767;11493.72502151085;-0.001;1;0;2;
1510748926.524146;1510748926.524146;1510748926.524228;57.77291741782636;12.77017918544456;232.2312247636409;0.4075076;-1.392428;0.0229064;-0.8606128891898402;-1.997965341904635;106.1118472881861;72.76373982236547;286.3126;1.450834;0.2125026;0.1535951;0.07983903;-0.3088786;0.03105179;-0.001063704;0;304144.1312229665;11493.76502150065;-0.001;1;0;2;
1510748926.604232;1510748926.604232;1510748926.604362;57.77291756369098;12.77017825036349;232.2302712466975;0.4097462;-1.406994;0.02383606;-0.8570097532761822;-1.994288758834194;106.1128797811295;72.76321057165279;286.2367;1.465443;0.4017378;0.1563568;-0.1024064;-0.3159948;-0.02975921;-0.05627788;0;304144.1712229563;11493.80502149046;-0.001;1;0;2;
1510748926.684254;1510748926.684254;1510748926.684429;57.77291771091209;12.77017730594333;232.2293428017894;0.4123172;-1.420705;0.02260084;-0.854767578793276;-1.992689492769242;106.1153314646655;72.76268132879183;286.1838;1.479327;-0.02421942;0.07968416;-0.0254129;-0.3155137;-0.01088148;-0.01061782;0;304144.2112239462;11493.84502248027;-0.001;1;0;2;
1510748926.740796;1510748926.740796;1510748926.740902;57.77291778494217;12.77017683024516;232.2288775839503;0.4152471;-1.427864;0.02266799;-0.8531664787168821;-1.991987932766179;106.1160465640566;72.76241671029125;286.2153;1.487019;0.09274345;0.071319;0.01570229;-0.3596958;0.02941277;-0.0059242;0;304144.2312239411;11493.86502247517;-0.001;1;0;2;
1510748926.779173;1510748926.779173;1510748926.779284;57.77291793381811;12.77017587197133;232.2279431148117;0.4174686;-1.440966;0.02416435;-0.8527635534242124;-1.98932901092339;106.1161919761216;72.76188747906468;286.1571;1.500221;-0.1580961;0.2300044;-0.08336157;-0.3070716;-0.07004434;0.01316595;0;304144.2712239309;11493.90502246498;-0.001;1;0;2;
1510748926.787443;1510748926.787443;1510748926.787546;57.77291808433579;12.7701749050739;232.2269915454434;0.4242745;-1.453306;0.02412756;-0.8529657836177736;-1.985481140605508;106.1153733042672;72.7613582551339;286.2745;1.51397;0.1097139;0.1982855;-0.02480551;-0.2890796;-0.05053438;-0.02208246;0;304144.3112249207;11493.94502345479;-0.001;1;0;2;
1510748926.795505;1510748926.795505;1510748926.795609;57.77291823661199;12.7701739296655;232.2260080201025;0.429545;-1.465449;0.02377126;-0.8575756820526592;-1.980367936531173;106.1144079090694;72.76082903838879;286.3366;1.527105;-0.04837603;0.1371165;0.003292396;-0.2453856;-0.07022582;0.007895287;0;304144.3512249105;11493.98502344459;-0.001;1;0;2;
1510748926.807128;1510748926.807128;1510748926.807233;57.77291846871172;12.77017245220874;232.2244642083108;0.4384603;-1.481458;0.02628771;-0.8664738099375257;-1.970992447837104;106.114289820197;72.76003522551493;286.4869;1.544981;-0.1940102;0.2573217;0.1911187;-0.2465683;-0.01633251;-0.02006791;0;304144.4112248952;11494.0450234293;-0.001;1;0;2;
1510748926.815109;1510748926.815109;1510748926.81517;57.77291862550317;12.77017145849776;232.2234458492978;0.4413911;-1.491696;0.02609054;-0.8698978231341477;-1.964256856986514;106.1156539929704;72.75950602445066;286.4834;1.55563;0.1063895;0.3379933;0.1324943;-0.2299565;0.07848819;-0.04819481;0;304144.451225885;11494.08502441911;-0.001;1;0;2;
1510748926.819933;1510748926.819933;1510748926.820022;57.77291878318557;12.77017045763145;232.2224983051851;0.4417478;-1.502918;0.0220009;-0.8749271392800809;-1.959448211154155;106.1184696732678;72.75897682939539;286.3795;1.566494;-0.0961616;0.1281999;0.02548952;-0.2382063;0.053066;-0.06015579;0;304144.4912258748;11494.12502440892;-0.001;1;0;2;
1510748926.891334;1510748926.891334;1510748926.891458;57.7729189415179;12.7701694493767;232.2216290510461;0.4442318;-1.514098;0.01833893;-0.8814263328443318;-1.957700485130159;106.1222127399386;72.75844764047272;286.3515;1.577921;-0.1827924;-0.08752939;0.1011427;-0.2692663;0.01494279;-0.01314267;0;304144.5312258646;11494.16502439873;-0.001;1;0;2;
1510748926.97089;1510748926.97089;1510748926.971018;57.77291910048805;12.77016843387509;232.2208239938354;0.4453967;-1.525084;0.01742177;-0.888072787016587;-1.958197274336583;106.1257214841458;72.75791845756589;286.2803;1.588792;-0.1950878;-0.1237177;0.03718973;-0.3181584;0.05487321;0.05944926;0;304144.5712258545;11494.20502438853;-0.001;1;0;2;
1510748927.050689;1510748927.050689;1510748927.050852;57.77291926030178;12.77016741122773;232.2200064448855;0.4469504;-1.535573;0.01955037;-0.8890911340319708;-1.958649891501622;106.1276149772056;72.75738928071434;286.2284;1.599296;-0.1247747;-0.04709099;-0.07101842;-0.3246677;0.075473;0.1022807;0;304144.6112268443;11494.24502537834;-0.001;1;0;2;
1510748927.091206;1510748927.091206;1510748927.091337;57.77291942105606;12.77016638182498;232.2191258523698;0.4516211;-1.545187;0.02162795;-0.8868848653176149;-1.958514275946058;106.1291508523896;72.75686010963511;286.2924;1.609834;0.02342564;-0.03138059;0.08212078;-0.3214293;0.03348798;0.08750387;0;304144.651226834;11494.28502536815;-0.001;1;0;2;
1510748927.170738;1510748927.170738;1510748927.170851;57.77291958256311;12.77016534571365;232.2181338140749;0.4532506;-1.555014;0.02497615;-0.8823296137813968;-1.955245257682953;106.1294319610479;72.75633094434941;286.2502;1.619724;0.08056045;0.09937923;0.01047844;-0.2495292;-0.00899365;0.06100846;0;304144.6912268238;11494.32502535796;-0.001;1;0;2;
1510748927.207523;1510748927.207523;1510748927.207626;57.77291974489136;12.77016430324151;232.217049559514;0.4545377;-1.563541;0.02681858;-0.8791317822817187;-1.948991673068798;106.1294931910926;72.75580178455;286.2097;1.628271;-0.02851897;0.2403262;-0.01821517;-0.134697;0.03068771;-0.1328759;0;304144.7312278136;11494.36502634776;-0.001;1;0;2;
1510748927.219413;1510748927.219413;1510748927.21952;57.77291990795392;12.77016325518525;232.2160422227134;0.4570447;-1.571324;0.02378852;-0.8714929837342649;-1.94528178305686;106.1280539835429;72.75527262935547;286.2179;1.636444;0.3344817;0.129815;-0.1039981;-0.1552226;-0.03732912;-0.06454418;0;304144.7712278035;11494.40502633757;-0.001;1;0;2;
1510748927.226568;1510748927.226568;1510748927.226632;57.77292007180521;12.77016220060652;232.2150747296762;0.459421;-1.583279;0.02187885;-0.8629859684212813;-1.943614314813582;106.1253364617239;72.75474347954014;286.1812;1.648587;0.02007842;-0.03361389;-0.08819632;-0.2979169;-0.03266669;0.001666614;0;304144.8112277933;11494.44502632738;-0.001;1;0;2;
1510748927.23228;1510748927.23228;1510748927.232387;57.77292023685543;12.77016113895589;232.2140913239587;0.4646547;-1.592056;0.02411546;-0.8629314913393211;-1.941444222092185;106.1255720793821;72.75421433574164;286.2703;1.658477;-0.1854633;0.05353239;0.1261803;-0.2877899;-0.08763904;0.1239546;0;304144.8512277831;11494.48502631718;-0.001;1;0;2;
1510748927.238629;1510748927.238629;1510748927.238752;57.77292040339005;12.7701600718119;232.2130159966219;0.4684173;-1.600649;0.02675522;-0.8728531809654885;-1.935970129719014;106.1285314246938;72.75368519671868;286.3117;1.667781;-0.2557651;0.1449866;0.08974084;-0.306881;-0.01775081;0.07489568;0;304144.8912287729;11494.52502730699;-0.001;1;0;2;
1510748927.24437;1510748927.24437;1510748927.244472;57.77292057220867;12.77015899926299;232.2118798338439;0.4785216;-1.606851;0.02938175;-0.8742298880205113;-1.928550740981519;106.1337124754242;72.7531560625835;286.5836;1.67659;0.2320136;0.2599668;0.3983228;-0.2165104;-0.05133495;0.00795358;0;304144.9312287627;11494.5650272968;-0.001;1;0;2;
1510748927.26077;1510748927.26077;1510748927.260883;57.77292074246026;12.77015792155069;232.2107412838284;0.4773993;-1.615657;0.02759074;-0.8732071443114758;-1.922569022684711;106.1387287139218;72.75262693277878;286.4615;1.684713;0.1022278;0.1658304;0.1218952;-0.1658358;0.05271036;-0.07401902;0;304144.9712287525;11494.60502728661;-0.001;1;0;2;
1510748927.524432;1510748927.524432;1510748927.524543;57.772921167696;12.77015518432082;232.2080176506444;0.4811664;-1.641032;0.02577864;-0.8847520280041925;-1.916263892963183;106.1446557408892;72.75373625990542;286.3416;1.710119;0.06688531;0.00906944;0.06158088;-0.1605212;-0.03554776;-0.08585753;0;304145.0712299818;11494.70502826113;-0.001;1;0;2;
1510748927.60478;1510748927.60478;1510748927.604891;57.77292133936936;12.77015407612484;232.2070097834281;0.4850126;-1.651683;0.02279787;-0.8899996235967661;-1.918697049480012;106.1422819558579;72.75442321357308;286.3647;1.721422;0.1874693;-0.178585;0.08918602;-0.2479658;-0.02397822;-0.02796842;0;304145.1112299716;11494.74502825093;-0.001;1;0;2;
