SampleTimeStamp;SentTimeStamp;ReceivedTimeStamp;lat;lon;alt;vel_north;vel_east;vel_down;roll;pitch;heading;wander;track;speed;arate_lon;arate_trans;arate_down;accel_lon;accel_trans;accel_down;alignment;timeDistance.time1;timeDistance.time2;timeDistance.distanceTag;timeDistance.time1Type;timeDistance.time2Type;timeDistance.distanceType;
1510739996.576247;1510739996.576247;1510739996.576409;57.77338358510023;12.76685189659805;229.5768874187355;-0.06997421;0.263209;-0.00379117;-1.764185237763246;-3.646991676762157;285.8494536941557;74.02422385539346;104.8877;0.2723515;0.1176445;-0.1578822;-0.1851037;-0.4849696;-0.01463698;-0.1644752;0;295214.7522278994;2564.385565056968;-0.001;1;0;2;
1510739996.65684;1510739996.65684;1510739996.65708;57.77338154493465;12.76686512235394;229.5868355476757;-0.07647543;0.2844986;-0.006621767;-1.762701989972674;-3.652856099446348;285.8475128827059;74.02422369955286;105.0459;0.2945979;-0.01482233;-0.1248227;-0.1252756;-0.4262474;-0.01830455;-0.1215189;0;295214.792227894;2564.425565051617;-0.001;1;0;2;
1510739996.736353;1510739996.736353;1510739996.736465;57.77337950299102;12.76687836061803;229.5968537825265;-0.07915539;0.3009582;-0.009639384;-1.76098154135484;-3.652738998110106;285.8434946587132;74.02422353297804;104.7357;0.3111935;-0.1686378;-0.0479436;-0.2462722;-0.4408343;0.01074177;-0.008046228;0;295214.8322278887;2564.465565046267;-0.001;1;0;2;
1510739996.812261;1510739996.812261;1510739996.812336;57.77337745969363;12.76689160793454;229.6069282666074;-0.08629405;0.313278;-0.00976518;-1.759610952721295;-3.645496442363907;285.839230899342;74.02422335847244;105.4005;0.3249457;-0.1031148;0.1197946;0.04641622;-0.5154647;0.0220133;0.1203971;0;295214.8722278833;2564.505565040916;-0.001;1;0;2;
1510739996.852436;1510739996.852436;1510739996.852534;57.77337541544407;12.76690486278851;229.6170274161482;-0.08714588;0.3237318;-0.008459845;-1.758687293989291;-3.633278331441261;285.8340035363388;74.02422317743785;105.0664;0.3352562;0.01886684;0.3087437;-0.1364483;-0.3694606;0.03733619;0.1116697;0;295214.9122278779;2564.545565035566;-0.001;1;0;2;
1510739996.932329;1510739996.932329;1510739996.932432;57.77337337009698;12.76691812576502;229.6271605898126;-0.09066423;0.3379364;-0.008858907;-1.75741531503807;-3.621974234802241;285.8280962727282;74.02422298986977;105.0181;0.3498871;0.02092897;0.2783656;-0.1866277;-0.4166397;0.01026333;0.06434857;0;295214.9522288726;2564.585566030215;-0.001;1;0;2;
1510739996.976281;1510739996.976281;1510739996.976384;57.77337234691785;12.7669247612857;229.6322457038262;-0.09174147;0.3468721;-0.01192203;-1.756413177842769;-3.619006891207071;285.824525399308;74.02422289266786;104.8145;0.358799;-0.06063709;-0.01121753;-0.2402792;-0.4724067;0.002626263;0.08080886;0;295214.9722288699;2564.60556602754;-0.001;1;0;2;
1510739997.196467;1510739997.196467;1510739997.196573;57.77336822692174;12.76695139348206;229.6525073601766;-0.1053835;0.3935808;-0.01253592;-1.75496657362971;-3.629692510327367;285.8029879237962;74.03552463968694;104.9897;0.4074451;-0.1523793;-0.4443679;-0.1682275;-0.7414349;-0.03887203;0.2074111;0;295215.052228993;2564.685566016843;-0.001;1;0;2;
1510739997.27648;1510739997.27648;1510739997.27658;57.77336617439407;12.76696470668518;229.6626730855455;-0.1118593;0.4149224;-0.009591939;-1.754584936213183;-3.643417970753148;285.7972984722661;74.03552441064851;105.0877;0.4297361;0.03715546;-0.364292;-0.1840181;-0.6249768;0.0253315;0.1794844;0;295215.0922299877;2564.725567011496;-0.001;1;0;2;
1510739997.356487;1510739997.356487;1510739997.356587;57.77336411993318;12.7669780324604;229.6727689584522;-0.1174263;0.4326537;-0.006144981;-1.751622038473534;-3.651355944894247;285.7895138557361;74.03552417052019;105.1848;0.4483059;0.2058802;0.007899601;-0.2261188;-0.4375226;0.01074705;-0.03853739;0;295215.1322299823;2564.765567006149;-0.001;1;0;2;
1510739997.43286;1510739997.43286;1510739997.433113;57.77336206350246;12.76699136941596;229.6828143842611;-0.1222589;0.4479578;-0.004448039;-1.745550756002421;-3.64981355413276;285.7810855017032;74.03552392053373;105.2657;0.4643419;0.4251848;0.301482;-0.2770658;-0.2997139;-0.01360285;-0.1741425;0;295215.172229977;2564.805567000803;-0.001;1;0;2;
1510739997.441141;1510739997.441141;1510739997.441249;57.77336000554862;12.76700471750572;229.6928684553096;-0.1283636;0.4637266;-0.008717732;-1.745079350428994;-3.644169225974068;285.7720757730758;74.03552366106749;105.4725;0.4811648;0.04115575;0.1413065;-0.06471705;-0.3768944;-0.01643034;-0.09659228;0;295215.2122299716;2564.845566995456;-0.001;1;0;2;
1510739997.451678;1510739997.451678;1510739997.451814;57.77335897603426;12.76701139634298;229.6979287183522;-0.1297351;0.4760575;-0.005811573;-1.748439982690893;-3.643409895877035;285.7667046201338;74.03552352745366;105.2441;0.4934186;0.1348456;0.2234679;-0.2527153;-0.572957;-0.01837297;0.06652301;0;295215.2322299689;2564.865566992782;-0.001;1;0;2;
1510739997.463759;1510739997.463759;1510739997.463864;57.77335691527639;12.76702476439046;229.7080038211504;-0.1351181;0.4964769;-0.006743554;-1.750628934835601;-3.638804494679621;285.7564254147056;74.03552325151611;105.2245;0.5145349;0.1058656;0.2004346;-0.2638652;-0.4584374;0.004599317;-0.07438973;0;295215.2722309636;2564.905567987435;-0.001;1;0;2;
1510739997.475819;1510739997.475819;1510739997.475922;57.77335485223881;12.76703814749704;229.7181540985515;-0.14152;0.5190423;-0.01076078;-1.752572030225923;-3.641476445728494;285.746935513388;74.03552296282004;105.2513;0.5379896;0.02853997;-0.07175383;-0.2391479;-0.4563749;-0.006688533;-0.132766;0;295215.3122309583;2564.945567982088;-0.001;1;0;2;
1510739997.483693;1510739997.483693;1510739997.483754;57.77335278684733;12.7670515462482;229.7283815162598;-0.1477945;0.5447299;-0.01530116;-1.757910165359312;-3.649751842173828;285.7383502942765;74.03552266112462;105.1799;0.5644236;-0.2341936;-0.4545918;-0.2349656;-0.7002399;0.04977528;0.0776776;0;295215.3522309529;2564.985567976741;-0.001;1;0;2;
1510739997.490064;1510739997.490064;1510739997.490163;57.77335175309826;12.7670582518131;229.7334708104079;-0.1525824;0.5548077;-0.008385437;-1.755847691776202;-3.653074441935382;285.7343804904334;74.03552250492633;105.3772;0.5754067;0.2268754;0.05380284;-0.2032696;-0.3870784;-0.05494897;-0.1525345;0;295215.3722309502;2565.005567974068;-0.001;1;0;2;
1510739997.496973;1510739997.496973;1510739997.497074;57.77335071894209;12.76706496090645;229.7386213782822;-0.1521902;0.5679938;-0.01340339;-1.759373546082276;-3.659174021982715;285.7303319208825;74.03552234593857;104.9997;0.5880296;-0.1070998;-0.3616016;-0.4251753;-0.6964973;0.09272297;0.2567698;0;295215.3922309476;2565.025567971394;-0.001;1;0;2;
1510739997.526471;1510739997.526471;1510739997.526549;57.77334864912327;12.76707839023069;229.7488384796115;-0.1590325;0.5893551;-0.008798126;-1.760890463841201;-3.664527387557134;285.7213479929553;74.03552201822424;105.1011;0.6104349;0.1422397;0.070349;-0.3790181;-0.64172;0.005418146;0.01893442;0;295215.4322309422;2565.065567966047;-0.001;1;0;2;
1510739997.606277;1510739997.606277;1510739997.60638;57.77334657724089;12.76709183434767;229.7590327635836;-0.1642152;0.6091425;-0.009631039;-1.760546324630776;-3.664121754190373;285.7116880214793;74.03552167804166;105.0874;0.6308892;0.2348639;0.1932591;-0.429083;-0.3773509;-0.04667377;-0.1786491;0;295215.4722319369;2565.1055689607;-0.001;1;0;2;
1510739997.686309;1510739997.686309;1510739997.68642;57.77334450363555;12.76710529242827;229.7692468107664;-0.1686099;0.6303989;-0.0136126;-1.762633825069259;-3.662617616529525;285.7009377355114;74.03552132580889;104.9741;0.652558;-0.1456584;0.01478325;-0.4247171;-0.4954633;-0.09337611;-0.1365944;0;295215.5122319315;2565.145568955353;-0.001;1;0;2;
1510739997.766355;1510739997.766355;1510739997.76645;57.77334242799745;12.7671187651207;229.7795077640046;-0.1780583;0.6535782;-0.01268236;-1.767801922900221;-3.66236741957858;285.6891301174132;74.03552096135626;105.2396;0.6773988;-0.3175329;-0.03258937;-0.107323;-0.7483908;0.03954794;0.2796354;0;295215.5522319262;2565.185568950006;-0.001;1;0;2;
1510739997.831327;1510739997.831327;1510739997.831434;57.77334035007038;12.76713225309239;229.7897431353632;-0.1832185;0.6770115;-0.01033319;-1.769543890086117;-3.659716049814138;285.6756880001205;74.03552058390395;105.1431;0.7013655;0.1106025;0.12982;-0.3537513;-0.6974028;0.01579743;0.03284812;0;295215.5922319208;2565.225568944659;-0.001;1;0;2;
1510739997.864309;1510739997.864309;1510739997.864411;57.77333826953887;12.76714575725591;229.7999823389068;-0.1913071;0.6992321;-0.01048002;-1.764397048178211;-3.658494674352642;285.6621357740494;74.03552019299482;105.3014;0.7249303;0.5206097;0.2030321;-0.3268796;-0.4005004;-0.02634511;-0.2462815;0;295215.6322329155;2565.265569939312;-0.001;1;0;2;
1510739997.880967;1510739997.880967;1510739997.881115;57.77333618687961;12.76715927810133;229.8102981348706;-0.1952374;0.7266296;-0.01717135;-1.764705284993889;-3.663783814933638;285.6491990287061;74.0355197880115;105.0395;0.7524016;-0.1167565;-0.2926203;-0.4129947;-0.6694504;-0.06205507;-0.02226293;0;295215.6722329101;2565.305569933965;-0.001;1;0;2;
1510739997.888003;1510739997.888003;1510739997.888192;57.77333410197681;12.76717281637176;229.8206152555068;-0.2024467;0.7529822;-0.01498992;-1.77055833929656;-3.669458726268067;285.6378347501175;74.0355193683118;105.0487;0.7797223;-0.2816522;-0.2533851;-0.2707302;-0.7795499;0.07564683;0.3070417;0;295215.7122329048;2565.345569928618;-0.001;1;0;2;
1510739997.899565;1510739997.899565;1510739997.899664;57.77333201433176;12.76718637178683;229.8309311239303;-0.2116757;0.777615;-0.01169358;-1.770703094278468;-3.672277736021573;285.6272907925811;74.03551893387566;105.2276;0.8059105;0.209417;0.1146007;-0.195398;-0.6302499;-0.02831863;-0.1271182;0;295215.7522328994;2565.385569923271;-0.001;1;0;2;
1510739997.911704;1510739997.911704;1510739997.911806;57.77332992417683;12.76719994456732;229.8412855485802;-0.21862;0.8029438;-0.01756345;-1.767768487064147;-3.673532484923691;285.6146363519944;74.03551848473515;105.2309;0.8321739;0.2534204;-0.08372214;-0.2974184;-0.6708444;-0.1103;-0.1687401;0;295215.7922328941;2565.425569917924;-0.001;1;0;2;
1510739997.931935;1510739997.931935;1510739997.932033;57.77332783151297;12.76721353549348;229.8516993027818;-0.2220177;0.8320215;-0.0187643;-1.770324597034452;-3.675749732302176;285.6022273895389;74.03551802062547;104.9408;0.861134;-0.3868107;-0.25538;-0.4175901;-0.7727539;0.1040776;0.3430457;0;295215.8322338887;2565.465570912577;-0.001;1;0;2;
1510739997.946333;1510739997.946333;1510739997.94644;57.7733257362378;12.76722714412835;229.8621073408054;-0.2318963;0.8579737;-0.01553026;-1.768033264073597;-3.675382857698815;285.5904315665666;74.03551754105889;105.1247;0.8887603;0.2032879;0.1067388;-0.2830029;-0.6898316;-0.02499136;-0.1246305;0;295215.8722338834;2565.50557090723;-0.001;1;0;2;
1510739997.982315;1510739997.982315;1510739997.982416;57.77332363837834;12.76724077134688;229.8725909073606;-0.2388212;0.8860075;-0.02107988;-1.763438667295176;-3.676927780685044;285.5777795048241;74.03551704585394;105.0854;0.91763;0.1592625;-0.1690475;-0.406085;-0.7960085;-0.1038309;-0.1197739;0;295215.912233878;2565.545570901883;-0.001;1;0;2;
1510739998.052202;1510739998.052202;1510739998.052304;57.77332153779525;12.76725441801409;229.8831269174649;-0.2454777;0.9160872;-0.01983557;-1.76544850377787;-3.682433387733906;285.5651767718514;74.03551653444723;105.0007;0.9484065;-0.3492804;-0.2496971;-0.3499927;-0.7605189;0.163382;0.2845763;0;295215.9522338727;2565.585570896536;-0.001;1;0;2;
1510739998.09248;1510739998.09248;1510739998.092582;57.7733204862445;12.76726124849789;229.8883754245471;-0.2508;0.9301295;-0.0199902;-1.76114497261472;-3.683971201639374;285.5588700824559;74.03551627257146;105.0903;0.9633492;0.01223184;-0.1608432;-0.4142781;-0.9125088;-0.1419315;0.05811944;0;295215.97223387;2565.605570893863;-0.001;1;0;2;
1510739998.317132;1510739998.317132;1510739998.317238;57.77331626667672;12.76728857024326;229.9089561188201;-0.2689618;0.9910119;-0.01807229;-1.750501644543934;-3.700640891621226;285.5368749952914;74.03182055040301;105.1844;1.026862;0.3811183;-0.1528624;-0.25895;-0.7727611;-0.03433812;-0.004498058;0;295216.052234993;2565.685571883174;-0.001;1;0;2;
1510739998.325894;1510739998.325894;1510739998.326476;57.77331415564299;12.76730228896448;229.9194626282936;-0.276424;1.02462;-0.0184412;-1.749906225722872;-3.710559903348499;285.5241688725546;74.03181997818744;105.0979;1.061252;-0.04832209;-0.2715332;-0.3286213;-0.8459787;0.09657695;0.1368771;0;295216.0922349877;2565.725571877831;-0.001;1;0;2;
1510739998.336542;1510739998.336542;1510739998.336646;57.77331204101867;12.7673160303121;229.9299328815992;-0.2881696;1.058341;-0.01875368;-1.748163204686468;-3.719571237446652;285.5117209756192;74.03181938676653;105.2315;1.096871;-0.03542953;-0.2947841;-0.2138009;-0.8858744;-0.04847251;0.09681935;0;295216.1322349823;2565.765571872487;-0.001;1;0;2;
1510739998.343683;1510739998.343683;1510739998.344007;57.77330992260126;12.76732979499406;229.9403811017521;-0.2966296;1.093544;-0.01733939;-1.74723804868784;-3.728961710456383;285.5001095823033;74.03181877587149;105.1766;1.133061;-0.2477658;-0.254838;-0.3071124;-0.9262968;0.0301406;0.1217911;0;295216.172235977;2565.805572867144;-0.001;1;0;2;
1510739998.3526;1510739998.3526;1510739998.35271;57.77330780046491;12.76734358281883;229.9508250152982;-0.3104938;1.127439;-0.0186931;-1.746815215290227;-3.737943903085186;285.4886104126711;74.03181814510828;105.3974;1.169412;0.08135223;-0.3102776;-0.1176361;-0.8967329;-0.06085428;0.02657069;0;295216.2122359716;2565.845572861801;-0.001;1;0;2;
1510739998.36414;1510739998.36414;1510739998.364242;57.77330673804867;12.7673504855234;229.9560460144126;-0.314993;1.144499;-0.01577711;-1.749063225709669;-3.742502311422208;285.4834606481726;74.03181782229973;105.3882;1.187054;0.07825881;-0.09348319;-0.1016278;-0.8272443;0.02219126;-0.09624194;0;295216.232235969;2565.865572859129;-0.001;1;0;2;
1510739998.370965;1510739998.370965;1510739998.371069;57.77330461070556;12.76736430867153;229.966503481946;-0.3213953;1.180917;-0.01934304;-1.753182261548246;-3.75092406434613;285.47148450067;74.03181716171576;105.2247;1.223871;-0.4128661;-0.2925513;-0.3001454;-0.8837457;-0.02614856;0.04979895;0;295216.2722359637;2565.905572853786;-0.001;1;0;2;
1510739998.386317;1510739998.386317;1510739998.386419;57.77330247958172;12.76737815495166;229.9770034843358;-0.3337517;1.215008;-0.0179528;-1.756658601966238;-3.759266046666122;285.4615703215995;74.03181648146075;105.3598;1.260013;0.02168706;-0.101609;-0.1903788;-0.913756;0.01231071;-0.0201504;0;295216.3122359583;2565.945572848442;-0.001;1;0;2;
1510739998.466619;1510739998.466619;1510739998.46714;57.77330034467188;12.76739202462361;229.9875561481721;-0.3432374;1.248938;-0.01956059;-1.754649796215509;-3.766368093010657;285.4534100944355;74.03181578148994;105.3669;1.295244;0.1146097;-0.09898514;-0.1290152;-0.9013366;0.03028377;0.04435137;0;295216.352236953;2565.985573843099;-0.001;1;0;2;
1510739998.522385;1510739998.522385;1510739998.522512;57.77329927632822;12.76739896808576;229.9928527843338;-0.3459278;1.266591;-0.02098151;-1.753210143951886;-3.768865382593491;285.4480723696641;74.03181542407552;105.2759;1.312981;0.3627111;-0.06867601;-0.3103326;-0.8951789;0.03140996;0.01249557;0;295216.3722369503;2566.005573840427;-0.001;1;0;2;
1510739998.602391;1510739998.602391;1510739998.602497;57.77329713721205;12.76741287261707;230.0035014710674;-0.3532947;1.302126;-0.02127145;-1.753103720703796;-3.774084761965182;285.4396294147096;74.03181469430247;105.1801;1.349204;0.1438314;0.0004793493;-0.2979109;-0.8616927;0.1385509;-0.08981887;0;295216.4122369449;2566.045573835084;-0.001;1;0;2;
1510739998.642497;1510739998.642497;1510739998.642572;57.77329606633185;12.7674198336673;230.0088486854297;-0.3579932;1.320429;-0.02488721;-1.751381139066784;-3.77689970133833;285.4371659027594;74.03181432189309;105.1693;1.368098;0.2101339;-0.2713651;-0.3656686;-0.9622949;-0.0470907;0.08049212;0;295216.4322369423;2566.065573832412;-0.001;1;0;2;
1510739998.722589;1510739998.722589;1510739998.722701;57.77329392239795;12.76743377336859;230.01954152763;-0.3704022;1.354069;-0.02331206;-1.747118999706575;-3.779797917375164;285.4298755013546;74.03181356216639;105.2989;1.403816;0.2227739;-0.0459532;0.01336447;-0.9463401;-0.005361622;0.04036786;0;295216.4722369369;2566.105573827069;-0.001;1;0;2;
1510739998.783951;1510739998.783951;1510739998.784013;57.7732917752364;12.76744773688112;230.0302346058745;-0.3756258;1.390037;-0.02226754;-1.740042308409483;-3.781532384185904;285.4197590442245;74.03181278233342;105.1217;1.439895;0.221743;0.06041021;-0.3917376;-0.8770522;0.1023914;-0.01066439;0;295216.5122369316;2566.145573821726;-0.001;1;0;2;
1510739998.794848;1510739998.794848;1510739998.794952;57.77328962436623;12.76746172479158;230.0408995450648;-0.3880994;1.425682;-0.02182974;-1.731159969867518;-3.781931640461819;285.4096804592826;74.03181198205631;105.2281;1.477562;0.2641307;0.03658687;-0.2227727;-0.9097337;-0.06385601;0.07897774;0;295216.5522379262;2566.185574816382;-0.001;1;0;2;
1510739998.804869;1510739998.804869;1510739998.805548;57.77328747011975;12.76747573702542;230.0515509761694;-0.3968187;1.462708;-0.02268433;-1.723977000086536;-3.783898747376976;285.3969002517184;74.03181116113119;105.1785;1.515579;0.202275;-0.05356197;-0.4010533;-0.9052098;-0.03726993;-0.03976253;0;295216.5922379209;2566.225574811039;-0.001;1;0;2;
1510739998.819351;1510739998.819351;1510739998.81945;57.77328531207435;12.76748977303473;230.0621548013432;-0.4078618;1.498245;-0.02015113;-1.719872384023801;-3.784221252502613;285.3853612889042;74.03181032001578;105.2284;1.552769;-0.0008371621;0.06694188;-0.2902092;-1.016618;-0.09345296;-0.02646123;0;295216.6322379155;2566.265574805695;-0.001;1;0;2;
1510739998.829962;1510739998.829962;1510739998.830024;57.77328315039826;12.76750383327548;230.0727581794295;-0.4181994;1.534101;-0.01948647;-1.718608392054268;-3.785060649842953;285.3733461043257;74.03180945848264;105.2485;1.59008;0.3632765;0.1082743;-0.317608;-0.9144598;-0.0160181;0.004326163;0;295216.6722379102;2566.305574800352;-0.001;1;0;2;
1510739998.840185;1510739998.840185;1510739998.840308;57.77328098503583;12.76751791769272;230.0833318179045;-0.4283046;1.569212;-0.01877451;-1.715112901613784;-3.783941157759662;285.3619479627721;74.03180857663635;105.2666;1.626613;0.1922038;0.1296339;-0.2989295;-0.9306946;-0.0923541;-0.08755475;0;295216.7122389048;2566.345575795009;-0.001;1;0;2;
1510739998.847376;1510739998.847376;1510739998.847481;57.77327881640706;12.76753202517421;230.0939309602583;-0.4358778;1.603675;-0.02100326;-1.713316723670217;-3.7834638781162;285.3496632367757;74.03180767509086;105.2056;1.661856;0.226593;0.06134881;-0.4165572;-0.9426121;-0.07313431;0.008380757;0;295216.7522388995;2566.385575789665;-0.001;1;0;2;
1510739998.856298;1510739998.856298;1510739998.857274;57.77327664446918;12.76754615556021;230.1045996949883;-0.4433275;1.637835;-0.02580065;-1.71690578372353;-3.784345376338194;285.3393938288272;74.03180675421106;105.1458;1.696774;-0.2534973;-0.1390715;-0.4214275;-0.8896086;0.05031912;-0.0663281;0;295216.7922388942;2566.425575784322;-0.001;1;0;2;
1510739998.936339;1510739998.936339;1510739998.936441;57.7732744690304;12.76756030772125;230.1153852855519;-0.4562531;1.669334;-0.02631227;-1.717583782960892;-3.787157678766446;285.3304895158156;74.03180581488891;105.2864;1.730562;0.07563172;-0.07171541;-0.1780361;-0.8869582;0.03820761;0.06402519;0;295216.8322388888;2566.465575778979;-0.001;1;0;2;
1510739999.016352;1510739999.016352;1510739999.016416;57.77327229059443;12.76757448223094;230.1262990185477;-0.4670025;1.700553;-0.02921641;-1.716486513073086;-3.793066631591955;285.3206043345202;74.03180485707894;105.3559;1.763511;0.173585;-0.07901523;0.02888098;-0.7684376;-0.01646988;-0.03813294;0;295216.8722398835;2566.505576773635;-0.001;1;0;2;
1510739999.086466;1510739999.086466;1510739999.086584;57.77327010934189;12.76758867780014;230.1373324949904;-0.4685292;1.733435;-0.0320757;-1.715220017579679;-3.802028071026108;285.3085054120129;74.03180388139366;105.125;1.795638;-0.2849045;-0.167113;-0.4639063;-0.8173689;0.05978185;0.01866892;0;295216.9122398781;2566.545576768292;-0.001;1;0;2;
1510739999.166352;1510739999.166352;1510739999.16646;57.7732679249867;12.76760289392575;230.148411631269;-0.4808008;1.762366;-0.03206149;-1.713046849694393;-3.809684435046229;285.2988591220854;74.03180288814747;105.2598;1.826774;-0.1592659;-0.1008682;-0.07959066;-0.8221259;0.03712385;0.1288396;0;295216.9522398728;2566.585576762949;-0.001;1;0;2;
1510739999.193115;1510739999.193115;1510739999.193228;57.77326683204258;12.76761000943231;230.1539298377841;-0.4833981;1.776881;-0.03200377;-1.713437889094993;-3.810930675264572;285.2928183321414;74.03180238519647;105.2189;1.841461;-0.0882879;-0.02008174;-0.1947318;-0.7515605;-0.02947754;0.06271258;0;295216.9722398701;2566.605576760277;-0.001;1;0;2;
1510739999.207705;1510739999.207705;1510739999.207809;57.77326354303511;12.76763134203817;230.1696651250091;-0.4957866;1.817791;-0.02899433;-1.710011293713326;-3.805465441495785;285.2892537644881;74.02074864288525;105.2559;1.884189;0.1593644;0.2226002;-0.1901897;-0.7282436;0.02105818;-0.01505274;0;295217.0322399957;2566.665576752262;-0.001;1;0;2;
1510739999.21497;1510739999.21497;1510739999.215068;57.77326135064;12.76764561394943;230.1805697999084;-0.501925;1.842733;-0.02698777;-1.704702349075518;-3.79307383626226;285.2806226910152;74.02074760182967;105.2366;1.909868;0.2465564;0.4569274;-0.1293304;-0.6033283;0.086068;0.10317;0;295217.0722409904;2566.705577746919;-0.001;1;0;2;
1510739999.220871;1510739999.220871;1510739999.220983;57.77325915641391;12.76765990210263;230.1914521584357;-0.5059512;1.867277;-0.02896293;-1.699797076243502;-3.774521450746169;285.2720583940092;74.02074654651243;105.1607;1.934608;-0.3886456;0.485942;-0.04853204;-0.5355145;0.08025388;-0.06349252;0;295217.112240985;2566.745577741575;-0.001;1;0;2;
1510739999.227131;1510739999.227131;1510739999.227231;57.77325696018688;12.76767420590735;230.2024001937445;-0.511664;1.889189;-0.03044991;-1.701427217037938;-3.756057904537089;285.2654245769974;74.02074547796438;105.1543;1.957252;-0.1966837;0.4657163;-0.1873021;-0.5363552;-0.04200019;-0.07893021;0;295217.1522409797;2566.785577736232;-0.001;1;0;2;
1510739999.255196;1510739999.255196;1510739999.255302;57.77325476198769;12.76768852391277;230.2134369296752;-0.5184197;1.909057;-0.03215935;-1.708660949464349;-3.741505696962001;285.2563076942942;74.02074439774435;105.1927;1.978195;-0.2307865;0.3646462;-0.2212329;-0.4879647;-0.06110222;-0.01955079;0;295217.1922409743;2566.825577730889;-0.001;1;0;2;
1510739999.386319;1510739999.386319;1510739999.386416;57.7732514595087;12.76771002415907;230.2300394926153;-0.5301636;1.934206;-0.03245111;-1.710409893529782;-3.721736687692401;285.2410897840923;74.02074275805417;105.3282;2.005549;0.0649839;0.3515479;-0.1585404;-0.4292417;-0.06496788;0.05523657;0;295217.2522419663;2566.885578722874;-0.001;1;0;2;
1510739999.46708;1510739999.46708;1510739999.467337;57.77324925542562;12.76772437136106;230.241112730823;-0.5310536;1.951462;-0.03230702;-1.712208455749474;-3.710619222141434;285.2313724418676;74.02074165322308;105.2233;2.02243;-0.3491256;0.2945959;-0.286745;-0.3936994;0.05089624;0.1058867;0;295217.292241961;2566.92557871753;-0.001;1;0;2;
1510739999.546826;1510739999.546826;1510739999.547052;57.77324704974545;12.7677387290361;230.252153344433;-0.5370777;1.965209;-0.03060866;-1.716314689680007;-3.70059753752009;285.2258904987091;74.02074053942609;105.2853;2.037277;0.009108525;0.3496793;-0.1699884;-0.2654918;-0.03820038;0.001971539;0;295217.3322419556;2566.965578712187;-0.001;1;0;2;
1510739999.642729;1510739999.642729;1510739999.642871;57.77324484327762;12.76775309556067;230.2631690792545;-0.5373555;1.978221;-0.03115206;-1.730807626730977;-3.692113285402093;285.2223190170856;74.02073941826578;105.1969;2.049905;-0.3577667;0.1566267;-0.1689692;-0.3104342;0.1055474;0.09679756;0;295217.3722419503;2567.005578706844;-0.001;1;0;2;
1510739999.662258;1510739999.662258;1510739999.662476;57.77324263556601;12.76776746886443;230.274159256004;-0.5436774;1.982895;-0.02991989;-1.738768032398967;-3.682755467627602;285.2199375047229;74.02073829146973;105.3328;2.056079;0.06639171;0.3311139;-0.004520034;-0.04613999;-0.06018957;-0.05103888;0;295217.4122429449;2567.0455797015;-0.001;1;0;2;
1510739999.671358;1510739999.671358;1510739999.671458;57.77324042714528;12.7677818432388;230.2851754385993;-0.5444247;1.982249;-0.03331577;-1.74083422568441;-3.66911301937255;285.2164719893665;74.02073716328329;105.3576;2.055653;0.1583503;0.3642535;-0.09121978;0.05323436;-0.1337742;-0.09273756;0;295217.4522429396;2567.085579696157;-0.001;1;0;2;
1510739999.681559;1510739999.681559;1510739999.681658;57.77323821896776;12.76779621577405;230.2962464939434;-0.5389279;1.978931;-0.03265025;-1.737293841454999;-3.648620642939541;285.2122537339048;74.02073603632877;105.2341;2.051003;0.1149536;0.6774082;-0.2829879;0.09914628;-0.04255081;-0.2093613;0;295217.4922429342;2567.125579690814;-0.001;1;0;2;
1510739999.688988;1510739999.688988;1510739999.689089;57.77323601220107;12.76781058432201;230.3073609853344;-0.5347999;1.970214;-0.03374661;-1.735473624310346;-3.622356090020568;285.2084433159381;74.02073491251704;105.1866;2.041507;-0.01963511;0.7797267;-0.1751234;0.2522992;-0.02399186;-0.2060049;0;295217.5322429289;2567.16557968547;-0.001;1;0;2;
1510739999.701813;1510739999.701813;1510739999.701915;57.77323270520653;12.76783212482016;230.3240444683647;-0.5298155;1.95315;-0.0342369;-1.736048647984901;-3.577077843641171;285.2019649963336;74.02073323733451;105.1769;2.023734;0.1053812;0.7615984;-0.0757504;0.3268068;-0.06264308;-0.09398016;0;295217.5922439209;2567.225580677455;-0.001;1;0;2;
1510739999.710181;1510739999.710181;1510739999.710297;57.77323050249924;12.76784647416564;230.3351296563652;-0.5260884;1.938885;-0.03304965;-1.729913892667197;-3.544530317911217;285.1960279123424;74.02073212953592;105.1809;2.008991;0.1479385;0.7843796;-0.07974959;0.3720799;0.007227046;0.0454128;0;295217.6322439156;2567.265580672112;-0.001;1;0;2;
1510739999.782399;1510739999.782399;1510739999.782518;57.77322830076051;12.7678608137595;230.3461816707641;-0.5235965;1.925191;-0.0313655;-1.719944831821166;-3.514169689181346;285.1913507172745;74.02073102996657;105.2148;1.995123;0.2653468;0.726867;-0.05362264;0.2994618;-0.0147286;0.076809;0;295217.6722439102;2567.305580666768;-0.001;1;0;2;
1510739999.831798;1510739999.831798;1510739999.831859;57.77322610007371;12.76787514437023;230.3571868189615;-0.5204127;1.911229;-0.02911323;-1.708030710029576;-3.48867557892901;285.1865800050214;74.02072993817121;105.2319;1.980814;0.3825835;0.6530138;-0.02136501;0.3616547;0.01322385;0.06888707;0;295217.7122439049;2567.345580661425;-0.001;1;0;2;
1510739999.902312;1510739999.902312;1510739999.902418;57.77322390068936;12.76788946613057;230.3681436528245;-0.5167863;1.898084;-0.02997161;-1.700431985678557;-3.469276581462391;285.1826235140592;74.02072885413646;105.2306;1.967179;0.08891989;0.4113649;0.003100404;0.3916229;0.006673345;-0.0333882;0;295217.7522438995;2567.385580656082;-0.001;1;0;2;
1510739999.982384;1510739999.982384;1510739999.982485;57.77322170275873;12.76790377962163;230.3791031223683;-0.5113523;1.886367;-0.02933306;-1.701924571750884;-3.458236133705869;285.1779621646251;74.0207277778713;105.1671;1.954447;-0.2168554;0.2026602;-0.1571095;0.2243687;0.01099306;0.1272765;0;295217.7922448942;2567.425581650738;-0.001;1;0;2;
1510740000.052363;1510740000.052363;1510740000.052468;57.77321950561091;12.76791808551069;230.3899857593012;-0.5102382;1.876425;-0.02914151;-1.708495098103702;-3.453376205696785;285.1751489321744;74.02072670800636;105.2121;1.94456;-0.1653814;-0.09124337;-0.1368272;0.2723066;-0.04139054;0.09099115;0;295217.8322448888;2567.465581645395;-0.001;1;0;2;
1510740000.080214;1510740000.080214;1510740000.080314;57.77321730900857;12.76793238302306;230.400802712518;-0.5101824;1.863729;-0.0247246;-1.717066102069596;-3.452789705807984;285.1743559552726;74.02072564534488;105.3093;1.932297;-0.2578678;0.006674345;0.05598343;0.2152874;-0.09564697;-0.01179652;0;295217.8722448835;2567.505581640052;-0.001;1;0;2;
1510740000.086217;1510740000.086217;1510740000.086316;57.77321511302466;12.76794667275966;230.4116031380872;-0.5101405;1.849738;-0.02397129;-1.722732490006079;-3.455677738706772;285.1722002931699;74.02072458942281;105.4184;1.918795;0.06705554;0.07863719;0.2071288;0.3933395;0.02490625;-0.08797316;0;295217.9122448781;2567.545581634708;-0.001;1;0;2;
1510740000.091675;1510740000.091675;1510740000.09178;57.77321291805839;12.76796095461159;230.4224498594903;-0.5042311;1.83829;-0.02764059;-1.726640011978864;-3.459412664958271;285.1709673120074;74.02072354041778;105.3386;1.90619;0.09640247;-0.04853611;0.001976264;0.4101778;0.01983043;-0.06348323;0;295217.9522458728;2567.585582629365;-0.001;1;0;2;
1510740000.094368;1510740000.094368;1510740000.094489;57.77321182109679;12.76796809216866;230.4278971188003;-0.50084;1.832661;-0.02735781;-1.725841283711199;-3.460778112581375;285.1712643262977;74.02072301852974;105.2849;1.899865;0.01953488;0.0539314;0.0191421;0.325106;0.09206791;-0.1386343;0;295217.9722458702;2567.605582626693;-0.001;1;0;2;
1510740000.105398;1510740000.105398;1510740000.105531;57.77320852569202;12.76798948714751;230.4437442263284;-0.492735;1.814858;-0.03186292;-1.714921207599339;-3.458938782139797;285.1701607239035;74.02118408025665;105.1897;1.880558;0.5240489;0.001413131;-0.03377452;0.1977638;0.007182208;0.03729356;0;295218.0322459957;2567.665582618682;-0.001;1;0;2;
1510740000.146379;1510740000.146379;1510740000.14648;57.77320633667576;12.76800374446045;230.4547372979187;-0.4850798;1.804587;-0.02888737;-1.705208449966124;-3.455728519076627;285.1692896640756;74.0211830512457;105.0457;1.868645;0.3506495;0.1547139;-0.1059435;0.293022;0.09348514;0.07841231;0;295218.0722459904;2567.705582613342;-0.001;1;0;2;
1510740000.222367;1510740000.222367;1510740000.222445;57.7732041494137;12.76801799388345;230.4657072177012;-0.4828612;1.791822;-0.02837342;-1.687257250446952;-3.452272057658516;285.1682646760675;74.02118202879252;105.0818;1.855743;0.7392276;0.1252192;-0.03106913;0.2984619;-0.000541703;0.1416507;0;295218.112245985;2567.745582608002;-0.001;1;0;2;
1510740000.296423;1510740000.296423;1510740000.296503;57.77320196359593;12.7680322369568;230.4766173864039;-0.4771652;1.782489;-0.02933314;-1.664023010842482;-3.454108744872049;285.1639594574679;74.02118101227251;104.9865;1.845251;0.6096941;-0.1576359;-0.2658423;0.3558628;0.042332;0.0415916;0;295218.1522469797;2567.785583602662;-0.001;1;0;2;
1510740000.376456;1510740000.376456;1510740000.376528;57.77319977863615;12.76804647243308;230.4874742773642;-0.4755216;1.771131;-0.02645385;-1.645078883982725;-3.460714379588856;285.1603385196067;74.02118000212964;105.0286;1.833855;0.4566468;-0.2070348;-0.1801962;0.3422917;0.07634969;0.1256436;0;295218.1922469743;2567.825583597323;-0.001;1;0;2;
1510740000.516409;1510740000.516409;1510740000.516519;57.77319650291093;12.76806781050287;230.503602391226;-0.4750899;1.752798;-0.02429105;-1.633045629248538;-3.465512719936938;285.1551200533464;74.02117849973197;105.1655;1.816042;0.2039856;-0.02080059;-0.07587197;0.3225226;-0.1069516;-0.06558824;0;295218.2522469664;2567.885583589313;-0.001;1;0;2;
1510740000.552404;1510740000.552404;1510740000.552471;57.77319431919943;12.76808202569671;230.5143237789144;-0.4738983;1.740151;-0.02355023;-1.638962033794051;-3.46480258296776;285.1542852473895;74.02117750666739;105.234;1.803525;-0.2178585;0.09448938;-0.06359941;0.3366024;-0.08397247;-0.01171298;0;295218.292246961;2567.925583583974;-0.001;1;0;2;
1510740000.56251;1510740000.56251;1510740000.562608;57.77319213542168;12.76809623251087;230.5250618159787;-0.4741453;1.726403;-0.02612272;-1.649817437544039;-3.462273264808331;285.1546480378902;74.02117652090909;105.3573;1.79033;-0.2951045;0.03676931;0.03211805;0.363202;-0.06864256;-0.1142768;0;295218.3322479557;2567.965584578634;-0.001;1;0;2;
1510740000.577574;1510740000.577574;1510740000.577679;57.77318886025083;12.7681175255935;230.5412840395777;-0.4726527;1.706102;-0.02559944;-1.668854439607521;-3.452542617264906;285.1558399220926;74.02117505612149;105.4847;1.770363;-0.3889665;0.5161142;0.1069338;0.3953658;0.01755994;-0.2625147;0;295218.3922479476;2568.025584570624;-0.001;1;0;2;
1510740000.588584;1510740000.588584;1510740000.588684;57.77318558779365;12.76813880008965;230.5578706168931;-0.4656485;1.691124;-0.03293758;-1.697864667330109;-3.447885854914308;285.158563706403;74.02117360733749;105.3948;1.754061;-0.4268279;0.119089;0.0423376;0.1519108;-0.02670038;0.007313708;0;295218.4522479397;2568.085584562615;-0.001;1;0;2;
1510740000.602116;1510740000.602116;1510740000.602308;57.77318340820175;12.7681529748208;230.5689961026633;-0.4596118;1.680973;-0.03276379;-1.717779470967285;-3.446445796095062;285.158028557408;74.02117264892706;105.2921;1.742675;-0.1945748;0.119443;-0.1826628;0.2513919;-0.02064863;0.02563537;0;295218.4922489343;2568.125585557275;-0.001;1;0;2;
1510740000.629355;1510740000.629355;1510740000.629468;57.7731812299898;12.76816714195582;230.5801006925992;-0.4577137;1.669427;-0.03116111;-1.734903043911673;-3.447733988696624;285.1578428051481;74.02117169672594;105.3322;1.731037;-0.1289713;0.06356749;0.02089613;0.3848462;0.0128488;-0.04519591;0;295218.532248929;2568.165585551935;-0.001;1;0;2;
1510740000.706905;1510740000.706905;1510740000.707826;57.77317905338369;12.76818130160552;230.5911144605126;-0.4506807;1.659038;-0.03001119;-1.741933181436366;-3.450313933478792;285.1573284618743;74.02117075078586;105.1978;1.719162;-0.02611437;-0.1208557;-0.1553796;0.3780149;0.08623227;0.0863353;0;295218.5722489237;2568.205585546596;-0.001;1;0;2;
1510740000.786392;1510740000.786392;1510740000.786484;57.77317687855557;12.76819545317507;230.6019915101436;-0.4462498;1.645405;-0.02622422;-1.741806850183428;-3.453195728794117;285.1583775165055;74.02116981152862;105.1742;1.704845;0.02319433;-0.07411387;0.03452076;0.3398332;0.08676837;0.1071774;0;295218.6122489183;2568.245585541256;-0.001;1;0;2;
1510740000.833154;1510740000.833154;1510740000.833318;57.77317470584862;12.76820959576386;230.6127180234359;-0.4396274;1.630243;-0.021746;-1.736141031399287;-3.455076262618481;285.1599633371373;74.0211688800042;105.0919;1.68848;0.1869679;0.02624542;0.01514361;0.4588491;0.08913633;-0.001940347;0;295218.652249913;2568.285586535916;-0.001;1;0;2;
1510740000.902563;1510740000.902563;1510740000.902626;57.77317253580753;12.76822372667648;230.6233430574533;-0.4328414;1.611946;-0.02122004;-1.728879520003834;-3.455567432400313;285.1607749200148;74.02116795803519;105.0306;1.669048;0.1234272;-0.03370791;-0.03856486;0.5068927;-0.07299943;-0.02816094;0;295218.6922499076;2568.325586530576;-0.001;1;0;2;
1510740000.967408;1510740000.967408;1510740000.967473;57.77317036787687;12.76823784457482;230.6339436893525;-0.426531;1.591125;-0.02320446;-1.720867937565188;-3.456480040252674;285.1602555416126;74.0211670471394;105.0064;1.647303;0.02640298;-0.1233976;-0.08581042;0.5389389;-0.06714522;-0.0293756;0;295218.7322499023;2568.365586525237;-0.001;1;0;2;
1510740000.976022;1510740000.976022;1510740000.976173;57.77316820166806;12.76825194797606;230.6445933289682;-0.4227398;1.570362;-0.02281471;-1.718653012386218;-3.457344341566736;285.1607450946128;74.02116614854185;105.0668;1.626268;-0.2321831;-0.0942453;-0.01052396;0.4230988;-0.04173421;0.09027019;0;295218.772249897;2568.405586519897;-0.001;1;0;2;
1510740000.986241;1510740000.986241;1510740000.986386;57.77316495508295;12.76827307625342;230.6605749769288;-0.4181849;1.535846;-0.02479495;-1.713207361791739;-3.461149851664004;285.1550350519109;74.02116482396274;105.2314;1.59176;-0.1356283;-0.233152;-0.01078733;0.5732281;-0.0620499;-0.06306486;0;295218.8322508889;2568.465587511887;-0.001;1;0;2;
1510740000.991357;1510740000.991357;1510740000.991417;57.7731627927193;12.76828714287687;230.6712477120624;-0.4113159;1.514606;-0.0241737;-1.719835542656335;-3.466798793330171;285.1512955537135;74.02116395697608;105.1932;1.569463;-0.3067237;-0.2337825;-0.1725443;0.5422698;-0.04594702;-0.009522993;0;295218.8722508836;2568.505587506548;-0.001;1;0;2;
1510740001.003573;1510740001.003573;1510740001.003673;57.7731606316594;12.76830119384579;230.6818801502111;-0.4086889;1.491469;-0.02306703;-1.731865064878352;-3.469872226844605;285.1519016988079;74.0211631030146;105.3239;1.54645;-0.4545459;-0.2047227;0.04889105;0.5231044;0.003973697;0.06303567;0;295218.9122508782;2568.545587501208;-0.001;1;0;2;
1510740001.014114;1510740001.014114;1510740001.014221;57.77315847260014;12.7683152293642;230.692495852857;-0.4047746;1.467288;-0.02106062;-1.743349711307016;-3.471303793135414;285.1533385825209;74.02116226201291;105.4224;1.522096;-0.07260238;0.004565796;0.132416;0.6027702;-0.09583278;-0.08589474;0;295218.9522508729;2568.585587495868;-0.001;1;0;2;
1510740001.01808;1510740001.01808;1510740001.018183;57.77315739380315;12.76832224098695;230.697820386429;-0.4021925;1.45505;-0.02457511;-1.753649014756335;-3.471731555590808;285.1556095871678;74.02116184668759;105.4514;1.509612;-0.594347;-0.1818628;0.308714;0.4938993;-0.01552944;-0.06311028;0;295218.9722508703;2568.605587493199;-0.001;1;0;2;
1510740001.212589;1510740001.212589;1510740001.212704;57.77315308587187;12.76835026342131;230.7187364071015;-0.3879991;1.411665;-0.02348881;-1.784923102185539;-3.478072853016817;285.153240366135;74.03041558661367;105.3684;1.464016;-0.2092043;-0.1171193;0.140026;0.5465006;-0.105703;-0.01419814;0;295219.052251993;2568.685588482519;-0.001;1;0;2;
1510740001.292888;1510740001.292888;1510740001.292992;57.77315093495791;12.76836424672532;230.7294271521106;-0.3813465;1.391199;-0.02069866;-1.798761892458385;-3.482692810169775;285.1548492920289;74.03041478993848;105.329;1.442519;0.02516908;0.04832661;0.09448701;0.4689847;-0.1109889;-0.03086302;0;295219.0922519877;2568.725588477179;-0.001;1;0;2;
1510740001.372577;1510740001.372577;1510740001.372689;57.7731487862316;12.7683782165588;230.7401108641367;-0.3746319;1.371265;-0.02097125;-1.807991885843742;-3.488326832909491;285.1546323572321;74.03041400471491;105.2804;1.42152;0.088756;-0.009209977;0.06369605;0.5644384;0.07423634;-0.06364618;0;295219.1322519823;2568.76558847184;-0.001;1;0;2;
1510740001.421111;1510740001.421111;1510740001.421428;57.77314664034056;12.76839217336265;230.7507356537201;-0.3641818;1.353113;-0.02045225;-1.812320350492401;-3.491022839466113;285.1526718899939;74.03041323039992;105.0638;1.401265;0.01581896;0.02164934;-0.1339966;0.5353881;0.1222287;-0.03998974;0;295219.172251977;2568.8055884665;-0.001;1;0;2;
1510740001.428204;1510740001.428204;1510740001.428338;57.77314449682763;12.76840611790025;230.7613160830786;-0.3613071;1.333768;-0.01763815;-1.814703608750053;-3.492553578922958;285.1533247210307;74.03041246655125;105.1572;1.381839;0.3160591;0.1012671;0.1391884;0.4989273;0.027255;-0.01612122;0;295219.2122529717;2568.84558946116;-0.001;1;0;2;
1510740001.43511;1510740001.43511;1510740001.435214;57.77314342598071;12.76841308544443;230.7666010120421;-0.3542653;1.326331;-0.02127908;-1.814269449111173;-3.493978090378383;285.1530039475928;74.03041208851813;104.9547;1.372828;-0.1464075;-0.1626701;-0.1176903;0.3432002;0.01247976;0.05513738;0;295219.232252969;2568.86558945849;-0.001;1;0;2;
1510740001.441336;1510740001.441336;1510740001.441407;57.7731412855716;12.76842701077172;230.777145791291;-0.3518292;1.305713;-0.01959615;-1.805175439271177;-3.495562481513685;285.1536895570504;74.03041134048804;105.0804;1.352284;0.1905591;-0.05236418;0.1358313;0.4487433;0.07893156;0.01713496;0;295219.2722529637;2568.905589453151;-0.001;1;0;2;
1510740001.446768;1510740001.446768;1510740001.446875;57.77313914847674;12.76844091413483;230.7876998779022;-0.3477518;1.286062;-0.01932437;-1.792261797758074;-3.496983949666774;285.1570610893441;74.0304106033265;105.131;1.332249;0.1305822;0.03682314;0.3048537;0.6014354;-0.001242032;-0.09859547;0;295219.3122529583;2568.945589447811;-0.001;1;0;2;
1510740001.454846;1510740001.454846;1510740001.454957;57.77313902556044;12.76844177242199;230.7885909713181;-0.3405797;1.267252;-0.02155975;-1.779766858864492;-3.502226884094699;285.1583387134112;74.03040987725382;105.043;1.31222;0.3845849;-0.08678544;0.09959864;0.5443605;0.05909564;-0.0359326;0;295219.352252953;2568.985589442471;-0.001;1;0;2;
1510740001.46355;1510740001.46355;1510740001.463656;57.77313890464449;12.76844261822501;230.7894832777264;-0.3314505;1.24797;-0.02265137;-1.766822318999325;-3.509007080357449;285.1592693549297;74.03040916181369;104.8739;1.291235;0.06002894;-0.1537055;-0.1105951;0.6038565;0.002549508;-0.1140192;0;295219.3922539476;2569.025590437132;-0.001;1;0;2;
1510740001.536485;1510740001.536485;1510740001.536674;57.77313878558059;12.76844345092295;230.7903636106228;-0.3276161;1.230432;-0.02084865;-1.757483068258963;-3.516006978462245;285.1594669917756;74.03040845754931;104.9097;1.273301;0.291171;-0.152387;-0.1969391;0.4961822;-0.04062561;-0.03083484;0;295219.4322539423;2569.065590431792;-0.001;1;0;2;
1510740001.616548;1510740001.616548;1510740001.616654;57.77313866787918;12.76844427127621;230.7911406846231;-0.3240997;1.212212;-0.01992703;-1.75011277555234;-3.519678079545358;285.1584697165865;74.03040776366912;104.9686;1.25479;0.06408619;-0.1667332;-0.1722329;0.3532588;-0.05046153;-0.04655328;0;295219.472253937;2569.105590426452;-0.001;1;0;2;
1510740001.700185;1510740001.700185;1510740001.70029;57.77313855130627;12.76844508081471;230.7918223242694;-0.3246731;1.195341;-0.01665612;-1.740427087411871;-3.521948231773767;285.1560533367082;74.03040707890891;105.1958;1.238649;0.2479365;-0.08006731;0.09601368;0.4315124;-0.05501368;0.02639345;0;295219.5122539316;2569.145590421113;-0.001;1;0;2;
1510740001.776892;1510740001.776892;1510740001.777033;57.77313843630887;12.76844587926413;230.7924396167394;-0.3200946;1.181294;-0.01391563;-1.736730423454999;-3.52391290598923;285.1542314987727;74.03040640357365;105.1613;1.223893;0.1066344;-0.05720604;0.07115904;0.1977911;-0.06727968;0.07549648;0;295219.5522549263;2569.185591415773;-0.001;1;0;2;
1510740001.822461;1510740001.822461;1510740001.822565;57.77313837925914;12.76844627506653;230.7926985362365;-0.3176206;1.173431;-0.014683;-1.736891492445487;-3.523377092093821;285.1540637163187;74.03040606873464;105.1457;1.215658;0.05456414;-0.09104469;0.06176258;0.4400886;-0.006116036;-0.08736878;0;295219.5722549236;2569.205591413103;-0.001;1;0;2;
1510740001.843975;1510740001.843975;1510740001.844071;57.77313826608444;12.76844705947045;230.7932694109184;-0.3155577;1.159891;-0.01412525;-1.739868210175825;-3.528475097504988;285.1544867809135;74.03040540540525;105.2194;1.20205;-0.04816642;-0.1636267;0.1916515;0.2242393;0.00662842;0.03357085;0;295219.6122549183;2569.245591407763;-0.001;1;0;2;
1510740001.856398;1510740001.856398;1510740001.856503;57.77313815407811;12.76844783527372;230.7938016359081;-0.3105817;1.146528;-0.01383428;-1.742614212560877;-3.534130624219399;285.1549337815522;74.03040474937021;105.157;1.187849;-0.1580245;-0.1556626;0.1467432;0.2629937;0.01825794;0.03728244;0;295219.6522549129;2569.285591402424;-0.001;1;0;2;
1510740001.876067;1510740001.876067;1510740001.87658;57.77313804344909;12.76844860074567;230.794331081468;-0.306457;1.131807;-0.01153549;-1.742613392112845;-3.537355619287538;285.1575046812374;74.0304041018468;105.1506;1.172563;0.07381625;0.03487945;0.102935;0.2929761;0.01420335;-0.00165494;0;295219.6922549076;2569.325591397084;-0.001;1;0;2;
1510740001.889962;1510740001.889962;1510740001.890139;57.77313793447971;12.76844935594238;230.794868014143;-0.302878;1.11468;-0.01178111;-1.744084193599164;-3.537268599574113;285.1605518376597;74.03040346287973;105.2012;1.155096;0.01127235;0.1827594;0.2240807;0.4586926;-0.05586318;-0.1143458;0;295219.7322559023;2569.365592391744;-0.001;1;0;2;
1510740001.896083;1510740001.896083;1510740001.896186;57.77313782764404;12.76845010055911;230.7954848644847;-0.2955475;1.099683;-0.01511437;-1.746119808481349;-3.537703844488033;285.1595546068223;74.03040283306451;105.0432;1.138705;0.1579603;0.07256857;-0.04721377;0.5242745;0.004455894;-0.1520905;0;295219.7722558969;2569.405592386404;-0.001;1;0;2;
1510740001.905851;1510740001.905851;1510740001.906001;57.77313772268725;12.76845083382118;230.7961818948096;-0.2903981;1.081849;-0.01885228;-1.749123996194462;-3.537538505604859;285.1587126715673;74.03040221283673;105.0256;1.120147;-0.03019817;-0.005422099;0.03621988;0.4540398;0.02406275;-0.1566118;0;295219.8122558916;2569.445592381065;-0.001;1;0;2;
1510740001.916876;1510740001.916876;1510740001.916937;57.77313761932781;12.7684515563326;230.7969357602092;-0.2845204;1.066353;-0.02030652;-1.746528852190014;-3.537663490120685;285.157056830817;74.0304016016733;104.9394;1.103658;-0.01593153;-0.03419558;-0.06593792;0.491142;0.06792422;-0.1137583;0;295219.8522558862;2569.485592375725;-0.001;1;0;2;
1510740001.956465;1510740001.956465;1510740001.956529;57.77313751747984;12.76845226839329;230.7977490783555;-0.2812237;1.053183;-0.02244;-1.738258362243277;-3.542208341980817;285.1553426773639;74.03040099945632;104.9504;1.090083;0.1623151;-0.3216009;-0.04715614;0.2387004;0.03801311;0.07126109;0;295219.8922558809;2569.525592370385;-0.001;1;0;2;
1510740002.030366;1510740002.030366;1510740002.030548;57.77313741747842;12.76845297106638;230.7985152737257;-0.2769968;1.037589;-0.02033921;-1.727470817874053;-3.547008271427996;285.1538440842735;74.03040040514742;104.9472;1.073927;0.06145251;-0.2579791;0.1411175;0.2510483;0.04678173;0.08650053;0;295219.9322568756;2569.565593365046;-0.001;1;0;2;
1510740002.152426;1510740002.152426;1510740002.152527;57.77313727077695;12.76845400831752;230.7995314173163;-0.2684119;1.02027;-0.01789144;-1.71979433255882;-3.551139750760462;285.1539525200433;74.03039952775104;104.7393;1.054986;-0.01974652;-0.1596593;-0.113641;0.2983983;-0.09033044;-0.06045083;0;295219.9922568675;2569.625593357036;-0.001;1;0;2;
1510740002.17611;1510740002.17611;1510740002.176216;57.77313721780317;12.76845436910989;230.7996458195684;-0.2670117;1.016182;-0.01363687;-1.718487486818514;-3.553097429870177;285.1534453928287;74.03045319251814;104.7222;1.050677;0.1765261;0.09655333;-0.2695974;0.293549;-0.003898785;-0.03873228;0;295220.0122569983;2569.645593354368;-0.001;1;0;2;
1510740002.28411;1510740002.28411;1510740002.284217;57.7731371692412;12.76845470954746;230.7999922140621;-0.2704443;1.010783;-0.01750514;-1.714032151370779;-3.556575484587475;285.1546281309721;74.03045290455809;104.9792;1.046337;0.08179386;-0.1963869;0.1179499;0.1704201;-0.05305693;0.06482306;0;295220.0322569957;2569.665593351699;-0.001;1;0;2;
1510740002.294625;1510740002.294625;1510740002.294897;57.77313707259798;12.76845538621481;230.800638792676;-0.2713386;1.006246;-0.01576795;-1.707993357325624;-3.558901772922526;285.1552011184306;74.03045233212382;105.0911;1.042188;0.2302582;-0.1136632;0.1325833;-0.1638795;-0.05790138;0.1668531;0;295220.0722579903;2569.705594346363;-0.001;1;0;2;
1510740002.306324;1510740002.306324;1510740002.306642;57.77313692742318;12.76845640173178;230.8016616812291;-0.2704412;1.00827;-0.02003507;-1.70457545882747;-3.572263213863751;285.1542730812787;74.03045147359346;105.0146;1.04391;-0.06897267;-0.4635553;0.06989083;-0.1582843;0.03988356;0.08109783;0;295220.1322579823;2569.765594338359;-0.001;1;0;2;
1510740002.318928;1510740002.318928;1510740002.319379;57.77313683042112;12.76845708092438;230.8024039367814;-0.2714113;1.012406;-0.01850623;-1.706540127151404;-3.586122806663775;285.1544928864575;74.03045089961903;105.0073;1.048156;0.0004703768;-0.337597;0.05220944;-0.2035588;-0.04230389;0.07640953;0;295220.172257977;2569.805594333023;-0.001;1;0;2;
1510740002.339724;1510740002.339724;1510740002.340199;57.77313673302761;12.76845776314934;230.8031713946258;-0.2732047;1.017881;-0.0190084;-1.710312210699076;-3.599940206433142;285.1540797471849;74.03045032312893;105.0244;1.053908;-0.2049905;-0.3581091;0.1052765;-0.2027428;-0.004014715;0.08157073;0;295220.2122579716;2569.845594327687;-0.001;1;0;2;
1510740002.34725;1510740002.34725;1510740002.347352;57.77313668403826;12.76845810532638;230.8035425223638;-0.2758206;1.018297;-0.02110397;-1.710154592811092;-3.604941325807323;285.1543519161738;74.03045003385687;105.1557;1.054991;-0.01879116;-0.3823794;0.2380074;-0.12446;-0.01528205;-0.0960993;0;295220.232257969;2569.865594325019;-0.001;1;0;2;
1510740002.356507;1510740002.356507;1510740002.357113;57.77313658588908;12.768458793589;230.8043369206842;-0.2730764;1.029174;-0.02137301;-1.713157490915477;-3.617892910040344;285.1521802570131;74.03044945228775;104.8602;1.064786;-0.37785;-0.4190488;-0.1061096;-0.3022868;0.001510726;0.1098483;0;295220.2722589637;2569.905595319683;-0.001;1;0;2;
1510740002.386725;1510740002.386725;1510740002.386828;57.77313648680358;12.76845948825142;230.8051156959607;-0.2780323;1.038695;-0.01869767;-1.713919628557743;-3.628625604430036;285.1501835242196;74.0304488651758;104.9853;1.075262;-0.1167649;-0.2655887;0.04131182;-0.3601636;0.02779019;0.1690683;0;295220.3122589583;2569.945595314347;-0.001;1;0;2;
1510740002.466574;1510740002.466574;1510740002.466676;57.77313638672381;12.76846018952506;230.8058606896847;-0.2812949;1.048457;-0.01600557;-1.714021647211523;-3.636877696131299;285.1491415074624;74.03044827232002;105.0184;1.085536;0.1219289;-0.02855729;0.01955096;-0.2992849;-0.05036244;-0.02902373;0;295220.352258953;2569.985595309011;-0.001;1;0;2;
1510740002.596504;1510740002.596504;1510740002.596605;57.77313628585153;12.76846089868858;230.8065578367282;-0.2829049;1.06111;-0.01616991;-1.715342196475996;-3.643353974867406;285.1459429755429;74.03044767282617;104.9285;1.098175;-0.05854012;-0.08505081;-0.08737393;-0.1897572;-0.06949113;-0.09507079;0;295220.3922589477;2570.025595303675;-0.001;1;0;2;
1510740002.716602;1510740002.716602;1510740002.716716;57.77313613203751;12.76846197824263;230.8075651030035;-0.289006;1.081113;-0.01515261;-1.718995050327225;-3.653016668886558;285.1431616926897;74.03044676014649;104.9665;1.119075;-0.1400136;-0.1180879;0.01901231;-0.4469282;0.02369023;0.09498031;0;295220.4522599396;2570.085596295671;-0.001;1;0;2;
1510740002.752006;1510740002.752006;1510740002.752106;57.7731360280112;12.76846270903934;230.8081658578467;-0.2930276;1.093444;-0.01329961;-1.720260901132651;-3.655649584279538;285.1406052852196;74.03044614216746;105.002;1.132027;0.003145299;0.02827904;0.08055911;-0.2484743;0.02870837;0.00722506;0;295220.4922599343;2570.125596290335;-0.001;1;0;2;
1510740002.76019;1510740002.76019;1510740002.760295;57.77313592267946;12.76846344881812;230.8087379721433;-0.2950179;1.106161;-0.01552571;-1.720010556874335;-3.656809085836798;285.13758857958;74.03044551652896;104.9334;1.144827;0.003672526;-0.05749247;-0.05304259;-0.1492569;0.03768161;-0.1453476;0;295220.532259929;2570.165596284999;-0.001;1;0;2;
1510740002.768455;1510740002.768455;1510740002.768622;57.77313581599077;12.76846419700677;230.8093314249907;-0.2974564;1.119189;-0.01853407;-1.721032597289644;-3.657550365019388;285.1361224131874;74.03044488371053;104.8839;1.158044;-0.3009678;-0.2198337;-0.1022021;-0.3262564;-0.02441479;-0.0818584;0;295220.5722599236;2570.205596279663;-0.001;1;0;2;
1510740002.776784;1510740002.776784;1510740002.776997;57.77313570802507;12.76846495343947;230.80995442289;-0.30499;1.13162;-0.01869734;-1.72236170021668;-3.656782641014791;285.1335844825064;74.03044424390663;105.0837;1.171999;0.1791346;-0.1567747;0.07460021;-0.456952;-0.02097919;0.1081091;0;295220.6122609183;2570.245597274326;-0.001;1;0;2;
1510740002.785214;1510740002.785214;1510740002.78536;57.77313559886543;12.76846571840197;230.8106438991029;-0.3057623;1.144661;-0.01504252;-1.72519230937127;-3.65559103005095;285.1303110747569;74.03044359692166;104.9557;1.184795;-0.1725109;0.182873;-0.02594202;-0.4324156;-0.06753595;0.07521908;0;295220.652260913;2570.28559726899;-0.001;1;0;2;
1510740002.792696;1510740002.792696;1510740002.792803;57.77313548872855;12.76846649167551;230.8113688135825;-0.3085271;1.156852;-0.01739077;-1.730824068206199;-3.652707610884683;285.1265161557125;74.03044294289774;104.933;1.197287;-0.07057082;0.191971;-0.1367404;-0.2738868;-0.08812438;-0.1069932;0;295220.6922609076;2570.325597263654;-0.001;1;0;2;
1510740002.806706;1510740002.806706;1510740002.806814;57.77313537719078;12.76846727335886;230.8121822001388;-0.3118232;1.168346;-0.01981435;-1.739700686963662;-3.652399037667633;285.1248276269422;74.03044228181888;104.9435;1.209242;-0.3029615;0.08542366;-0.07849408;-0.1150661;-0.05826594;-0.1028604;0;295220.7322609023;2570.365597258318;-0.001;1;0;2;
1510740002.842735;1510740002.842735;1510740002.842841;57.77313526417318;12.76846806324744;230.8130464369226;-0.3161657;1.180679;-0.02325555;-1.742604690700821;-3.654853598252298;285.122151470546;74.03044161387155;104.9911;1.222278;0.07654141;-0.1232242;-0.1509502;-0.2564409;-0.05554517;-0.0921021;0;295220.772260897;2570.405597252982;-0.001;1;0;2;
1510740002.912604;1510740002.912604;1510740002.912775;57.77313514995627;12.76846886158471;230.813910175758;-0.3201914;1.194294;-0.02428486;-1.746239697203216;-3.658525270978681;285.1205814607809;74.03044093878937;105.0081;1.236471;-0.4020593;-0.3061347;0.1299697;-0.3800343;0.03911947;0.1320788;0;295220.8122618916;2570.445598247646;-0.001;1;0;2;
1510740002.992599;1510740002.992599;1510740002.992704;57.77313503489519;12.76846966883903;230.8147500878256;-0.3231399;1.208807;-0.0201948;-1.752779768101775;-3.66175216248778;285.1190583759745;74.03044025618351;104.9664;1.251253;-0.2347675;-0.124073;0.07200931;-0.5238779;0.04474997;0.2125577;0;295220.8522618863;2570.48559824231;-0.001;1;0;2;
1510740003.072418;1510740003.072418;1510740003.072522;57.7731349187641;12.76847048506517;230.8155390293353;-0.326143;1.220695;-0.01582438;-1.760203093802199;-3.662876953108651;285.1172929015912;74.03043956592488;104.9588;1.263513;-0.2134304;0.2347683;0.032223;-0.3504165;-0.06351651;-0.0281582;0;295220.892261881;2570.525598236974;-0.001;1;0;2;
1510740003.152543;1510740003.152543;1510740003.152658;57.77313480112321;12.76847131056045;230.8163254307468;-0.3311879;1.233964;-0.01771542;-1.76487255379239;-3.663919849146556;285.1147278929519;74.03043886781813;105.0238;1.277635;0.2562555;0.1548749;-0.02089022;-0.1973874;-0.105335;-0.176271;0;295220.9322618756;2570.565598231638;-0.001;1;0;2;
1510740003.175861;1510740003.175861;1510740003.176024;57.77313462161721;12.76847256743628;230.8175013077493;-0.3384215;1.256555;-0.01405578;-1.77259032292195;-3.665658243114216;285.1121332659336;74.03043780485909;105.0735;1.30133;0.1454462;0.3702481;0.07096572;-0.2517148;-0.1426502;-0.1990503;0;295220.9922628676;2570.625599223634;-0.001;1;0;2;
1510740003.179248;1510740003.179248;1510740003.179352;57.773134564071;12.76847300982339;230.817395651056;-0.3365707;1.267208;-0.02272336;-1.778706466741252;-3.668321989002744;285.0959258284291;74.04571987145198;104.8744;1.311143;-0.499775;-0.3168812;-0.01858315;-0.6499754;0.2291038;0.3731836;0;295221.0122629983;2570.645599220966;-0.001;1;0;2;
1510740003.192738;1510740003.192738;1510740003.192839;57.7731345029586;12.76847343634432;230.8177213132986;-0.3427331;1.271028;-0.02125378;-1.774456631861024;-3.663723183979527;285.0959986653145;74.04571951039151;105.0909;1.316427;-0.07110154;0.0180114;0.1269362;-0.08419515;-0.171315;-0.3007138;0;295221.0322629957;2570.665599218298;-0.001;1;0;2;
1510740003.216593;1510740003.216593;1510740003.216701;57.77313431827589;12.76847473268894;230.8189296257006;-0.3494172;1.295992;-0.01719662;-1.782023721012035;-3.665744751309505;285.0952948604784;74.04571841397295;105.0889;1.34227;0.3856014;0.281421;0.1895484;-0.2127033;-0.09726899;-0.353463;0;295221.0922629877;2570.725599210294;-0.001;1;0;2;
1510740003.237317;1510740003.237317;1510740003.237381;57.77313419322914;12.76847561143836;230.8197670509419;-0.3494285;1.316774;-0.02404014;-1.782088330266468;-3.667308154752659;285.0948040925782;74.04571767068603;104.8619;1.362349;-0.2850543;-0.1550448;-0.07432032;-0.4964394;-0.1013211;-0.0007918079;0;295221.1322629824;2570.765599204958;-0.001;1;0;2;
1510740003.266476;1510740003.266476;1510740003.266579;57.77313406644245;12.7684765039709;230.8206736356414;-0.3541105;1.339463;-0.02258873;-1.785035671788049;-3.67367754172863;285.094541647754;74.04571691596426;104.8084;1.38548;-0.2313336;-0.2010422;-0.04834272;-0.7183131;0.1248236;0.3172418;0;295221.172263977;2570.805600199621;-0.001;1;0;2;
1510740003.346494;1510740003.346494;1510740003.346596;57.77313393749903;12.76847741151673;230.8215895102916;-0.3629144;1.362295;-0.02252792;-1.780084401272192;-3.680091710676335;285.0925859658929;74.04571614850789;104.9171;1.409806;0.6011595;-0.09889585;-0.1347557;-0.6271179;-0.1303868;-0.2085127;0;295221.2122639717;2570.845600194285;-0.001;1;0;2;
1510740003.466669;1510740003.466669;1510740003.466863;57.77313373918405;12.76847880661668;230.8231221417213;-0.3774278;1.404699;-0.02608875;-1.771671035060052;-3.70244141214852;285.0877432075193;74.04571496932995;105.0396;1.454521;0.5521275;-0.435381;0.01563404;-0.759157;-0.1276637;-0.03431977;0;295221.2722639636;2570.905600186281;-0.001;1;0;2;
1510740003.546549;1510740003.546549;1510740003.546612;57.77313360341956;12.76847976226247;230.824198952957;-0.382679;1.438318;-0.02809953;-1.767036200999431;-3.724848382297334;285.0836758538737;74.04571416192486;104.899;1.488355;-0.07971463;-0.6549946;-0.07433098;-0.9077614;-0.03886059;0.007780308;0;295221.3122639583;2570.945600180945;-0.001;1;0;2;
1510740003.617783;1510740003.617783;1510740003.617886;57.77313346422425;12.76848074106506;230.8252929569336;-0.391043;1.474616;-0.02781869;-1.757033350191514;-3.751098665100435;285.0798819985241;74.0457133349995;104.852;1.525585;0.1922232;-0.6801128;-0.2766066;-1.021255;-0.08345958;0.0903573;0;295221.352264953;2570.985601175609;-0.001;1;0;2;
1510740003.631872;1510740003.631872;1510740003.631978;57.77313332114184;12.76848174478794;230.8263964584551;-0.4059758;1.512419;-0.02635198;-1.749532556886311;-3.779329534711556;285.0791228610739;74.04571248697606;105.0256;1.565959;0.1490586;-0.6313542;0.1703334;-1.048418;-0.01423111;0.07165622;0;295221.3922649476;2571.025601170273;-0.001;1;0;2;
1510740003.652005;1510740003.652005;1510740003.652109;57.77313317415176;12.76848277614115;230.8274744930699;-0.4152528;1.55566;-0.02710244;-1.742837978572185;-3.808732445106322;285.0795189120763;74.04571161558567;104.9455;1.610128;0.1676356;-0.7489246;0.002755798;-1.140216;-0.04950154;0.09566794;0;295221.4322649423;2571.065601164937;-0.001;1;0;2;
1510740003.665985;1510740003.665985;1510740003.666083;57.77313302244144;12.76848383681068;230.8285548782903;-0.4299332;1.600628;-0.0252318;-1.742149457112917;-3.839069867293663;285.0844619903242;74.04571071931895;105.0349;1.657363;0.08656411;-0.6750367;0.166392;-1.25454;-0.0122984;0.1290842;0;295221.472264937;2571.105601159601;-0.001;1;0;2;
1510740003.677503;1510740003.677503;1510740003.677563;57.77313286606573;12.76848492848537;230.829619085927;-0.4423439;1.646885;-0.02731879;-1.744179292603596;-3.8684242731362;285.0878940128877;74.04570979688292;105.0345;1.705256;-0.0730481;-0.7741584;0.08608675;-1.17388;-0.01888542;0.1053729;0;295221.5122659316;2571.145602154265;-0.001;1;0;2;
1510740003.688274;1510740003.688274;1510740003.68838;57.77313270468222;12.7684860511274;230.8306865554416;-0.4608774;1.692666;-0.0277926;-1.74872778867641;-3.895000398400429;285.0917608501074;74.04570884815256;105.2312;1.754288;-0.02500987;-0.6593503;0.4181258;-1.198409;-0.02358455;0.01349544;0;295221.5522659263;2571.185602148929;-0.001;1;0;2;
1510740003.699791;1510740003.699791;1510740003.699889;57.77313253821813;12.76848720599106;230.8318035908707;-0.4689974;1.743498;-0.02839606;-1.751170258453514;-3.91925481652647;285.093520610218;74.04570787213073;105.056;1.805477;-0.0831062;-0.5485757;-0.1561817;-1.293479;-0.0007478302;-0.01796069;0;295221.592265921;2571.225602143593;-0.001;1;0;2;
