SampleTimeStamp;SentTimeStamp;ReceivedTimeStamp;lat;lon;alt;vel_north;vel_east;vel_down;roll;pitch;heading;wander;track;speed;arate_lon;arate_trans;arate_down;accel_lon;accel_trans;accel_down;alignment;timeDistance.time1;timeDistance.time2;timeDistance.distanceTag;timeDistance.time1Type;timeDistance.time2Type;timeDistance.distanceType;
1510748557.143604;1510748557.143604;1510748557.143726;57.77342029724134;12.76663244026072;228.65774447814;-0.9559784;3.279555;-0.076917;-1.442238067697642;-3.993646695846746;286.0039222796105;72.96814903943672;106.2512;3.416047;-0.02464699;0.3369959;0.230228;0.4297709;-0.0640273;-0.1152361;0;303775.0686169825;11124.70241354533;-0.001;1;0;2;
1510748557.223758;1510748557.223758;1510748557.223927;57.77341995272504;12.76663464984425;228.6609638647217;-0.9566427;3.267421;-0.07753878;-1.451354813161369;-3.977407831658045;286.0064036965152;72.96758506839031;106.3191;3.404585;-0.09170671;0.3246771;0.2415262;0.2633447;-0.2115245;-0.1999702;0;303775.1086179723;11124.74241453513;-0.001;1;0;2;
1510748557.297241;1510748557.297241;1510748557.297466;57.77341960802901;12.76663685377335;228.6641657425296;-0.9530704;3.26496;-0.07805745;-1.459279541449761;-3.96285923028427;286.0095032323925;72.96702110214805;106.273;3.401221;-0.5591815;0.1077103;0.07620557;0.05074022;0.044075;0.01481308;0;303775.1486179621;11124.78241452494;-0.001;1;0;2;
1510748557.376703;1510748557.376703;1510748557.376812;57.7734192643822;12.76663905640921;228.6674118225654;-0.9480464;3.263631;-0.07753604;-1.478673806845411;-3.958304416417272;286.0078729655644;72.96645713777671;106.198;3.39854;-0.4242165;0.01811033;-0.291678;0.02412652;-0.02092944;-0.01131447;0;303775.1886179519;11124.82241451475;-0.001;1;0;2;
1510748557.503621;1510748557.503621;1510748557.503781;57.77341874857063;12.76664235680623;228.6723887006158;-0.9526623;3.259179;-0.08077091;-1.52293335014741;-3.96391958904286;286.0069065411087;72.96561119487397;106.2937;3.395558;-0.8885958;-0.2502871;-0.09192475;-0.03510097;0.01636846;-0.07676563;0;303775.2486189367;11124.88241549946;-0.001;1;0;2;
1510748557.583333;1510748557.583333;1510748557.58344;57.77341840392801;12.76664455605644;228.6757355017107;-0.9531761;3.258919;-0.08140793;-1.542384673988357;-3.971380771818505;286.0017927840241;72.96504723400128;106.3033;3.395453;-0.6461092;-0.3046733;-0.2324369;-0.01632789;0.08449719;0.004530681;0;303775.2886189265;11124.92241548927;-0.001;1;0;2;
1510748557.663507;1510748557.663507;1510748557.66361;57.77341805929766;12.76664675575637;228.6790744788536;-0.9522385;3.262725;-0.07946177;-1.555175511631526;-3.977441513894182;285.9973244322852;72.9644832725666;106.2701;3.398843;-0.343222;-0.2408814;-0.2145383;-0.1548648;0.01897418;0.01798486;0;303775.3286189163;11124.96241547907;-0.001;1;0;2;
1510748557.74336;1510748557.74336;1510748557.743519;57.77341771523723;12.7666489588344;228.6823101127075;-0.950004;3.268649;-0.07350303;-1.569920090580081;-3.98231450061817;285.9976647454477;72.96391930803719;106.206;3.403905;-0.6380067;-0.0008715891;-0.008951239;-0.1984952;0.1232053;0.1134585;0;303775.3686199061;11125.00241646888;-0.001;1;0;2;
1510748557.843188;1510748557.843188;1510748557.843296;57.77341737174518;12.76665116695868;228.6854379978333;-0.9508885;3.274447;-0.07226102;-1.591419444933918;-3.987120570083478;286.0035473881333;72.96335533908268;106.1931;3.409721;-0.2365832;-0.05152221;0.1480489;-0.07645021;0.04242121;0.04371126;0;303775.4086198959;11125.04241645869;-0.001;1;0;2;
1510748557.923212;1510748557.923212;1510748557.923322;57.77341702794887;12.76665337873139;228.6884518029574;-0.9510694;3.281642;-0.06939542;-1.599293694463104;-3.990908334187635;286.0120807920752;72.96279136668404;106.1624;3.416681;-0.06201553;-0.1001321;0.03335458;-0.1624908;0.0160128;-0.02700472;0;303775.4486198857;11125.0824164485;-0.001;1;0;2;
1510748558.003275;1510748558.003275;1510748558.003339;57.77341668332583;12.76665559401319;228.6913165381916;-0.9563754;3.285473;-0.06817265;-1.589023243749253;-3.987589208950842;286.0198061119207;72.96222739080964;106.2299;3.42184;0.3320966;0.018069;0.2483504;-0.1639003;-0.07027845;0.04432365;0;303775.4886198755;11125.1224164383;-0.001;1;0;2;
1510748558.033781;1510748558.033781;1510748558.033887;57.77341633812197;12.76665781355699;228.6943233419134;-0.9559183;3.292027;-0.07097095;-1.582273753073776;-3.994989911713578;286.0275781252913;72.96166341180232;106.1919;3.428005;0.07064614;-0.1229576;0.212163;-0.1381463;0.09781909;0.005725261;0;303775.5286208653;11125.16241742811;-0.001;1;0;2;
1510748558.047474;1510748558.047474;1510748558.047581;57.77341599281498;12.76666003770389;228.6973160866187;-0.9574018;3.299927;-0.07082696;-1.571720478623708;-3.996906122325553;286.0309849733416;72.9610994288271;106.1789;3.436006;0.4262676;-0.04494354;0.03222125;-0.1704843;-0.08287231;0.006931645;0;303775.5686208551;11125.20241741792;-0.001;1;0;2;
1510748558.055627;1510748558.055627;1510748558.055789;57.77341582011249;12.76666115178224;228.6988275245583;-0.9582653;3.303977;-0.07099661;-1.567636157831644;-3.997531785363186;286.0295536379473;72.96081743579001;106.174;3.440136;0.3493543;0.004479731;-0.07924117;-0.225275;-0.0740425;0.04619349;0;303775.5886208501;11125.22241741282;-0.001;1;0;2;
1510748558.067307;1510748558.067307;1510748558.067799;57.77341547338905;12.76666338404999;228.7017651528242;-0.9616418;3.312325;-0.06735893;-1.556514138906423;-3.994620723069091;286.0283196733048;72.96025344595685;106.1892;3.449094;0.4146939;0.1874476;-0.1159099;-0.1741296;-0.1698055;-0.0958464;0;303775.6286208399;11125.26241740263;-0.001;1;0;2;
1510748558.078371;1510748558.078371;1510748558.078559;57.77341512583963;12.76666562127064;228.7047728688156;-0.9620199;3.319443;-0.07015052;-1.55114394533311;-3.994630609457383;286.0273475575286;72.95968945212077;106.1623;3.456036;0.2644767;0.1525779;-0.1335452;-0.1501948;-0.05748299;-0.1000528;0;303775.6686218297;11125.30241839244;-0.001;1;0;2;
1510748558.092253;1510748558.092253;1510748558.092359;57.77341477782979;12.76666786401857;228.7078362817724;-0.9673006;3.329039;-0.07586922;-1.557467798882439;-3.993069279204073;286.0267185545347;72.95912545370069;106.202;3.466723;-0.2591121;-0.1681854;0.1198381;-0.3641976;-0.03106478;-0.0002411725;0;303775.7086218194;11125.34241838224;-0.001;1;0;2;
1510748558.121506;1510748558.121506;1510748558.121615;57.77341442753814;12.76667011258801;228.7108685741514;-0.9733297;3.336014;-0.07188088;-1.555807834778864;-3.986121945958693;286.0307679732569;72.95856144981477;106.2654;3.475106;0.1105691;0.1383911;0.1253613;-0.1128754;-0.08766284;0.01175021;0;303775.7486218092;11125.38241837205;-0.001;1;0;2;
1510748558.13652;1510748558.13652;1510748558.136587;57.77341407603997;12.76667236682693;228.7139434185923;-0.9747074;3.346019;-0.07259965;-1.549433261475016;-3.98114633791137;286.034264005263;72.95799744116721;106.241;3.485097;0.2227646;0.1854998;0.08611418;-0.1575218;-0.07093681;-0.09393287;0;303775.7886227991;11125.42241936186;-0.001;1;0;2;
1510748558.221569;1510748558.221569;1510748558.221633;57.77341372392618;12.76667462660564;228.7170168149989;-0.9755678;3.354435;-0.07350688;-1.544758949277416;-3.970870200527832;286.0374927369288;72.95743342766035;106.216;3.493418;-0.06489367;0.2800719;0.09750465;-0.3428572;0.1018943;0.02252327;0;303775.8286227889;11125.46241935167;-0.001;1;0;2;
1510748558.283481;1510748558.283481;1510748558.283596;57.77341337117995;12.76667689311257;228.7200573716578;-0.9782813;3.364888;-0.07025813;-1.545996183216936;-3.953579705613221;286.0421884278953;72.95686940820254;106.2108;3.504213;-0.1502536;0.4993072;0.2087952;-0.2783548;0.1100199;0.08226262;0;303775.8686227787;11125.50241934147;-0.001;1;0;2;
1510748558.363603;1510748558.363603;1510748558.363741;57.77341301770817;12.76667916711587;228.7230269032917;-0.9804301;3.377024;-0.06934547;-1.555518826204022;-3.937424542361579;286.0463658581405;72.95630538259122;106.1893;3.516466;-0.1443878;0.2747542;-0.03400052;-0.3386356;-0.1225734;0.09825685;0;303775.9086237685;11125.54242033128;-0.001;1;0;2;
1510748558.440327;1510748558.440327;1510748558.440999;57.77341266237434;12.76668144828211;228.7258588202515;-0.9875273;3.387252;-0.06328899;-1.565731485567229;-3.926364094833849;286.0489598860534;72.95574135120397;106.2536;3.52827;-0.3561755;0.2225459;0.07421871;-0.4124261;-0.1349961;0.2312855;0;303775.9486237583;11125.58242032109;-0.001;1;0;2;
1510748558.479822;1510748558.479822;1510748558.479923;57.77341230482213;12.7666837374903;228.728506196084;-0.9940934;3.397462;-0.05966482;-1.569092615637684;-3.920589335005499;286.0494557323071;72.95517731321942;106.3094;3.539911;0.07970516;0.1317551;0.1041267;-0.2069918;-0.01145358;0.1768626;0;303775.9886237481;11125.6224203109;-0.001;1;0;2;
1510748558.48587;1510748558.48587;1510748558.485968;57.77341212829126;12.76668488342349;228.7297421332561;-0.9957591;3.402555;-0.05907374;-1.57054426417519;-3.915734424377006;286.0489809307513;72.95534080932708;106.3121;3.545267;-0.0007533243;0.2811024;0.1106142;-0.3727374;0.0101605;-0.1269711;0;303776.0086239978;11125.6424203058;-0.001;1;0;2;
1510748558.493692;1510748558.493692;1510748558.493798;57.77341159380043;12.76668832738779;228.7335722954728;-0.9959154;3.418387;-0.06373151;-1.568755034725358;-3.899618053017971;286.0451950520552;72.95627680582021;106.243;3.560508;0.002477144;0.279395;-0.07065725;-0.2274809;0.001163652;-0.02401119;0;303776.0686249825;11125.70242129051;-0.001;1;0;2;
1510748558.506742;1510748558.506742;1510748558.506847;57.77341123666713;12.76669063218779;228.7363500105806;-0.9964712;3.429528;-0.06849676;-1.563253978715618;-3.891187272729186;286.0459735071287;72.95690079589708;106.2016;3.571361;0.2700922;0.254231;0.01598508;-0.3400767;0.0693242;-0.04530006;0;303776.1086249723;11125.74242128032;-0.001;1;0;2;
1510748558.523723;1510748558.523723;1510748558.523784;57.77341087986615;12.7666929447977;228.7393260638024;-0.998101;3.44031;-0.07259475;-1.563984709618825;-3.884793865490736;286.0488132185084;72.957524779445;106.1785;3.582169;0.02530257;0.1948843;0.2600981;-0.1778682;0.04982546;-0.1692225;0;303776.1486249621;11125.78242127013;-0.001;1;0;2;
1510748558.531738;1510748558.531738;1510748558.531843;57.77341052203131;12.7666952642613;228.7424191175547;-1.002015;3.451237;-0.07232188;-1.563134401855823;-3.880452186068043;286.0545142151727;72.95814875712369;106.1899;3.593755;0.07451883;0.1793916;0.2010265;-0.3023618;0.01401095;0.09530849;0;303776.1886259519;11125.82242225993;-0.001;1;0;2;
1510748558.586803;1510748558.586803;1510748558.58701;57.77340998241642;12.76669875695741;228.7469152702082;-1.008287;3.467289;-0.07036036;-1.555843901009974;-3.875154393734157;286.0604315100326;72.95908471230153;106.2144;3.610919;-0.1165048;0.03010297;0.1320774;-0.2697646;-0.04665317;0.04661977;0;303776.2486259366;11125.88242224464;-0.001;1;0;2;
1510748558.666713;1510748558.666713;1510748558.667128;57.77340962056061;12.76670109403627;228.7497155955366;-1.014121;3.475867;-0.0665064;-1.552051928131876;-3.867574349844928;286.0639180546629;72.95970867500724;106.2652;3.620786;-0.03474478;0.1755763;0.2456371;-0.279567;-0.03031461;0.1270179;0;303776.2886259264;11125.92242223445;-0.001;1;0;2;
1510748558.746731;1510748558.746731;1510748558.746835;57.77340925723804;12.76670343883804;228.7525105041738;-1.01769;3.487749;-0.06766452;-1.555627646451482;-3.864327331737057;286.0650612335428;72.9603326315659;106.2667;3.633193;-0.3269175;-0.009797705;0.2042811;-0.1941965;0.1018317;0.105372;0;303776.3286269162;11125.96242322426;-0.001;1;0;2;
1510748558.826724;1510748558.826724;1510748558.827371;57.77340889268119;12.76670578937335;228.7553150042218;-1.020426;3.496252;-0.07435147;-1.559444430010046;-3.85649947423345;286.0621459554854;72.96095658327955;106.2706;3.642121;-0.4483958;-0.1048512;-0.02397276;-0.310173;0.03932074;-0.1403685;0;303776.3686269061;11126.00242321407;-0.001;1;0;2;
1510748558.88326;1510748558.88326;1510748558.883366;57.77340870983497;12.76670696722555;228.756770833317;-1.024917;3.501499;-0.0671637;-1.56171878410462;-3.852841021704312;286.0607772972269;72.96126855696134;106.3152;3.648418;0.2803451;0.430162;0.09661107;-0.3007061;-0.08408474;-0.1652055;0;303776.388626901;11126.02242320897;-0.001;1;0;2;
1510748558.952796;1510748558.952796;1510748558.952905;57.7734081593008;12.76671051236734;228.7610459153312;-1.026487;3.519833;-0.06506073;-1.566973055290445;-3.839235638746045;286.0610277993727;72.96220446788033;106.2582;3.666456;-0.20983;0.2771026;0.1163434;-0.1671134;-0.01572145;0.07773644;0;303776.4486268857;11126.08242319368;-0.001;1;0;2;
1510748558.964203;1510748558.964203;1510748558.964322;57.77340779134775;12.76671288578361;228.7636227086624;-1.027608;3.532484;-0.06087485;-1.572339935173175;-3.826415830596127;286.0650838793358;72.96282839974334;106.2198;3.678916;-0.1519282;0.3490538;-0.04374042;-0.3574789;-0.1467639;-0.07459681;0;303776.4886278755;11126.12242418349;-0.001;1;0;2;
1510748558.973781;1510748558.973781;1510748558.973884;57.77340742232552;12.76671526709189;228.7660835159088;-1.03051;3.544042;-0.05593411;-1.584414583197999;-3.807595905008482;286.0692203793351;72.96345232478326;106.213;3.690824;-0.4066766;0.6528221;0.1067283;-0.3715433;0.104362;0.1995183;0;303776.5286278653;11126.1624241733;-0.001;1;0;2;
1510748559.000717;1510748559.000717;1510748559.000911;57.77340705179201;12.76671765603065;228.7683361116053;-1.038351;3.553821;-0.04926687;-1.594215258643519;-3.777347880377741;286.0726586066596;72.96407624290754;106.2872;3.702407;-0.0006828661;0.9419343;0.1814754;-0.2405921;-0.0568668;0.09401517;0;303776.5686278551;11126.2024241631;-0.001;1;0;2;
1510748559.020366;1510748559.020366;1510748559.020535;57.7734066796438;12.76672005165171;228.7705310272233;-1.040884;3.564932;-0.05446932;-1.59270161782237;-3.746281430860643;286.0725334481828;72.96470015534112;106.2767;3.713782;0.1495209;0.5675772;0.02052081;-0.3097547;0.04056775;-0.006265315;0;303776.6086288449;11126.24242515291;-0.001;1;0;2;
1510748559.030548;1510748559.030548;1510748559.031476;57.77340630637871;12.76672245589266;228.7727982167814;-1.042856;3.578668;-0.05516147;-1.587182592682755;-3.724169056368166;286.073587843006;72.96532406072905;106.2466;3.727521;0.1840685;0.388277;0.008683632;-0.3779639;0.05049026;0.0922656;0;303776.6486288347;11126.28242514272;-0.001;1;0;2;
1510748559.045765;1510748559.045765;1510748559.04586;57.77340593244651;12.76672486894691;228.7751290094165;-1.045494;3.591452;-0.05717418;-1.57809628374203;-3.708903520258276;286.071984291973;72.96594795900501;106.2306;3.740533;0.3121573;0.1701307;-0.01448642;-0.3213215;0.06212181;0.1898224;0;303776.6886288245;11126.32242513252;-0.001;1;0;2;
1510748559.078107;1510748559.078107;1510748559.078274;57.77340555772264;12.76672729089764;228.7774779901412;-1.047246;3.604205;-0.05764166;-1.576299688650785;-3.700674082005277;286.0729193448263;72.96657185002901;106.2019;3.753268;-0.05266638;0.144703;0.02626217;-0.2801702;-0.0218203;-0.1717797;0;303776.7286298143;11126.36242612233;-0.001;1;0;2;
1510748559.13362;1510748559.13362;1510748559.133752;57.7734051821414;12.76672972029417;228.7799923743592;-1.051147;3.614707;-0.06143814;-1.584094049430828;-3.699481257600632;286.0726380809928;72.96719573523265;106.2143;3.764441;-0.3284754;-0.008998253;0.0486759;-0.3185008;-0.07778089;-0.09094832;0;303776.7686298041;11126.40242611214;-0.001;1;0;2;
1510748559.213334;1510748559.213334;1510748559.213462;57.77340480451439;12.76673215683456;228.7825869731581;-1.055578;3.625613;-0.06401836;-1.587717003362271;-3.700258865627163;286.072744176378;72.96781961439432;106.2326;3.776151;-0.4321229;-0.1881615;-0.02845539;-0.2769814;0.05799565;0.09624953;0;303776.8086297939;11126.44242610195;-0.001;1;0;2;
1510748559.283533;1510748559.283533;1510748559.283634;57.77340442481385;12.76673460060585;228.7851890456044;-1.062705;3.635792;-0.06061915;-1.584259372027026;-3.706306121099933;286.0719366175245;72.96844348759024;106.2931;3.787918;0.5160143;-0.1373864;-0.04907027;-0.255425;-0.01048595;0.2337117;0;303776.8486297837;11126.48242609175;-0.001;1;0;2;
1510748559.357559;1510748559.357559;1510748559.357667;57.77340404323402;12.76673705148891;228.7876362149309;-1.065498;3.647256;-0.05644235;-1.564807387491171;-3.705998028592277;286.0729100030903;72.96906735420019;106.285;3.799706;0.8480988;0.1347796;-0.05985253;-0.2501913;0.01916158;0.01501575;0;303776.8886307735;11126.52242708156;-0.001;1;0;2;
1510748559.368848;1510748559.368848;1510748559.368952;57.77340366171045;12.76673950921734;228.7900343954728;-1.064171;3.656634;-0.05613953;-1.544759489899455;-3.695951389160329;286.0759276996785;72.96969121452464;106.2263;3.808337;0.6810474;0.5246764;0.08462448;-0.2600067;0.0409927;-0.1406414;0;303776.9286307634;11126.56242707137;-0.001;1;0;2;
1510748559.374892;1510748559.374892;1510748559.375;57.77340328127508;12.76674197464152;228.7925506966131;-1.061313;3.668876;-0.06094231;-1.537747414557464;-3.681828174566391;286.076650708511;72.9703150684678;106.1338;3.819298;0.2058837;0.4373242;-0.05472931;-0.2954658;-0.07245614;-0.1365827;0;303776.9686307532;11126.60242706118;-0.001;1;0;2;
1510748559.390674;1510748559.390674;1510748559.390779;57.77340232643964;12.76674815394413;228.7990227168563;-1.076411;3.694682;-0.06413336;-1.534879948537799;-3.654581325620564;286.0773026782709;72.97106750953922;106.243;3.84829;-0.09157608;-0.002791795;-0.1637547;-0.2453881;-0.2407182;0.03157747;0;303777.0686319825;11126.70242803569;-0.001;1;0;2;
1510748559.423494;1510748559.423494;1510748559.4236;57.77340194033343;12.76675063451853;228.8016519344947;-1.083492;3.701951;-0.06510571;-1.536009437423462;-3.652049507511087;286.0763586891481;72.97126085464473;106.3138;3.857253;0.05075722;0.01202453;-0.051112;-0.1983694;-0.02788152;-0.06361552;0;303777.1086319723;11126.7424280255;-0.001;1;0;2;
1510748559.497152;1510748559.497152;1510748559.49732;57.77340155211486;12.76675312123819;228.8043735003435;-1.087768;3.712618;-0.06721101;-1.54244846743011;-3.650659253622826;286.0795622192213;72.97145419448627;106.3302;3.868691;-0.4533399;-0.02470217;0.09116393;-0.3342475;0.04169876;-0.05196528;0;303777.1486329621;11126.78242901531;-0.001;1;0;2;
1510748559.576711;1510748559.576711;1510748559.576809;57.77340116232578;12.76675561478436;228.8070590146262;-1.092427;3.72348;-0.06376115;-1.546503184119457;-3.641350109334319;286.0835225132113;72.97164752816327;106.3511;3.880425;-0.2370158;0.1965611;0.1763277;-0.3705186;0.1199007;0.2039231;0;303777.1886329519;11126.82242900512;-0.001;1;0;2;
1510748559.713217;1510748559.713217;1510748559.71332;57.77340057565535;12.76675937051009;228.8107933011449;-1.096895;3.742013;-0.05609073;-1.563656998873562;-3.624766235932906;286.0944911543765;72.97193751547103;106.3374;3.899467;-0.1319718;0.2197302;0.2144054;-0.3717764;-0.02501213;0.1861807;0;303777.2486329366;11126.88242898983;-0.001;1;0;2;
1510748559.793191;1510748559.793191;1510748559.793254;57.77340018313397;12.76676188569903;228.8130659517951;-1.097362;3.756243;-0.0494893;-1.570523259495727;-3.62243934122095;286.0996315127888;72.97213083110921;106.2854;3.913255;-0.2079918;0.110158;-0.07562444;-0.2415619;0.04024828;0.1864735;0;303777.2886339265;11126.92242997964;-0.001;1;0;2;
1510748559.825114;1510748559.825114;1510748559.82529;57.77339978904829;12.76676440951023;228.8151369049323;-1.102728;3.769302;-0.04651341;-1.559780918491186;-3.626486382829283;286.1032393477087;72.9723241395253;106.3071;3.927295;0.3264374;-0.1892104;-0.01410019;-0.3564408;0.02153041;0.240816;0;303777.3286339163;11126.96242996944;-0.001;1;0;2;
1510748559.845505;1510748559.845505;1510748559.845609;57.77339939452889;12.76676694259604;228.8170249276756;-1.102907;3.782685;-0.04599594;-1.537538663655091;-3.637600864261703;286.1023848770022;72.9725174404177;106.255;3.940191;0.4656202;-0.5017559;-0.1151111;-0.2820312;0.0289821;0.02563835;0;303777.3686339061;11127.00242995925;-0.001;1;0;2;
1510748559.858426;1510748559.858426;1510748559.861071;57.77339900012782;12.76676948320618;228.8189084959302;-1.104067;3.791706;-0.04498836;-1.516119479621008;-3.64906790392358;286.1014116248674;72.97271073497627;106.2345;3.949177;0.3578826;-0.1946854;0.1325208;-0.2132031;0.132871;-0.07613717;0;303777.4086348959;11127.04243094906;-0.001;1;0;2;
1510748559.873706;1510748559.873706;1510748559.873811;57.77339860551611;12.76677203075277;228.8208844912758;-1.104228;3.802909;-0.04766595;-1.491014576487547;-3.657117137502846;286.1025475881482;72.9729040233785;106.1914;3.959979;0.4425772;-0.1256772;0.09010027;-0.2845233;0.03199915;-0.06209991;0;303777.4486348857;11127.08243093886;-0.001;1;0;2;
1510748559.883522;1510748559.883522;1510748559.883624;57.7733982105719;12.76677458464728;228.8229655734098;-1.106951;3.810656;-0.05016657;-1.482590137833214;-3.661224850874356;286.1076477203518;72.97309730631301;106.198;3.968178;0.06475954;-0.04798406;0.2892941;-0.2470179;0.08547106;-0.05116589;0;303777.4886348755;11127.12243092867;-0.001;1;0;2;
1510748559.892522;1510748559.892522;1510748559.892627;57.77339781402397;12.76677714315954;228.8251785306738;-1.112318;3.815518;-0.05289007;-1.48485445205925;-3.663080370957872;286.1157223707543;72.97329058526991;106.2527;3.974347;-0.1426616;0.1644903;0.3032627;-0.1437206;-0.008290552;-0.1831494;0;303777.5286348653;11127.16243091848;-0.001;1;0;2;
1510748559.90378;1510748559.90378;1510748559.903894;57.77339741471462;12.76677970411535;228.8274915846166;-1.118631;3.819932;-0.05838193;-1.477157919760008;-3.652689441429448;286.1224596940667;72.97348386157985;106.3222;3.980354;0.1187194;0.2303004;-0.02490258;-0.2035736;-0.1088933;-0.06948405;0;303777.5686358551;11127.20243190829;-0.001;1;0;2;
1510748559.943508;1510748559.943508;1510748559.943619;57.77339721432938;12.76678098563407;228.8287234449281;-1.123183;3.820501;-0.05800429;-1.471701223297438;-3.646406789934932;286.1237359213815;72.97358049888227;106.3827;3.982181;0.6522773;0.5157236;0.08348907;-0.1632936;-0.1221721;-0.1299534;0;303777.58863585;11127.22243190319;-0.001;1;0;2;
1510748560.023541;1510748560.023541;1510748560.023645;57.77339681221905;12.76678355095763;228.8312756199476;-1.123101;3.828583;-0.06254385;-1.458645401082922;-3.633987315245397;286.126942665703;72.97377377149759;106.3489;3.989913;0.1143178;0.1402445;-0.02171635;-0.24402;0.1539947;0.03782801;0;303777.6286358398;11127.262431893;-0.001;1;0;2;
1510748560.081675;1510748560.081675;1510748560.081737;57.77339641033672;12.76678612135994;228.8337769714348;-1.121228;3.834812;-0.05758332;-1.457398656172057;-3.625962736260166;286.1283287277896;72.97396704024989;106.2979;3.995364;-0.2894095;0.2238501;-0.03715169;-0.1426895;0.1484278;0.07235095;0;303777.6686358296;11127.3024318828;-0.001;1;0;2;
1510748560.146843;1510748560.146843;1510748560.146952;57.77339600847262;12.76678869507963;228.8362657232466;-1.125224;3.83772;-0.06150063;-1.46389474696078;-3.623461019645333;286.1327126353177;72.97416030639565;106.3412;3.999278;-0.2206897;-0.1040179;0.2368578;-0.0690747;0.01488857;-0.07545362;0;303777.7086368194;11127.34243287261;-0.001;1;0;2;
1510748560.226784;1510748560.226784;1510748560.226889;57.77339560638597;12.76679127119892;228.8388355063203;-1.125278;3.841327;-0.06307355;-1.469858634988776;-3.622298361105854;286.1368440488975;72.97435357056952;106.3274;4.002755;0.02690665;-0.005756556;0.1063729;-0.0638753;0.0121091;-0.04079682;0;303777.7486368092;11127.38243286242;-0.001;1;0;2;
1510748560.254491;1510748560.254491;1510748560.254597;57.77339520396858;12.76679384898631;228.8414965555181;-1.12524;3.843379;-0.06297445;-1.471029220998463;-3.622312644111143;286.1396177757596;72.97454683337206;106.3186;4.004714;-0.03178693;0.09735239;0.02910423;-0.08620317;-0.08506354;0.007283705;0;303777.788636799;11127.42243285223;-0.001;1;0;2;
1510748560.27425;1510748560.27425;1510748560.274356;57.77339480133521;12.76679642812716;228.8442719070817;-1.126531;3.843364;-0.06604975;-1.473836582467702;-3.628496003928502;286.1423481760072;72.97474009530576;106.3364;4.005062;0.1724831;0.02071378;0.1134431;0.06536909;-0.01047157;-0.08778442;0;303777.8286377888;11127.46243384203;-0.001;1;0;2;
1510748560.282224;1510748560.282224;1510748560.282327;57.77339439845052;12.76679900726667;228.8472575855938;-1.127202;3.843985;-0.07429719;-1.480059947116921;-3.640737730815925;286.1454832766577;72.97493335751727;106.3431;4.005847;-0.1732371;-0.3350799;0.115391;0.01761696;-0.01209369;-0.1124678;0;303777.8686377787;11127.50243383184;-0.001;1;0;2;
1510748560.288475;1510748560.288475;1510748560.28858;57.77339399490403;12.76680158550984;228.8504329349209;-1.128931;3.842614;-0.07817535;-1.475260692391719;-3.65387913160314;286.1491003378816;72.97512662033995;106.3724;4.005018;0.137305;-0.3814889;0.08296201;-0.06857996;-0.03257854;-0.006648398;0;303777.9086377685;11127.54243382165;-0.001;1;0;2;
1510748560.295005;1510748560.295005;1510748560.295107;57.77339359118946;12.76680416409111;228.8536595053263;-1.128588;3.843781;-0.07451129;-1.472427652073669;-3.673557692481819;286.1510492108359;72.97531988324531;106.363;4.006042;0.3225309;-0.4224894;-0.06834366;-0.0409013;-0.03782966;0.1530588;0;303777.9486377583;11127.58243381146;-0.001;1;0;2;
1510748560.300022;1510748560.300022;1510748560.300127;57.77339318724128;12.76680674329244;228.8565906709003;-1.129742;3.842997;-0.06559968;-1.469815566453943;-3.689600004621111;286.1550540536298;72.97551314538741;106.382;4.005613;0.03667324;-0.2115272;0.1644596;0.1219517;-0.08979069;0.1167277;0;303777.9886387481;11127.62243480126;-0.001;1;0;2;
1510748560.302783;1510748560.302783;1510748560.302885;57.77339298532869;12.76680803074184;228.8579437917068;-1.129157;3.842151;-0.06378469;-1.469673818153598;-3.694745216419779;286.1557828322218;72.97553645735891;106.3774;4.004638;-0.0494816;-0.1907201;0.20897;0.02557876;0.06459948;0.08755527;0;303778.0086379978;11127.64243479617;-0.001;1;0;2;
1510748560.456903;1510748560.456903;1510748560.457083;57.77339237911597;12.76681189064176;228.8614973664373;-1.12874;3.843131;-0.0496245;-1.453045158309783;-3.689566229232288;286.1612704754107;72.97553307324637;106.3677;4.00546;0.4244774;0.3156123;0.2225038;-0.02255353;0.1860112;0.1247636;0;303778.0686379825;11127.70243478088;-0.001;1;0;2;
1510748560.543306;1510748560.543306;1510748560.543413;57.77339197585687;12.76681446422524;228.8634529796079;-1.126656;3.842693;-0.04333695;-1.431539221125121;-3.675611730187253;286.1650399522527;72.97553081632142;106.3408;4.004453;0.8674161;0.4599867;0.2377794;-0.05706571;0.08668435;0.1234325;0;303778.1086389723;11127.74243577069;-0.001;1;0;2;
1510748560.623213;1510748560.623213;1510748560.623278;57.77339157371926;12.76681703863365;228.8652363777211;-1.123402;3.844182;-0.04116832;-1.409359627761227;-3.657422045731142;286.1678267357775;72.97552855856186;106.2902;4.004968;0.61724;0.5229788;0.2059354;0.05027407;-0.009305337;-0.05959685;0;303778.1486389621;11127.78243576049;-0.001;1;0;2;
1510748560.70325;1510748560.70325;1510748560.703361;57.77339117186303;12.76681961320149;228.8670545700704;-1.121681;3.84424;-0.0433559;-1.385739430796258;-3.641064796706355;286.1717006123591;72.97552630066951;106.2663;4.004541;0.4975142;0.4483244;0.09127663;0.04663416;-0.08619961;-0.06262398;0;303778.1886389519;11127.8224357503;-0.001;1;0;2;
1510748560.721625;1510748560.721625;1510748560.721741;57.77339056900787;12.76682347520325;228.8700426352821;-1.122212;3.844064;-0.05047525;-1.365346936516359;-3.630660497675211;286.1744371312839;72.97552291463677;106.2743;4.00452;0.370031;0.08888821;-0.126159;-0.02247226;-0.03503133;-0.04404087;0;303778.2486399367;11127.88243673501;-0.001;1;0;2;
1510748560.734351;1510748560.734351;1510748560.734455;57.77339016571332;12.76682604795356;228.8723377210215;-1.127289;3.840677;-0.05953905;-1.354752485764839;-3.636695822013626;286.1745426125238;72.9755206595522;106.3577;4.002697;0.1033897;-0.3788253;0.001644811;-0.04253868;-0.03767532;-0.03625763;0;303778.2886399265;11127.92243672482;-0.001;1;0;2;
1510748560.748708;1510748560.748708;1510748560.749519;57.77338976131263;12.76682861980263;228.8749555189401;-1.130325;3.839244;-0.06622693;-1.342095691050054;-3.655959746645969;286.1727888604532;72.97551840582055;106.4051;4.002178;0.3646583;-0.5448325;-0.03429034;-0.002530337;0.008004685;-0.1097394;0;303778.3286399163;11127.96243671463;-0.001;1;0;2;
1510748560.760964;1510748560.760964;1510748560.761068;57.77338935688864;12.76683119015805;228.8778965539887;-1.129784;3.837059;-0.07691702;-1.333993516513431;-3.68349667191828;286.1711387574128;72.97551615374759;106.4065;3.999929;-0.08952108;-0.9390705;0.1692924;-0.0413309;0.1565625;-0.02687476;0;303778.3686409061;11128.00243770443;-0.001;1;0;2;
1510748560.768204;1510748560.768204;1510748560.768309;57.77338915491586;12.76683247533624;228.8794046277764;-1.127065;3.838825;-0.07282259;-1.335231613633917;-3.697302122473796;286.1720138022328;72.97551502771067;106.362;4.000856;-0.06237368;-0.6069288;-0.06370523;-0.08676074;-0.0177122;-0.09238181;0;303778.388640901;11128.02243769934;-0.001;1;0;2;
1510748560.785445;1510748560.785445;1510748560.785611;57.77338854890914;12.7668363309393;228.8837938164696;-1.129813;3.835275;-0.06815931;-1.357483428366334;-3.72683634933119;286.1820428938883;72.97551164899158;106.4142;3.998226;-0.2423028;-0.2656669;0.309448;0.09005455;-0.005211297;0.0005845342;0;303778.4486408857;11128.08243768405;-0.001;1;0;2;
1510748560.863636;1510748560.863636;1510748560.863766;57.77338814476693;12.76683889905986;228.8865616703269;-1.1316;3.831574;-0.06627824;-1.389612959982975;-3.73246255593211;286.1906414846262;72.97550939804061;106.4537;3.995182;-0.7746577;0.02208069;0.3536446;0.1648287;-0.1685479;-0.123921;0;303778.4886408755;11128.12243767386;-0.001;1;0;2;
1510748560.943791;1510748560.943791;1510748560.943855;57.77338773953101;12.76684146459202;228.8893233822299;-1.132139;3.830166;-0.06478708;-1.428381845409732;-3.732318990516158;286.1994948935663;72.97550714913291;106.4669;3.993985;-1.162227;0.1436709;0.1416499;-0.04333067;-0.155473;0.01873637;0;303778.5286418653;11128.16243866366;-0.001;1;0;2;
1510748561.023469;1510748561.023469;1510748561.023578;57.77338733342121;12.76684402850376;228.8918912396178;-1.134901;3.826001;-0.06113082;-1.489906115490751;-3.719198082083639;286.2095310113193;72.97550490135325;106.5219;3.990775;-2.044636;0.3915849;0.301181;0.009941901;-0.1131609;-0.02256534;0;303778.5686418551;11128.20243865347;-0.001;1;0;2;
1510748561.080431;1510748561.080431;1510748561.080494;57.77338692572185;12.76684659030608;228.89423059382;-1.142097;3.824029;-0.05117935;-1.581795279338146;-3.68902900160895;286.223463033533;72.97550265493726;106.629;3.990937;-2.38361;1.066486;0.3538089;-0.06036274;-0.24492;0.08871185;0;303778.6086418449;11128.24243864328;-0.001;1;0;2;
1510748561.141799;1510748561.141799;1510748561.141907;57.77338651567547;12.76684915080207;228.8960685443451;-1.149557;3.821146;-0.03803707;-1.683494726917745;-3.626606876819506;286.2394126432135;72.97550040837142;106.7434;3.990318;-2.293832;1.939112;0.5696021;0.01554139;-0.07474644;0.07141019;0;303778.6486428347;11128.28243963309;-0.001;1;0;2;
1510748561.160168;1510748561.160168;1510748561.160276;57.77338610395392;12.76685170876128;228.8975061757437;-1.149397;3.815877;-0.03031999;-1.739478519440208;-3.535468467312056;286.2470564516278;72.9754981624819;106.763;3.985227;-0.7896256;2.581528;0.1499901;0.06845856;0.05004435;-0.0409801;0;303778.6886428245;11128.32243962289;-0.001;1;0;2;
1510748561.175321;1510748561.175321;1510748561.175429;57.77338569376288;12.76685426677403;228.8988812195605;-1.139989;3.820796;-0.03121418;-1.757034900220699;-3.444060326860623;286.2426692584568;72.97549591649951;106.6132;3.987236;-0.2953663;2.184859;-0.1855336;0.1139657;0.3401706;0.1056303;0;303778.7286428143;11128.3624396127;-0.001;1;0;2;
1510748561.189097;1510748561.189097;1510748561.189204;57.77338528754129;12.76685682656603;228.9002233827623;-1.126365;3.823529;-0.03650138;-1.766810370142034;-3.36568365317487;286.2358315148547;72.97549366952367;106.4143;3.985984;-0.4432278;1.474005;-0.1506875;-0.06635848;0.4587197;0.1382611;0;303778.7686428042;11128.40243960251;-0.001;1;0;2;
1510748561.214151;1510748561.214151;1510748561.214214;57.77338488533521;12.76685938928299;228.9018343341785;-1.120564;3.827537;-0.04047838;-1.76915346211924;-3.318969485366334;286.2320832966743;72.97549142111745;106.3181;3.988195;0.1131311;0.8468375;0.09376884;-0.03690637;0.2202329;0.1004812;0;303778.808643794;11128.44244059231;-0.001;1;0;2;
1510748561.233253;1510748561.233253;1510748561.233361;57.77338448467427;12.76686195374539;228.9038505890077;-1.120802;3.827628;-0.05372607;-1.750164055152663;-3.30956831119986;286.2329827340858;72.97548917225046;106.321;3.988349;1.07323;-0.1451866;0.1925468;0.118537;0.08023194;-0.175749;0;303778.8486437838;11128.48244058212;-0.001;1;0;2;
1510748561.248045;1510748561.248045;1510748561.248153;57.77338408408985;12.7668645190511;228.9063908917379;-1.117503;3.829695;-0.06784729;-1.704472331072347;-3.339078264673626;286.2369609815578;72.97548692374748;106.2672;3.989408;1.124569;-1.149172;0.06728952;0.08338889;-0.03493587;-0.1033078;0;303778.8886437736;11128.52244057193;-0.001;1;0;2;
1510748561.264695;1510748561.264695;1510748561.264758;57.77338368343993;12.76686708454016;228.9094041516407;-1.119759;3.829519;-0.07746213;-1.649909615472703;-3.397829598152818;286.2434117862097;72.97548467604796;106.299;3.989871;1.474109;-1.720863;0.1321505;-0.01834447;-0.06052583;0.009751685;0;303778.9286447634;11128.56244156174;-0.001;1;0;2;
1510748561.312275;1510748561.312275;1510748561.312385;57.7733832824473;12.766869649257;228.91271653089;-1.120557;3.826416;-0.08362729;-1.591400478853753;-3.471184299536806;286.2497652786986;72.97548242953597;106.3225;3.987118;1.291833;-1.846061;0.2303349;0.1484291;-0.01366005;-0.1858519;0;303778.9686447532;11128.60244155154;-0.001;1;0;2;
1510748561.567225;1510748561.567225;1510748561.567324;57.77338228521371;12.76687604538262;228.9223370872529;-1.11977;3.812937;-0.1047565;-1.467505526970468;-3.637677154726096;286.2570033912975;72.9760345817441;106.3663;3.973962;0.6812019;-1.310842;0.1543358;0.06941158;-0.1784761;-0.2408951;0;303779.0686459825;11128.70244252606;-0.001;1;0;2;
1510748561.593083;1510748561.593083;1510748561.593186;57.77338188645906;12.76687859688501;228.9266300552842;-1.121073;3.805735;-0.1054868;-1.444961037446349;-3.678327996264941;286.2581290680872;72.97632981510037;106.4136;3.96742;0.5816135;-0.6292192;0.1124884;0.1437191;-0.2632857;-0.1933076;0;303779.1086459723;11128.74244251587;-0.001;1;0;2;
1510748561.602116;1510748561.602116;1510748561.602221;57.77338148720218;12.76688114572972;228.9308865321563;-1.124245;3.805378;-0.1038004;-1.447671504517206;-3.701980137656909;286.2587154684039;72.97662505041166;106.459;3.967976;-0.2679507;-0.577997;0.1613043;0.0577307;-0.2454343;-0.06243343;0;303779.1486459621;11128.78244250568;-0.001;1;0;2;
1510748561.612045;1510748561.612045;1510748561.612279;57.77338108630889;12.76688369350593;228.934776826083;-1.129032;3.802434;-0.08738495;-1.469393500777475;-3.717824657852026;286.259230301834;72.97692028659361;106.5374;3.966512;-0.5962181;-0.09982188;0.106827;-0.03099616;-0.3778609;0.07921434;0;303779.1886469519;11128.82244349548;-0.001;1;0;2;
1510748561.632295;1510748561.632295;1510748561.632401;57.77338048092558;12.76688751131672;228.9398435716371;-1.132077;3.79907;-0.07753024;-1.542650295164593;-3.735219798864825;286.2617949891325;72.97736314438444;106.5934;3.964156;-1.743845;-0.2404292;-0.1680449;0.06490765;-0.01331081;0.08110332;0;303779.2486469366;11128.8824434802;-0.001;1;0;2;
1510748561.651308;1510748561.651308;1510748561.65148;57.77338007499142;12.76689005347296;228.9428042298624;-1.143881;3.796489;-0.06716354;-1.615565227537271;-3.738654179871784;286.2662224374848;72.97765838539281;106.7675;3.965072;-1.727619;-0.07324557;0.2575429;-0.1139588;-0.233194;0.4323388;0;303779.2886469264;11128.92244347;-0.001;1;0;2;
1510748561.663025;1510748561.663025;1510748561.663129;57.77337966702854;12.76689259547251;228.9454288969123;-1.146423;3.794864;-0.05666434;-1.704795087813354;-3.749991641154803;286.2689586418712;72.977953627169;106.8095;3.96425;-2.493429;-0.2252786;0.09106182;0.03809209;-0.1773167;0.3102597;0;303779.3286479162;11128.96244445981;-0.001;1;0;2;
1510748561.713525;1510748561.713525;1510748561.713631;57.77337925701019;12.76689513847074;228.9475645778429;-1.149704;3.800468;-0.04496899;-1.813446517659967;-3.777759219913182;286.268932407206;72.97824886917073;106.8314;3.970563;-3.139308;-1.097895;-0.2270237;0.01425299;-0.1306256;0.70514;0;303779.3686479061;11129.00244444962;-0.001;1;0;2;
1510748561.813265;1510748561.813265;1510748561.813373;57.77337884442463;12.76689768456872;228.949025800605;-1.159129;3.804574;-0.02531809;-1.92244032691234;-3.831850493892377;286.2731627836476;72.97854410940941;106.9443;3.97723;-2.346198;-1.565616;0.1336013;-0.130852;0.1645592;0.5991475;0;303779.4086478958;11129.04244443942;-0.001;1;0;2;
1510748561.893182;1510748561.893182;1510748561.893288;57.77337843150661;12.76690023238043;228.9499535519658;-1.151075;3.804647;-0.01761412;-2.001261291726428;-3.909589831959763;286.2912499855965;72.97883934805267;106.8329;3.974961;-1.634619;-1.982869;0.4623714;-0.02252217;0.4905961;0.01755741;0;303779.4486478856;11129.08244442923;-0.001;1;0;2;
1510748561.973597;1510748561.973597;1510748561.973705;57.77337802202845;12.76690277977486;228.9507305719483;-1.142408;3.803385;-0.01946716;-2.045611287234865;-3.991553621920763;286.3243643159493;72.97913458600371;106.7185;3.971251;-0.7581552;-2.054766;0.8643208;0.1321633;0.3363552;-0.09168772;0;303779.4886488754;11129.12244541904;-0.001;1;0;2;
1510748562.053237;1510748562.053237;1510748562.053314;57.7733776159894;12.7669053253506;228.9517367640849;-1.136449;3.797989;-0.03020196;-2.058338433596478;-4.065291885988565;286.365498604946;72.97942982431502;106.6584;3.964371;0.1307869;-1.757334;1.154786;0.1263806;0.1908945;-0.5416625;0;303779.5286488653;11129.16244540885;-0.001;1;0;2;
1510748562.074098;1510748562.074098;1510748562.074164;57.77337721341407;12.76690786804484;228.9532521014418;-1.124095;3.793717;-0.046871;-2.038093430485504;-4.121507072074441;286.4012632232467;72.97972506411902;106.5048;3.956751;0.7564096;-1.340073;0.7450215;0.1578616;0.1009502;-0.5606481;0;303779.5686488551;11129.20244539865;-0.001;1;0;2;
1510748562.079819;1510748562.079819;1510748562.079984;57.77337701322659;12.76690913803389;228.9542766357237;-1.120661;3.791201;-0.05411418;-2.020225662983667;-4.142179549032574;286.4143484068566;72.97987268498115;106.4674;3.953364;1.125107;-0.8403865;0.4868261;0.1852678;0.07958115;-0.6906554;0;303779.58864885;11129.22244539356;-0.001;1;0;2;
1510748562.088349;1510748562.088349;1510748562.088507;57.77337661286809;12.76691167465733;228.9569080994778;-1.122631;3.784018;-0.07475222;-1.965940349758442;-4.163282077692659;286.4341959338412;72.98016792876611;106.5244;3.947036;1.464938;-0.2140748;0.3847509;0.02205903;-0.07569159;-0.819319;0;303779.6286498398;11129.26244638337;-0.001;1;0;2;
1510748562.099575;1510748562.099575;1510748562.099716;57.77337621269682;12.76691420692548;228.9603372511116;-1.123988;3.77777;-0.09493439;-1.907515625201917;-4.159074700033826;286.4447562801342;72.98046317561466;106.5692;3.941433;1.483811;0.2481314;0.4025262;0.03235825;0.02007278;-0.5206548;0;303779.6686498296;11129.30244637317;-0.001;1;0;2;
1510748562.106399;1510748562.106399;1510748562.106509;57.77337581305011;12.76691673612411;228.9643515728499;-1.119619;3.774364;-0.1053353;-1.849506628739791;-4.130962242666227;286.4463097939036;72.98075842454968;106.5224;3.936924;1.185747;0.7798713;0.01748001;0.1281447;-0.02374991;-0.218862;0;303779.7086498194;11129.34244636298;-0.001;1;0;2;
1510748562.121665;1510748562.121665;1510748562.121772;57.77337541279311;12.7669192622234;228.9687127298423;-1.124859;3.769629;-0.1126605;-1.805138561043467;-4.087779543597851;286.4508081406447;72.98105367557959;106.6151;3.93388;0.8455234;1.02966;0.3843673;-0.0492437;-0.07657425;-0.1016297;0;303779.7486508092;11129.38244735279;-0.001;1;0;2;
1510748562.13343;1510748562.13343;1510748562.133535;57.77337501175813;12.76692178590235;228.9732099873212;-1.126679;3.766396;-0.1112043;-1.780193265113053;-4.034343434559281;286.4596715805154;72.98134892833373;106.654;3.931303;0.566319;1.349943;0.4300783;-0.03216641;-0.1008276;0.09039325;0;303779.788650799;11129.42244734259;-0.001;1;0;2;
1510748562.148308;1510748562.148308;1510748562.148473;57.77337461008745;12.76692430730274;228.9776500041587;-1.126052;3.762664;-0.1077186;-1.776744249374872;-3.974756172732611;286.4709860411011;72.98164418296956;106.6609;3.927548;-0.2229415;1.583938;0.3029968;0.1023492;-0.08247902;0.043063;0;303779.8286507888;11129.4624473324;-0.001;1;0;2;
1510748562.22687;1510748562.22687;1510748562.228108;57.77337420672561;12.76692682596371;228.9819176079869;-1.132145;3.760335;-0.1012694;-1.783144434633742;-3.913207161512954;286.4849468652156;72.98193943985839;106.7558;3.927069;-0.1891416;1.486134;0.3571404;-0.03943837;-0.1769458;0.3084487;0;303779.8686517786;11129.50244832221;-0.001;1;0;2;
1510748562.2973;1510748562.2973;1510748562.297461;57.77337380261157;12.76692934374089;228.9858681932647;-1.134123;3.757258;-0.09119756;-1.796322348181882;-3.857323391303411;286.4926536929161;72.98223469810148;106.7964;3.924694;-0.1386909;1.363361;0.2154364;0.160182;-0.1244241;0.3450566;0;303779.9086517685;11129.54244831202;-0.001;1;0;2;
1510748562.377116;1510748562.377116;1510748562.37729;57.77337339859683;12.76693186111406;228.9895109674648;-1.129257;3.759923;-0.08532717;-1.822059579928247;-3.814413943186079;286.49353184581;72.98252995770045;106.7171;3.925843;-0.5909384;0.8962181;-0.2907588;0.08220254;-0.1347176;0.2291279;0;303779.9486517583;11129.58244830182;-0.001;1;0;2;
1510748562.440332;1510748562.440332;1510748562.440395;57.77337299496546;12.76693437866142;228.9928875799837;-1.130829;3.759053;-0.07974828;-1.858980794986997;-3.787351495047719;286.4891815016701;72.9828252181906;106.7428;3.925462;-0.8958663;0.5548725;-0.1238473;-0.1119099;-0.007639217;0.162938;0;303779.988651748;11129.62244829163;-0.001;1;0;2;
1510748562.467207;1510748562.467207;1510748562.467293;57.77337279379176;12.76693563605182;228.9943299685334;-1.130439;3.758426;-0.07587546;-1.872481928865242;-3.7773760966698;286.4840837151695;72.98290600002174;106.7399;3.92475;-0.6955473;0.4418715;-0.2563311;0.09920637;-0.05299328;0.1368155;0;303780.0086529978;11129.64244928654;-0.001;1;0;2;
1510748562.494986;1510748562.494986;1510748562.495114;57.77337199000657;12.7669406639103;228.9993285038307;-1.124779;3.760326;-0.06424782;-1.91384209833106;-3.762633674730035;286.458505258766;72.98313999605639;106.6528;3.924943;-0.3675767;0.1393945;-0.2986973;0.07641056;0.05546568;0.000124761;0;303780.0886529774;11129.72244926615;-0.001;1;0;2;
1510748562.50533;1510748562.50533;1510748562.50539;57.77337158959142;12.76694317890826;229.001545086268;-1.122105;3.761496;-0.06211832;-1.916887910661775;-3.758778499022546;286.4509478880155;72.98325699280529;106.6106;3.925299;-0.006787175;0.1158457;-0.06461112;0.0263161;0.05458971;-0.08323935;0;303780.1286529672;11129.76244925596;-0.001;1;0;2;
1510748562.51847;1510748562.51847;1510748562.519502;57.77337119093008;12.76694569456776;229.0037694903322;-1.117525;3.762488;-0.06539221;-1.916883278987062;-3.754099479189981;286.4471915758819;72.98337398874031;106.5423;3.924943;-0.02057266;-0.009402236;0.02451762;0.0328626;0.1003487;-0.03230611;0;303780.168653957;11129.80245024576;-0.001;1;0;2;
1510748562.548262;1510748562.548262;1510748562.548372;57.77337079303165;12.76694821068844;229.0060926394576;-1.118791;3.762218;-0.06659125;-1.914692919180084;-3.74991457847797;286.4492434200643;72.98349098400389;106.5612;3.925045;0.2582726;0.1221368;0.2136271;-0.008390789;-0.1126219;-0.1886983;0;303780.2086539468;11129.84245023557;-0.001;1;0;2;
1510748562.558132;1510748562.558132;1510748562.558234;57.77337059398437;12.76694946874429;229.0073183523917;-1.117912;3.763645;-0.0697583;-1.912717958645734;-3.747909056351651;286.4512401214352;72.98354948158502;106.543;3.926163;0.2282609;0.02145736;0.1528137;-0.1239357;0.07352559;-0.001349792;0;303780.2286539417;11129.86245023048;-0.001;1;0;2;
1510748562.593424;1510748562.593424;1510748562.593526;57.77337019551555;12.76695198481629;229.0097397111273;-1.118828;3.762663;-0.06811388;-1.892566267858724;-3.735311633881145;286.4544015839404;72.98366647623394;106.5598;3.925482;0.7833958;0.3248151;0.03103862;0.005455834;0.04461202;0.004656213;0;303780.2686539316;11129.90245022028;-0.001;1;0;2;
1510748562.673477;1510748562.673477;1510748562.67358;57.77336979662858;12.76695450066214;229.0122770211186;-1.119898;3.762777;-0.07147916;-1.872590359204467;-3.723085827073078;286.4578901344679;72.98378347107592;106.5743;3.925896;0.3260282;0.2547555;0.1575936;-0.04716175;0.01214416;-0.04883103;0;303780.3086549214;11129.94245121009;-0.001;1;0;2;
1510748562.753404;1510748562.753404;1510748562.753496;57.77336939748069;12.76695701620364;229.0149112122734;-1.12191;3.760256;-0.07366326;-1.867618985411809;-3.712310790722554;286.4618332234822;72.98390046643503;106.613;3.924055;0.005424956;0.2958368;0.2563253;-0.03938034;-0.07334073;-0.1152856;0;303780.3486549112;11129.9824511999;-0.001;1;0;2;
1510748562.933247;1510748562.933247;1510748562.933323;57.77336879653794;12.76696078710864;229.0191869877772;-1.129332;3.757078;-0.08101889;-1.872240132886095;-3.702942635105896;286.4663308963927;72.98407596202814;106.7301;3.92314;-0.07171837;0.115482;0.2628109;-0.014422;-0.05263886;-0.1583168;0;303780.4086548958;11130.04245118461;-0.001;1;0;2;
1510748562.945192;1510748562.945192;1510748562.945309;57.77336859557854;12.76696204343644;229.020686807557;-1.126902;3.757771;-0.0810219;-1.868032571819653;-3.702323079076372;286.46506278733;72.98413446124452;106.6932;3.923105;0.2228031;-0.005663362;-0.1552968;-0.04460264;0.04227196;0.1527167;0;303780.4286558907;11130.06245217951;-0.001;1;0;2;
1510748562.958151;1510748562.958151;1510748562.95962;57.77336819270921;12.76696455704725;229.0235492835157;-1.129242;3.759628;-0.07585394;-1.853144574507855;-3.70280371050164;286.4634323036621;72.9842514588002;106.7182;3.925556;0.3345179;-0.09348502;-0.01546096;-0.06534952;0.1331439;0.1765533;0;303780.4686558806;11130.10245216932;-0.001;1;0;2;
1510748562.972598;1510748562.972598;1510748562.972662;57.77336779055071;12.76696707163916;229.0261112794036;-1.125606;3.761479;-0.06575032;-1.843467294588096;-3.69909125458162;286.4637568542278;72.98436845534407;106.6596;3.926285;0.1313136;0.2455214;-0.01755757;-0.03262976;0.09861117;0.1849218;0;303780.5086558704;11130.14245215913;-0.001;1;0;2;
1510748562.982888;1510748562.982888;1510748562.982951;57.77336738969104;12.7669695875853;229.0284270257228;-1.121794;3.763423;-0.05967403;-1.845755513133674;-3.691850923103485;286.4681068438572;72.98448545059149;106.5982;3.927057;-0.1009055;0.3263423;0.00751484;0.02430941;-0.05296372;0.1581265;0;303780.5486568602;11130.18245314893;-0.001;1;0;2;
1510748562.99181;1510748562.99181;1510748562.991892;57.77336698919246;12.76697210459669;229.0305114498481;-1.125666;3.761951;-0.05283084;-1.850467224315922;-3.683679167080106;286.4747522150549;72.98460244482965;106.6584;3.926754;0.2818389;0.3992562;0.2823952;0.2205652;-0.09936603;0.07404871;0;303780.58865685;11130.22245313874;-0.001;1;0;2;
1510748563.002809;1510748563.002809;1510748563.002882;57.77336658773018;12.7669746215703;229.0323812454003;-1.128075;3.763178;-0.04971292;-1.838903983569251;-3.675025955049262;286.4816457326049;72.9847194388264;106.687;3.928621;0.3056844;0.3597003;0.246884;0.1929216;-0.05338035;-0.07996169;0;303780.6286568398;11130.26245312855;-0.001;1;0;2;
1510748563.015804;1510748563.015804;1510748563.015878;57.77336618615958;12.7669771390646;229.0342307176051;-1.128737;3.763223;-0.05395117;-1.820466433296095;-3.667961212133649;286.4859574755784;72.98483643246394;106.696;3.928854;0.4212487;0.1054929;0.253783;0.04827522;-0.2142135;-0.06681186;0;303780.6686568296;11130.30245311836;-0.001;1;0;2;
1510748563.066836;1510748563.066836;1510748563.067526;57.77336578492897;12.76697965699671;229.0361969592604;-1.124139;3.764788;-0.05903396;-1.804271039297754;-3.663421016533854;286.4888345030706;72.98495342593253;106.6252;3.929035;0.1497366;-0.02423439;0.03686307;-0.01444628;-0.03202051;-0.0386713;0;303780.7086578194;11130.34245410816;-0.001;1;0;2;
1510748563.103556;1510748563.103556;1510748563.103663;57.77336538414551;12.76698217523995;229.0383759195876;-1.122656;3.765841;-0.0633172;-1.791199895194097;-3.662150807280092;286.4913996869913;72.98507041933092;106.6001;3.929621;0.1847439;-0.03153304;-0.04164267;0.04762144;-0.01172462;-0.04307137;0;303780.7486578092;11130.38245409797;-0.001;1;0;2;
1510748563.183591;1510748563.183591;1510748563.183701;57.77336498336862;12.76698469348594;229.0407578865939;-1.124097;3.764466;-0.0692187;-1.775151035658013;-3.662534227456728;286.4929726555524;72.9851874127954;106.626;3.928714;0.3403469;-0.1518983;0.05388096;0.07816523;0.03538274;-0.06890807;0;303780.788657799;11130.42245408778;-0.001;1;0;2;
1510748563.263664;1510748563.263664;1510748563.263772;57.77336458219271;12.76698721189108;229.0432857830897;-1.123688;3.76534;-0.06767361;-1.76435371397604;-3.668356216524153;286.4957669781507;72.98530440636603;106.6166;3.929435;0.262368;-0.08307436;-0.01785249;-0.04203384;0.04809843;0.07021912;0;303780.8286587888;11130.46245507759;-0.001;1;0;2;
1510748563.336799;1510748563.336799;1510748563.33691;57.77336418037312;12.76698973031611;229.0457285580193;-1.128226;3.765091;-0.06406812;-1.749104011427092;-3.672630964667822;286.4991697973413;72.98542139976266;106.6811;3.930496;0.4976692;-0.05946776;0.1973842;0.02742649;0.04167486;0.183815;0;303780.8686587787;11130.50245506739;-0.001;1;0;2;
1510748563.365779;1510748563.365779;1510748563.365885;57.77336377858761;12.76699224850377;229.0479758264219;-1.126138;3.764674;-0.05773271;-1.736453317849731;-3.672729510030949;286.5012322668737;72.9855383932926;106.6537;3.929498;0.3186208;0.1336646;0.08787025;0.03464328;0.08664545;0.123885;0;303780.9086587685;11130.5424550572;-0.001;1;0;2;
1510748563.373401;1510748563.373401;1510748563.373502;57.77336337717452;12.76699476624369;229.0500923390801;-1.122918;3.764251;-0.05813703;-1.740607361065925;-3.6689427442828;286.5060612341781;72.98565538716618;106.6104;3.928171;-0.421912;0.08865324;-0.03392857;-0.02868805;-0.01058176;0.008270188;0;303780.9486587583;11130.58245504701;-0.001;1;0;2;
1510748563.379858;1510748563.379858;1510748563.380088;57.7733629753293;12.76699728367175;229.0521035941768;-1.126793;3.764155;-0.05596478;-1.758577828487326;-3.660280144316447;286.5137861996411;72.98577238117804;106.665;3.929189;-0.8345662;0.07789224;0.1551343;-0.065378;-0.02938915;0.1052444;0;303780.9886597481;11130.62245603682;-0.001;1;0;2;
1510748563.383202;1510748563.383202;1510748563.383308;57.77336277398991;12.76699853963769;229.0531616435582;-1.129668;3.761495;-0.05451876;-1.766678276373534;-3.655902546527079;286.5175603778054;72.9857688682977;106.7163;3.927466;-0.4596766;0.213414;0.1497071;0.1289849;-0.1349657;-0.02276494;0;303781.0086589978;11130.64245603172;-0.001;1;0;2;
1510748563.413501;1510748563.413501;1510748563.413607;57.77336216932715;12.76700230248525;229.0565933682968;-1.136339;3.756649;-0.06033424;-1.782863196778248;-3.650569920783537;286.522843147194;72.9856963224192;106.8299;3.924752;0.0194505;0.05213774;0.3122994;0.1162586;-0.08360512;-0.21781;0;303781.0686589825;11130.70245601643;-0.001;1;0;2;
1510748563.435743;1510748563.435743;1510748563.43585;57.77336176564673;12.76700480927097;229.0592109838529;-1.132583;3.755733;-0.06858939;-1.789338395945357;-3.654164894908309;286.5240059615212;72.98564796033969;106.7813;3.922789;-0.2016755;-0.07843888;0.06488596;0.1503375;0.005064484;-0.1420232;0;303781.1086599723;11130.74245700624;-0.001;1;0;2;
1510748563.50334;1510748563.50334;1510748563.503403;57.77336136288111;12.76700731468283;229.0621126626174;-1.130414;3.753999;-0.07545031;-1.795961874024693;-3.657712391983215;286.5221219781261;72.98559959956445;106.7582;3.920503;0.09959583;-0.09072357;0.02655496;0.1134951;0.2412494;-0.1166309;0;303781.1486599621;11130.78245699604;-0.001;1;0;2;
1510748563.583339;1510748563.583339;1510748563.583502;57.77336096091967;12.76700981834247;229.0652206053186;-1.128478;3.750363;-0.08110159;-1.785921913593372;-3.657790197406939;286.5214195235076;72.9855512398278;106.7465;3.916464;0.3087472;-0.105826;0.1406077;0.03219603;0.06302449;-0.03449668;0;303781.1886599519;11130.82245698585;-0.001;1;0;2;
1510748563.716919;1510748563.716919;1510748563.717023;57.77336036076439;12.76701357411987;229.0698226970957;-1.118535;3.75389;-0.0725991;-1.760129766210358;-3.660911054796688;286.5225383858825;72.98547869983919;106.5923;3.91699;0.1054744;-0.1302895;0.05864191;-0.06137832;0.2043712;0.3406439;0;303781.2486609367;11130.88245797056;-0.001;1;0;2;
1510748563.797882;1510748563.797882;1510748563.798036;57.77335996219342;12.76701607915824;229.0724635302547;-1.118682;3.753316;-0.06009796;-1.743697691225776;-3.659392999725235;286.5259243609656;72.9854303385859;106.5968;3.916482;0.3177654;0.176987;0.2082181;0.02610852;-0.03411883;0.1910964;0;303781.2886609265;11130.92245796037;-0.001;1;0;2;
1510748563.832949;1510748563.832949;1510748563.833059;57.7733595637512;12.76701858367932;229.0747341538155;-1.120137;3.752493;-0.05205955;-1.725362311404752;-3.65337740024523;286.5304753222117;72.98538197750572;106.6206;3.916109;0.7250095;0.2496846;0.1935855;0.09905941;-0.0631357;4.14715e-05;0;303781.3286609162;11130.96245795018;-0.001;1;0;2;
1510748563.844702;1510748563.844702;1510748563.844809;57.77335916468365;12.76702108741558;229.0767172477835;-1.121695;3.75104;-0.04639953;-1.703001462489705;-3.644952814895705;286.5346884252106;72.98533361694743;106.6486;3.915163;0.6459525;0.2829289;0.1536743;0.01867755;-0.1004112;-0.06025965;0;303781.368661906;11131.00245893999;-0.001;1;0;2;
1510748563.858959;1510748563.858959;1510748563.859137;57.77335876463797;12.76702359031089;229.0785365512819;-1.125516;3.74838;-0.04321049;-1.685607479638171;-3.638809952887574;286.5405382364696;72.98528525719014;106.7133;3.913711;0.5762463;0.2795037;0.2151988;0.06511673;-0.1879722;-0.0301185;0;303781.4086618959;11131.04245892979;-0.001;1;0;2;
1510748563.871188;1510748563.871188;1510748563.871307;57.7733583641934;12.76702609212656;229.0803917639459;-1.126352;3.747827;-0.0462541;-1.675911309648604;-3.635548286384767;286.5437979199706;72.98523689869839;106.7273;3.913423;0.5758106;0.187992;0.03428303;0.08980215;-0.2369944;-0.1637295;0;303781.4486618857;11131.0824589196;-0.001;1;0;2;
1510748563.891578;1510748563.891578;1510748563.891743;57.7733579630645;12.76702859203877;229.0823957717713;-1.126688;3.744045;-0.05310544;-1.665620827672118;-3.630233431117166;286.5462852639428;72.98518854176096;106.748;3.909898;0.2496958;0.1719845;0.05846217;0.1579399;-0.2053859;-0.2499691;0;303781.4886618755;11131.12245890941;-0.001;1;0;2;
1510748563.900268;1510748563.900268;1510748563.900374;57.77335756174996;12.76703109052572;229.0846295518137;-1.124725;3.742027;-0.05905659;-1.658129969347747;-3.625666635776064;286.5478525337904;72.98514018614418;106.729;3.907399;0.0983896;0.1185054;-0.04411935;0.1082846;-0.006600889;-0.2346542;0;303781.5286628653;11131.16245989921;-0.001;1;0;2;
1510748563.907397;1510748563.907397;1510748563.907598;57.77335716081195;12.76703358768668;229.0870461128227;-1.124193;3.741363;-0.06370129;-1.660880744953037;-3.619303336102986;286.5501531608097;72.9850918316952;106.7243;3.906611;-0.5026517;0.06805102;0.1451962;0.03261656;0.187632;-0.102307;0;303781.5686628551;11131.20245988902;-0.001;1;0;2;
1510748563.943347;1510748563.943347;1510748563.943435;57.7733569605629;12.76703483589974;229.0882827409301;-1.122291;3.739746;-0.06174864;-1.66155319044281;-3.61356824917687;286.5510910321495;72.98506765467751;106.7044;3.904515;0.02537142;0.3776297;-0.0835503;0.1181792;-0.08477056;-0.1231113;0;303781.58866285;11131.22245988393;-0.001;1;0;2;
1510748564.023233;1510748564.023233;1510748564.023344;57.77335655980797;12.76703733183756;229.0908297351844;-1.124987;3.738672;-0.06152678;-1.668846061042857;-3.606036085021486;286.555168182759;72.98501930120061;106.7468;3.904263;0.2426008;0.2623049;0.04665899;0.1430339;-0.08981759;0.02008097;0;303781.6286628398;11131.26245987373;-0.001;1;0;2;
1510748564.077414;1510748564.077414;1510748564.077525;57.77335615884115;12.767039827026;229.0932778702574;-1.12745;3.737943;-0.06158132;-1.672658331619701;-3.598766262006566;286.55906625273;72.98497094832436;106.7845;3.904274;0.2313932;0.003787611;0.1972083;0.04543113;-0.003385976;0.0526438;0;303781.6686638296;11131.30246086354;-0.001;1;0;2;
1510748564.13684;1510748564.13684;1510748564.136952;57.77335575777931;12.76704232115317;229.0957144598058;-1.121928;3.737065;-0.0620328;-1.667725728474367;-3.59828354800694;286.5624304652965;72.98492259651505;106.7106;3.901843;-0.2419821;-0.1236943;-0.06436807;-0.06022865;0.1039008;-0.01159521;0;303781.7086638194;11131.34246085335;-0.001;1;0;2;
1510748564.216992;1510748564.216992;1510748564.217116;57.77335535726597;12.7670448153324;229.0982058484988;-1.123932;3.736173;-0.06009921;-1.667794888873439;-3.609451158582311;286.5642798769287;72.98487424527947;106.7426;3.901565;0.2580933;-0.1871205;-0.09729005;-0.04115269;-0.2241687;0.1182579;0;303781.7486638092;11131.38246084316;-0.001;1;0;2;
1510748564.254052;1510748564.254052;1510748564.254152;57.77335495689429;12.76704730903414;229.1005637283288;-1.121411;3.735885;-0.05861196;-1.675621979374222;-3.61948234273414;286.5658309754004;72.98482589453145;106.7083;3.900564;-0.4621101;-0.2148976;-0.1281381;0.03843523;0.008769571;-0.05816579;0;303781.7886647991;11131.42246183296;-0.001;1;0;2;
1510748564.266322;1510748564.266322;1510748564.26643;57.77335455638823;12.76704980110251;229.1028340826558;-1.125896;3.730359;-0.05646879;-1.684428240924441;-3.620686934548039;286.5674524864707;72.98477754481925;106.7949;3.896565;-0.04054136;0.1966665;0.1455505;-0.05136699;-0.0897086;-0.277782;0;303781.8286647889;11131.46246182277;-0.001;1;0;2;
1510748564.279961;1510748564.279961;1510748564.280108;57.77335415563875;12.76705229039305;229.1051092509957;-1.125319;3.727257;-0.05895359;-1.693762904473942;-3.608679494164062;286.5696724813353;72.98472919690201;106.7999;3.893429;-0.2829249;0.3170209;0.1650191;0.04034642;0.08853516;-0.1112933;0;303781.8686647787;11131.50246181258;-0.001;1;0;2;
1510748564.292785;1510748564.292785;1510748564.292888;57.77335375444574;12.76705477743244;229.1073919466251;-1.128618;3.723949;-0.05871095;-1.685327776340694;-3.586322638441414;286.5744310083626;72.9846808500843;106.8605;3.891218;0.2624348;0.5596792;0.4551978;-0.005477307;0.06272685;-0.07056779;0;303781.9086647684;11131.54246180238;-0.001;1;0;2;
1510748564.310871;1510748564.310871;1510748564.310972;57.77335335410955;12.76705726302843;229.1098505092317;-1.12179;3.72219;-0.06245294;-1.667546902347143;-3.564945279918463;286.5783131897198;72.98463250442686;106.7717;3.887558;0.5202284;0.6036488;0.2628919;-0.08840894;0.1619584;-0.08001637;0;303781.9486657582;11131.58246279219;-0.001;1;0;2;
1510748564.324543;1510748564.324543;1510748564.324615;57.77335295544401;12.76705974813551;229.1124201936561;-1.114327;3.723052;-0.06517871;-1.655324852944404;-3.542991181398943;286.5843326429826;72.98458415914131;106.6627;3.886238;-0.0446034;0.5290052;0.1452418;0.0274977;0.1306546;0.002110893;0;303781.9886657481;11131.622462782;-0.001;1;0;2;
1510748564.32999;1510748564.32999;1510748564.330095;57.77335275580972;12.7670609881631;229.1137628034404;-1.113195;3.722005;-0.06293721;-1.652268498113885;-3.532409975489422;286.5875196312713;72.98447544731702;106.6511;3.88491;-0.1997843;0.5836009;0.07606694;0.03360336;-0.07485816;0.02042371;0;303782.0086659978;11131.6424627769;-0.001;1;0;2;
1510748564.383479;1510748564.383479;1510748564.38356;57.7733525569807;12.76706222790551;229.1151083379899;-1.114338;3.723579;-0.06068379;-1.659875419856972;-3.52427113872399;286.5914069814689;72.98433855592729;106.6606;3.886745;-0.07406723;0.4161601;0.1461618;-0.02947876;0.05987173;0.2990643;0;303782.0286659927;11131.66246277181;-0.001;1;0;2;
