SampleTimeStamp;SentTimeStamp;ReceivedTimeStamp;lat;lon;alt;vel_north;vel_east;vel_down;roll;pitch;heading;wander;track;speed;arate_lon;arate_trans;arate_down;accel_lon;accel_trans;accel_down;alignment;timeDistance.time1;timeDistance.time2;timeDistance.distanceTag;timeDistance.time1Type;timeDistance.time2Type;timeDistance.distanceType;
1510748161.625253;1510748161.625253;1510748161.625374;57.77343178609632;12.76656203722002;228.5749335285161;-1.511601;5.424724;-0.1742809;-1.305834397028093;-4.99544975202474;285.2555925341632;72.86757530621379;105.5705;5.631392;0.8891196;0.5845244;0.2904524;-1.497888;-0.1525791;0.07234708;0;303379.565839856;10729.19963312946;-0.001;1;0;2;
1510748161.705494;1510748161.705494;1510748161.705599;57.77343124278284;12.76656570870274;228.5821797384743;-1.518881;5.485256;-0.1821581;-1.298493834701188;-4.979539378242561;285.2550413443424;72.86836424935038;105.4775;5.691663;0.1804641;0.4002047;-0.1073961;-1.521794;-0.1979241;-0.0749072;0;303379.6058398458;10729.23963311928;-0.001;1;0;2;
1510748161.78533;1510748161.78533;1510748161.78544;57.77343069382539;12.76656941939396;228.5895640100306;-1.537599;5.544044;-0.1854942;-1.300069502325797;-4.963565747621081;285.2566162298225;72.86915315934587;105.501;5.753315;-0.1514959;0.2816596;0.07591511;-1.738132;-0.2709144;0.1503449;0;303379.6458398357;10729.2796331091;-0.001;1;0;2;
1510748161.868513;1510748161.868513;1510748161.868615;57.77343013710153;12.76657316831129;228.5969377415164;-1.560956;5.600202;-0.1825478;-1.299134700999997;-4.941361525416248;285.2657716278144;72.86994203640783;105.5749;5.813677;0.4094145;0.5820711;0.3521369;-1.537398;0.1076004;-0.01549231;0;303379.6858398255;10729.31963309892;-0.001;1;0;2;
1510748161.945305;1510748161.945305;1510748161.945393;57.77342957328586;12.7665769565309;228.6042831672901;-1.577289;5.660798;-0.1765043;-1.268194761118028;-4.914902016489101;285.2736102596908;72.87073087970602;105.5696;5.876433;1.026623;0.8271027;0.2640861;-1.511865;0.2919931;0.2879421;0;303379.7258408153;10729.35963408874;-0.001;1;0;2;
1510748162.026396;1510748162.026396;1510748162.026599;57.77342900493959;12.76658078542859;228.6113229101648;-1.589773;5.720226;-0.1721606;-1.241545708424637;-4.883135372824748;285.2825863438215;72.87151968840249;105.5318;5.937033;0.3143683;0.7166153;0.3638731;-1.407659;0.007306528;0.1803799;0;303379.7658408051;10729.39963407857;-0.001;1;0;2;
1510748162.073218;1510748162.073218;1510748162.073369;57.77342843157179;12.76658465586318;228.6182024470873;-1.603318;5.782125;-0.1644387;-1.234243733044572;-4.856672198734468;285.2937628847647;72.87230846232623;105.4981;6.0003;0.08927484;0.840706;0.2105275;-1.498757;-0.3661505;0.2972779;0;303379.805840795;10729.43963406839;-0.001;1;0;2;
1510748162.125363;1510748162.125363;1510748162.125428;57.77342785175261;12.7665885670325;228.6249254248621;-1.622771;5.842461;-0.1662364;-1.249902934131146;-4.836017527029131;285.3060803026018;72.8730972022728;105.5229;6.06364;-0.3908866;0.4281767;0.1554085;-1.531749;-0.4269651;0.1405364;0;303379.8458417848;10729.47963505821;-0.001;1;0;2;
1510748162.205359;1510748162.205359;1510748162.205429;57.7734272643949;12.76659251805543;228.6316011641882;-1.646887;5.903588;-0.1680856;-1.269787223016931;-4.815052742657088;285.3127372989493;72.87388590879897;105.5872;6.128996;-0.7744361;0.2369111;0.1426193;-1.643154;-0.4100006;0.1173814;0;303379.8858417746;10729.51963504803;-0.001;1;0;2;
1510748162.285362;1510748162.285362;1510748162.285426;57.77342666828897;12.76659650995283;228.6383872095651;-1.671315;5.964597;-0.167098;-1.292578493736505;-4.805053721782291;285.3174459166434;72.87467458128167;105.6532;6.194329;-0.6700901;0.183819;0.1402577;-1.718278;-0.1228562;0.2119694;0;303379.9258417644;10729.55963503785;-0.001;1;0;2;
1510748162.365335;1510748162.365335;1510748162.3654;57.77342606353634;12.7666005431068;228.6450465753234;-1.690937;6.026581;-0.163875;-1.307864900038515;-4.795168830774653;285.3255807401551;72.87546321861373;105.673;6.259309;-0.1381133;0.2549442;0.2459902;-1.738491;0.1298985;0.05480421;0;303379.9658417543;10729.59963502767;-0.001;1;0;2;
1510748162.489782;1510748162.489782;1510748162.490227;57.77342421178793;12.76661290297777;228.665161279922;-1.740214;6.216643;-0.167929;-1.372344016134939;-4.739097575398882;285.3494361021559;72.87506540275557;105.6384;6.455617;-0.1036425;0.6078395;0.2752421;-1.602577;0.1027366;-0.02526055;0;303380.0858429782;10729.71963599714;-0.001;1;0;2;
1510748162.502353;1510748162.502353;1510748162.502456;57.77342358307971;12.76661710882878;228.6719565555975;-1.755905;6.279665;-0.168935;-1.38365468394773;-4.707262914240621;285.3536984587769;72.87469031162149;105.6219;6.520536;-0.157766;0.660917;0.1951882;-1.607319;-0.110412;-0.09689847;0;303380.125843968;10729.75963698696;-0.001;1;0;2;
1510748162.514201;1510748162.514201;1510748162.514306;57.77342294714532;12.76662135685293;228.6787460327651;-1.777987;6.342535;-0.1666551;-1.386893828498314;-4.67866895470764;285.3572791497327;72.87431518484837;105.6596;6.587032;-0.1248687;0.5887009;0.1978464;-1.837672;-0.1084277;0.2129905;0;303380.1658439578;10729.79963697678;-0.001;1;0;2;
1510748162.52476;1510748162.52476;1510748162.524864;57.77342230331871;12.76662564743082;228.685459295623;-1.794636;6.409776;-0.1637158;-1.370221879576038;-4.656896120764243;285.3616378375825;72.87394002202151;105.6414;6.656271;0.4817177;0.2886214;0.173416;-1.697721;0.3201313;0.3720067;0;303380.2058439476;10729.83963696661;-0.001;1;0;2;
1510748162.535405;1510748162.535405;1510748162.535583;57.77342165591968;12.76662998217014;228.6920412714187;-1.803775;6.47054;-0.1615803;-1.362659670522987;-4.634687237215146;285.361782582825;72.87356482212998;105.5767;6.717254;0.1506511;0.7609202;-0.04814556;-1.542955;-0.1651672;-0.1960937;0;303380.2458439374;10729.87963695643;-0.001;1;0;2;
1510748162.566651;1510748162.566651;1510748162.566812;57.77342133053194;12.76663216513639;228.6953933461612;-1.813883;6.502463;-0.1614743;-1.375602668034118;-4.625489921179101;285.3624410934991;72.87337720926875;105.5866;6.750718;-0.2848873;0.5536122;0.1526862;-1.609379;0.03856847;0.3234214;0;303380.2658449323;10729.89963795134;-0.001;1;0;2;
1510748162.647083;1510748162.647083;1510748162.647188;57.77342067337737;12.76663656066782;228.7021153390726;-1.836711;6.561468;-0.1694207;-1.393806990441099;-4.604797099990273;285.3692968573066;72.87300195807006;105.6382;6.81369;-0.7536696;0.2944975;0.257479;-1.585223;-0.1024612;0.006252361;0;303380.3058449221;10729.93963794116;-0.001;1;0;2;
1510748162.725765;1510748162.725765;1510748162.72624;57.77342000977698;12.7666409963139;228.7088761375406;-1.849083;6.620776;-0.1710015;-1.427342741223899;-4.581340024281537;285.3702559826751;72.87262667330211;105.6042;6.874138;-1.464033;0.3213437;-0.1968303;-1.563566;0.01158038;0.1142828;0;303380.345844912;10729.97963793098;-0.001;1;0;2;
1510748162.905612;1510748162.905612;1510748162.905723;57.77341899863852;12.76664772226153;228.7190091621929;-1.890164;6.706791;-0.1619636;-1.452137670482629;-4.537998408976453;285.3641457561267;72.8720636844992;105.7393;6.968053;-0.4412521;0.812318;0.04931001;-1.465021;-0.03734981;0.345517;0;303380.4058458967;10730.03963891572;-0.001;1;0;2;
1510748162.944882;1510748162.944882;1510748162.944991;57.77341831579763;12.76665225653659;228.7255833535122;-1.901316;6.768783;-0.1554991;-1.469475067572493;-4.512146994511538;285.3650869358198;72.87168831597604;105.6898;7.030748;-0.5916775;0.7067094;-0.01911313;-1.459108;0.04448932;0.4926677;0;303380.4458458865;10730.07963890554;-0.001;1;0;2;
1510748162.957903;1510748162.957903;1510748162.958034;57.77341762915795;12.76665683211402;228.7319847314056;-1.913725;6.832992;-0.1576372;-1.49721622433525;-4.491530396852718;285.3672367607629;72.87131291280343;105.646;7.095922;-0.8664227;0.1684154;0.05039657;-1.825036;0.1966965;0.7407247;0;303380.4858458764;10730.11963889536;-0.001;1;0;2;
1510748162.96982;1510748162.96982;1510748162.969962;57.77341693497053;12.76666144875104;228.7380256317759;-1.93926;6.89051;-0.1444876;-1.504585995539568;-4.465350175378829;285.3811991570528;72.87093747388295;105.7187;7.158202;-0.0206277;0.5791891;0.6771407;-1.607152;0.3264518;0.4120702;0;303380.5258468662;10730.15963988518;-0.001;1;0;2;
1510748162.982294;1510748162.982294;1510748162.982403;57.77341623573555;12.76666610788777;228.7441330682287;-1.947236;6.955317;-0.1459858;-1.505474434393051;-4.452931610307713;285.3948864429489;72.87056199945749;105.6403;7.222753;-0.1369849;0.5244943;0.2881955;-1.48285;0.1309813;0.1214309;0;303380.565846856;10730.199639875;-0.001;1;0;2;
1510748162.994023;1510748162.994023;1510748162.994206;57.77341553099434;12.7666708091;228.7501605991044;-1.971859;7.015632;-0.1477978;-1.496206611962693;-4.436362989393102;285.4044643053468;72.87018648931677;105.6989;7.287477;0.6981537;0.3851171;0.3641123;-1.469045;-0.1789006;0.01980867;0;303380.6058468458;10730.23963986483;-0.001;1;0;2;
1510748163.004458;1510748163.004458;1510748163.004561;57.77341481762628;12.76667555009262;228.7563016799668;-1.99064;7.077861;-0.1510511;-1.474879235069835;-4.418226737948043;285.422473740289;72.86981094492488;105.7086;7.352466;0.342484;0.4078645;0.5669394;-1.831779;0.1518238;0.3973201;0;303380.6458468356;10730.27963985465;-0.001;1;0;2;
1510748163.018585;1510748163.018585;1510748163.018695;57.77341409975565;12.76668033358558;228.7624200757076;-2.000628;7.139433;-0.1492283;-1.469590213431234;-4.403057240545306;285.4363775603229;72.86943536509601;105.6541;7.414447;-0.3380397;0.3298278;0.2835672;-1.585314;0.1187424;0.2798569;0;303380.6858478255;10730.31964084447;-0.001;1;0;2;
1510748163.069342;1510748163.069342;1510748163.069696;57.77341337372793;12.76668515457753;228.7683773778873;-2.029945;7.192008;-0.1485804;-1.461803872178071;-4.376955927963448;285.4548489406537;72.8690597528869;105.7617;7.472995;0.2275454;0.6630245;0.3927269;-1.550636;-0.1322141;-0.01318672;0;303380.7258478153;10730.35964083429;-0.001;1;0;2;
1510748163.108553;1510748163.108553;1510748163.108661;57.7734126389711;12.76669001491015;228.7744306373946;-2.04671;7.253972;-0.149103;-1.435933579583346;-4.351225542511894;285.4740681060111;72.86868410712316;105.7564;7.537183;0.02786814;0.6550044;0.3529648;-1.574989;0.1141756;0.1515358;0;303380.7658478051;10730.39964082411;-0.001;1;0;2;
1510748163.178508;1510748163.178508;1510748163.178617;57.77341189887874;12.76669491537105;228.7803776069448;-2.065977;7.312109;-0.141713;-1.427647181022786;-4.324098614284964;285.491162503786;72.86830842769544;105.7772;7.598369;0.2511352;0.7119333;0.4890877;-1.588061;-0.06626827;0.2747278;0;303380.8058487949;10730.43964181393;-0.001;1;0;2;
1510748163.258435;1510748163.258435;1510748163.258552;57.77341115036601;12.76669985500636;228.7860626347079;-2.092434;7.372073;-0.1363585;-1.421025577300493;-4.297376168455194;285.5165566606224;72.86793271479817;105.8457;7.663272;0.4404485;0.7960203;0.7264634;-1.821262;-0.2250052;-0.09471319;0;303380.8458487848;10730.47964180376;-0.001;1;0;2;
1510748163.33562;1510748163.33562;1510748163.335725;57.77341039570565;12.76670483590541;228.7919134146344;-2.105804;7.43159;-0.1390089;-1.425763687863925;-4.27650821302536;285.5332412859626;72.86755696776211;105.8205;7.724179;0.5182884;0.9632539;0.3721703;-1.547924;0.0003991443;0.05015515;0;303380.8858487746;10730.51964179358;-0.001;1;0;2;
1510748163.356704;1510748163.356704;1510748163.356868;57.77340963373;12.76670985592711;228.797689177263;-2.131991;7.489211;-0.1394985;-1.424667668419743;-4.257252330954055;285.5463451593736;72.86718118776764;105.8903;7.786762;0.3414841;0.5028035;0.5157414;-1.559263;-0.1446426;-0.1481688;0;303380.9258487644;10730.5596417834;-0.001;1;0;2;
1510748163.370103;1510748163.370103;1510748163.370211;57.77340886455872;12.76671491565523;228.8032218873433;-2.145769;7.550107;-0.1328757;-1.42914575704158;-4.226079026182661;285.5610929303153;72.86680537372392;105.8653;7.849104;0.01543555;0.8551821;0.3759401;-1.393611;0.06364799;-0.03913816;0;303380.9658497542;10730.59964277322;-0.001;1;0;2;
1510748163.407449;1510748163.407449;1510748163.407555;57.77340652937047;12.76673032276799;228.8190368671332;-2.19021;7.699652;-0.1185988;-1.430248376749543;-4.099694085273422;285.5832350005756;72.86821287004813;105.8787;8.005102;0.3277654;1.399562;0.08401026;-1.22706;-0.2721122;0.07597483;0;303381.0858509782;10730.71964374269;-0.001;1;0;2;
1510748163.455217;1510748163.455217;1510748163.455375;57.77340574058208;12.7667355187339;228.8239633518782;-2.207202;7.729577;-0.1142826;-1.422702134886982;-4.04648859029222;285.5884414873079;72.86890436370511;105.9368;8.038538;0.8479369;1.725345;0.26511;-0.5446805;-0.2511541;-0.1902145;0;303381.125850968;10730.75964373251;-0.001;1;0;2;
1510748163.535322;1510748163.535322;1510748163.535397;57.77340494950008;12.76674073427266;228.8290273903878;-2.203474;7.759236;-0.1198768;-1.414915317491023;-3.987296262254838;285.5895582098471;72.86959584073684;105.8535;8.066043;0.4877846;1.727947;-0.05150521;-0.430956;0.0745823;0.1305547;0;303381.1658509578;10730.79964372233;-0.001;1;0;2;
1510748163.615794;1510748163.615794;1510748163.615921;57.77340415738013;12.76674596371291;228.8340998512214;-2.213625;7.771284;-0.1187607;-1.413631136020397;-3.916114223829799;285.5920821761899;72.87028730555069;105.8994;8.080408;0.750148;2.093389;0.3343569;-0.2495446;-0.05967363;-0.004400992;0;303381.2058509476;10730.83964371215;-0.001;1;0;2;
1510748163.695418;1510748163.695418;1510748163.695557;57.77340336280257;12.76675120080389;228.8392442761501;-2.218768;7.783514;-0.1226919;-1.410078364685898;-3.837098717088559;285.6037737844096;72.87097876312663;105.9107;8.093579;0.3115566;2.186277;0.6017208;-0.3301272;0.01500601;-0.08866926;0;303381.2458519374;10730.87964470198;-0.001;1;0;2;
1510748163.735415;1510748163.735415;1510748163.735501;57.77340296535549;12.76675382269478;228.8418442152339;-2.214983;7.79168;-0.1256028;-1.412780345905361;-3.79672254786834;285.6085946011084;72.87132448915155;105.8691;8.100396;0.08930428;1.915521;0.1595705;-0.3225843;0.009345498;0.1564077;0;303381.2658519324;10730.89964469689;-0.001;1;0;2;
1510748163.807125;1510748163.807125;1510748163.80723;57.77340216840425;12.76675907250203;228.8470266529828;-2.226712;7.804582;-0.1260432;-1.403682260554261;-3.718961981381363;285.619896424221;72.87201593593284;105.9239;8.116017;0.2844248;1.664796;0.4030193;-0.5110205;-0.184794;-0.01743728;0;303381.3058519222;10730.93964468671;-0.001;1;0;2;
1510748163.820758;1510748163.820758;1510748163.820873;57.77340136741881;12.76676433511305;228.852043026009;-2.235472;7.82568;-0.1152066;-1.378163524027271;-3.660050791663891;285.6314720929295;72.87270737238586;105.9424;8.13871;1.044458;1.379087;0.3409344;-0.3050054;0.1934399;0.07795307;0;303381.345851912;10730.97964467653;-0.001;1;0;2;
1510748163.831789;1510748163.831789;1510748163.832251;57.77340056434513;12.76676961105163;228.8569059019088;-2.24036;7.846969;-0.1156471;-1.343434580220891;-3.622862062332558;285.6389809930625;72.87339879848801;105.9344;8.160522;0.7672819;0.4689839;0.2905613;-0.4126421;0.2675693;0.4793456;0;303381.3858529018;10731.01964566635;-0.001;1;0;2;
1510748163.853705;1510748163.853705;1510748163.853814;57.77339975968414;12.76677489994028;228.8615493316152;-2.241723;7.8637;-0.1126318;-1.321476105782885;-3.606743205526309;285.6500181590563;72.87409021451292;105.9114;8.176987;-0.05924238;0.1797002;0.3846874;-0.2623383;0.2039526;0.06889527;0;303381.4258528916;10731.05964565617;-0.001;1;0;2;
1510748163.864995;1510748163.864995;1510748163.8651;57.77339895399331;12.76678019890032;228.8662294109725;-2.248299;7.876612;-0.1094626;-1.307575706156719;-3.604705469753302;285.6601147670958;72.87478162274613;105.9309;8.191207;0.7754387;0.08870403;0.212847;-0.3863019;-0.1043396;0.2439713;0;303381.4658528815;10731.099645646;-0.001;1;0;2;
1510748163.877005;1510748163.877005;1510748163.877178;57.77339814547116;12.7667855041942;228.8708351528627;-2.255347;7.882793;-0.1117005;-1.282656779238203;-3.608560740943594;285.6715699756716;72.87547302564369;105.9664;8.199086;0.9298729;-0.1135019;0.4059684;-0.07718102;0.0661258;-0.2685261;0;303381.5058538713;10731.13964663582;-0.001;1;0;2;
1510748163.887416;1510748163.887416;1510748163.887513;57.7733973357339;12.76679081240854;228.8756874582152;-2.258217;7.886114;-0.1193937;-1.256486945039712;-3.617162411779145;285.6855724088636;72.87616442613125;105.9793;8.203069;0.9436924;-0.2551233;0.3209315;-0.1811205;-0.1357061;0.02109087;0;303381.5458538611;10731.17964662564;-0.001;1;0;2;
1510748163.928817;1510748163.928817;1510748163.928927;57.77339652485826;12.76679612478772;228.8808995445766;-2.263318;7.892971;-0.133233;-1.238972727312357;-3.636083043360477;285.7007176044247;72.8768558235854;106.0003;8.211065;0.172346;-0.7412059;0.5756685;-0.0952074;-0.1237871;0.03960696;0;303381.5858538509;10731.21964661546;-0.001;1;0;2;
1510748164.008807;1510748164.008807;1510748164.008918;57.7733957119363;12.76680144078952;228.8864768867089;-2.267599;7.898336;-0.1374123;-1.22169554930243;-3.664813136657112;285.7184310013862;72.8775472182588;106.0187;8.217403;0.2277862;-0.8849019;0.4201235;-0.2157065;-0.4893184;0.05787306;0;303381.6258538408;10731.25964660528;-0.001;1;0;2;
1510748164.068117;1510748164.068117;1510748164.068225;57.7733948968728;12.7668067582381;228.8920814899986;-2.275985;7.89729;-0.1354158;-1.212494436536448;-3.693280289555069;285.7370253586101;72.87823861176926;106.0769;8.218716;0.6111175;-0.5408874;0.5487525;-0.1306187;-0.4087721;-0.1808932;0;303381.6658548306;10731.29964759511;-0.001;1;0;2;
1510748164.108824;1510748164.108824;1510748164.108927;57.77339407915957;12.76681207594863;228.897492078511;-2.281206;7.899006;-0.129217;-1.186079251332514;-3.709034464855621;285.754214965233;72.87893000435839;106.1085;8.221812;0.7848265;-0.3316078;0.5330433;0.06352661;-0.1192891;-0.2451854;0;303381.7058548204;10731.33964758493;-0.001;1;0;2;
1510748164.195445;1510748164.195445;1510748164.195517;57.77339326164221;12.76681739381651;228.9027339488234;-2.274498;7.897743;-0.1267269;-1.170806689103344;-3.711063184630285;285.7688407849373;72.87962139653223;106.0661;8.21874;-0.1464329;0.03431724;0.2994616;0.1104314;-0.05324019;-0.06452913;0;303381.7458548102;10731.37964757475;-0.001;1;0;2;
1510748164.22491;1510748164.22491;1510748164.22502;57.77339244423199;12.76682270894391;228.9079729216211;-2.277892;7.893952;-0.1317121;-1.183045252989603;-3.706537491547833;285.7874931737311;72.88031279097085;106.0961;8.216037;-0.2714528;-0.1034792;0.5348426;-0.1530857;-0.0728562;0.1045319;0;303381.7858558001;10731.41964856457;-0.001;1;0;2;
1510748164.235813;1510748164.235813;1510748164.235876;57.77339162533435;12.76682802323655;228.9134865453315;-2.283306;7.892491;-0.1341552;-1.189668566437823;-3.714790236175242;285.8049177498548;72.88100418660594;106.1352;8.216136;0.005616906;-0.2850606;0.499216;0.09008662;0.1008031;0.1384628;0;303381.8258557899;10731.45964855439;-0.001;1;0;2;
1510748164.245076;1510748164.245076;1510748164.245138;57.77339080461419;12.76683333686417;228.9188930386601;-2.288216;7.892064;-0.1316999;-1.193805154668609;-3.723036245992764;285.8240873995498;72.88169558268812;106.1689;8.217093;-0.2982446;-0.2943881;0.5196019;0.200527;-0.1333439;-0.01947073;0;303381.8658557797;10731.49964854422;-0.001;1;0;2;
1510748164.253443;1510748164.253443;1510748164.253505;57.77338998278676;12.76683864976096;228.9244578896647;-2.290549;7.892161;-0.1356776;-1.236313660439018;-3.737622669685445;285.8487703789946;72.88238697994476;106.1844;8.217836;-1.28751;-0.2633591;0.6815061;-0.3301032;-0.1508655;0.05503903;0;303381.9058567695;10731.53964953404;-0.001;1;0;2;
1510748164.262215;1510748164.262215;1510748164.262394;57.7733891588227;12.76684396235516;228.9298554956418;-2.299608;7.890909;-0.1209936;-1.332332892954354;-3.730009102252381;285.8829157224067;72.88307837690446;106.2474;8.219163;-2.954353;0.8678675;1.103335;-0.177735;-0.2932427;0.01896721;0;303381.9458567593;10731.57964952386;-0.001;1;0;2;
1510748164.27424;1510748164.27424;1510748164.274348;57.77338833023774;12.76684927272046;228.9347339556265;-2.316082;7.883304;-0.1145245;-1.457946423715227;-3.678766378515658;285.9222526606337;72.88376977418176;106.3726;8.216491;-2.023889;1.747828;0.9843843;0.1257155;-0.3098609;-0.1434433;0;303381.9858567492;10731.61964951368;-0.001;1;0;2;
1510748164.283804;1510748164.283804;1510748164.283911;57.77338791402467;12.76685192784091;228.9372166655353;-2.324119;7.883489;-0.1203833;-1.478659438554;-3.648569635958277;285.9327805410767;72.88386776515091;106.426;8.218937;-0.6829783;1.387587;0.5645105;-0.05318447;-0.3161898;-0.01856042;0;303382.0058559985;10731.63964950859;-0.001;1;0;2;
1510748164.385438;1510748164.385438;1510748164.385559;57.77338749725269;12.76685458433522;228.9397921678262;-2.323244;7.889542;-0.1209827;-1.502086040968311;-3.625274846456113;285.9369303686137;72.88388318639595;106.4082;8.224496;-1.115699;1.062296;0.1942312;-0.4445327;-0.1577365;0.3118276;0;303382.0258559934;10731.6596495035;-0.001;1;0;2;
1510748164.425602;1510748164.425602;1510748164.425709;57.77338707964511;12.76685724229461;228.9422311034113;-2.329317;7.891269;-0.1158322;-1.530724849421847;-3.5994904416579;285.9425627554936;72.8838986063073;106.4454;8.22787;-1.545887;1.154678;0.4310209;0.1358723;-0.2106036;0.1714011;0;303382.0458569883;10731.67965049841;-0.001;1;0;2;
1510748164.475417;1510748164.475417;1510748164.475522;57.77338666104691;12.76685990121815;228.9446709992698;-2.332199;7.8956;-0.1133947;-1.5565874345585;-3.580389800518713;285.9537733699677;72.8839140253818;106.4561;8.23284;-0.5769981;0.9649478;0.6275663;-0.1186805;0.2973579;0.05319089;0;303382.0658569832;10731.69965049332;-0.001;1;0;2;
1510748164.545517;1510748164.545517;1510748164.545622;57.77338582496405;12.76686522465661;228.9498391356082;-2.320884;7.913167;-0.1265396;-1.586397957907663;-3.567085099583658;285.964913832205;72.88394486000625;106.3461;8.246498;-1.040784;-0.07055634;0.03990756;-0.4627642;0.4617034;0.01134529;0;303382.105856973;10731.73965048315;-0.001;1;0;2;
1510748164.625413;1510748164.625413;1510748164.625478;57.77338498997328;12.76687055747873;228.9555374933879;-2.323521;7.91994;-0.1496082;-1.62299089590693;-3.579714855232507;285.9824810678137;72.8839756875571;106.3504;8.253738;-1.121708;-0.6841708;0.5262653;-0.1968047;0.4177676;-0.4378;0;303382.1458569629;10731.77965047297;-0.001;1;0;2;
1510748164.679132;1510748164.679132;1510748164.679239;57.773384154086;12.76687589490158;228.9622495294945;-2.326901;7.929016;-0.1684199;-1.638064329261101;-3.61682248899668;286.0069226788818;72.88400651158808;106.3552;8.263398;-0.3757191;-1.153697;0.5138776;-0.3782533;0.2200325;0.1295745;0;303382.1858579527;10731.81965146279;-0.001;1;0;2;
1510748164.689554;1510748164.689554;1510748164.689654;57.77338331730477;12.76688123738725;228.9693168577641;-2.330009;7.933385;-0.1818074;-1.652765163945757;-3.662418124918729;286.0333937925634;72.88403733157716;106.3673;8.268466;-0.9813199;-1.876092;0.5592555;-0.03653707;0.02468813;0.01604437;0;303382.2258579425;10731.85965145261;-0.001;1;0;2;
1510748164.708073;1510748164.708073;1510748164.708219;57.77338205967495;12.76688925571138;228.9806059061272;-2.338985;7.937627;-0.17986;-1.725624197194732;-3.765392128459902;286.0664991107018;72.88408356008649;106.4187;8.275069;-2.008979;-1.9915;0.3476151;-0.1501464;-0.3150178;0.5284824;0;303382.2858579272;10731.91965143735;-0.001;1;0;2;
1510748164.719655;1510748164.719655;1510748164.719741;57.77338121691568;12.76689460501005;228.9876147516107;-2.354027;7.944007;-0.1569731;-1.800406728262747;-3.8586170692217;286.0747249568779;72.88411437789345;106.506;8.285451;-1.201897;-2.608257;-0.1519015;-0.2005006;-0.3827858;0.7469929;0;303382.3258589171;10731.95965242717;-0.001;1;0;2;
1510748164.730607;1510748164.730607;1510748164.732389;57.77338036903772;12.76689995511882;228.9940205799043;-2.357955;7.940796;-0.1507232;-1.850698991253766;-3.972782413798581;286.0819791658635;72.88414519550781;106.5384;8.283489;-1.172807;-2.844077;0.2871187;0.3343444;0.6279778;0.148236;0;303382.3658589069;10731.99965241699;-0.001;1;0;2;
1510748164.738366;1510748164.738366;1510748164.738468;57.77337994584552;12.76690262923753;228.9971377833684;-2.354451;7.941545;-0.1515832;-1.86445568667978;-4.024205065584525;286.0867513749406;72.88416060465224;106.5136;8.28321;-1.150069;-2.558551;0.06365442;-0.2795073;0.02484131;0.01375011;0;303382.3858589018;10732.0196524119;-0.001;1;0;2;
1510748164.749394;1510748164.749394;1510748164.749503;57.77337910067597;12.76690797829619;229.0033124369098;-2.349957;7.940317;-0.1532755;-1.912127116257867;-4.112893157943693;286.1016077999639;72.8841914217213;106.4863;8.280756;-2.176754;-2.064311;0.4877778;0.3917717;0.6300338;-0.2460642;0;303382.4258588916;10732.05965240172;-0.001;1;0;2;
1510748164.818431;1510748164.818431;1510748164.818541;57.77337825687309;12.7669133249598;229.0096322690211;-2.34801;7.933948;-0.1482486;-1.954842714370472;-4.175308441225268;286.1347742249603;72.88422223886779;106.4858;8.274096;-0.6550163;-0.8404233;0.7962785;0.2478426;0.02344017;-0.213041;0;303382.4658598814;10732.09965339154;-0.001;1;0;2;
1510748164.898442;1510748164.898442;1510748164.89855;57.77337741451476;12.76691866928393;229.016030388163;-2.345409;7.931672;-0.1679496;-1.992515735358475;-4.198175093731361;286.1617292176784;72.88425305665317;106.473;8.271176;-0.8382815;-0.7658723;0.6478818;-0.02451224;0.20421;-0.4785569;0;303382.5058598713;10732.13965338137;-0.001;1;0;2;
1510748164.978437;1510748164.978437;1510748164.978547;57.7733765709899;12.7669240087994;229.022666755491;-2.34775;7.923878;-0.1670316;-1.988081427866075;-4.171293865116137;286.1887683492005;72.88428387595049;106.5039;8.264368;-0.4635939;0.8692058;0.6301203;-0.1467449;0.02785551;-0.2445804;0;303382.5458598611;10732.17965337119;-0.001;1;0;2;
1510748165.055616;1510748165.055616;1510748165.055724;57.7733757273054;12.7669293456597;229.0296221222313;-2.348321;7.921544;-0.1764624;-1.975753444278204;-4.119392292339253;286.2055757599023;72.8843146968632;106.5123;8.262292;0.06741747;1.315883;0.4766715;-0.1474426;0.3052562;-0.4294781;0;303382.5858598509;10732.21965336101;-0.001;1;0;2;
1510748165.088483;1510748165.088483;1510748165.088547;57.77337488373506;12.76693467915535;229.0368109691521;-2.3483;7.919884;-0.1808297;-1.949209653664814;-4.035911864207029;286.2171851181151;72.88434551940156;106.5155;8.260695;0.1872054;1.954913;0.3434255;-0.366816;0.2006098;-0.102654;0;303382.6258608407;10732.25965435083;-0.001;1;0;2;
1510748165.11079;1510748165.11079;1510748165.111447;57.77337404049732;12.7669400125475;229.0441781671049;-2.349425;7.915896;-0.1783139;-1.923324881015536;-3.945507419372705;286.2238371966534;72.88437634196873;106.5308;8.257192;1.119559;2.537095;0.3803013;0.08483461;0.1451993;-0.251065;0;303382.6658608306;10732.29965434065;-0.001;1;0;2;
1510748165.126988;1510748165.126988;1510748165.127094;57.7733731975486;12.7669453449683;229.0516657913448;-2.347471;7.916541;-0.1812344;-1.9006262565879;-3.851113272483878;286.2333066291611;72.88440716509304;106.5165;8.257254;0.5128383;2.26382;0.3385333;0.1419425;0.0497109;-0.0291949;0;303382.7058608204;10732.33965433048;-0.001;1;0;2;
1510748165.136508;1510748165.136508;1510748165.136614;57.77337235405169;12.76695067760208;229.0590226255972;-2.350985;7.915656;-0.179378;-1.881066934863178;-3.762518999532952;286.2452242002826;72.88443798817838;106.5416;8.257405;0.192344;1.973115;0.5599235;0.01803034;-0.04839845;0.1859057;0;303382.7458618102;10732.3796553203;-0.001;1;0;2;
1510748165.147017;1510748165.147017;1510748165.147124;57.77337150960233;12.76695601030248;229.0662944720946;-2.355209;7.915645;-0.1746597;-1.876483998034168;-3.68992820459523;286.2614057548442;72.88446881185531;106.5698;8.258597;-0.01583887;1.566065;0.640011;0.006021345;-0.09292973;0.3623702;0;303382.7858618;10732.41965531012;-0.001;1;0;2;
1510748165.157761;1510748165.157761;1510748165.158395;57.77337066311161;12.76696134282651;229.0733014723814;-2.357293;7.919864;-0.1631301;-1.854680167604125;-3.634300686629872;286.273633237667;72.88449963628113;106.5753;8.263236;0.6552255;1.203993;0.08952729;-0.1575815;-0.1428373;0.5491362;0;303382.8258617899;10732.45965529994;-0.001;1;0;2;
1510748165.171616;1510748165.171616;1510748165.172266;57.77336981498419;12.76696667583849;229.0798365462595;-2.364199;7.916887;-0.1534887;-1.83790159731271;-3.59183320414288;286.2868120187926;72.88453046084969;106.6271;8.262357;0.5177933;0.8501938;0.3924493;-0.05033485;-0.2057344;0.4279877;0;303382.8658617797;10732.49965528976;-0.001;1;0;2;
1510748165.185163;1510748165.185163;1510748165.185341;57.77336896541148;12.76697200955902;229.0859408362086;-2.364898;7.919491;-0.1398724;-1.817533271162785;-3.570025756100131;286.3016152085646;72.88456128552643;106.6265;8.265052;0.6294145;0.583874;0.2322287;0.006061729;-0.1725128;0.1909873;0;303382.9058627695;10732.53965627958;-0.001;1;0;2;
1510748165.248946;1510748165.248946;1510748165.249057;57.77336811555335;12.76697734261627;229.091793964908;-2.367918;7.917883;-0.138557;-1.800059685729038;-3.562557269366065;286.3195381822711;72.88459211124487;106.6498;8.264376;0.5925837;0.04266151;0.5206667;-0.1598209;-0.1115286;0.1402932;0;303382.9458627593;10732.57965626941;-0.001;1;0;2;
1510748165.328703;1510748165.328703;1510748165.32881;57.77336726486555;12.76698267544313;229.0974147947431;-2.36907;7.917026;-0.1350751;-1.790815114981615;-3.569393843157592;286.3453842669336;72.88462293749534;106.6591;8.263885;0.1690314;-0.4245943;0.6490321;0.03170336;-0.1128997;0.08241606;0;303382.9858627492;10732.61965625923;-0.001;1;0;2;
1510748165.375887;1510748165.375887;1510748165.375991;57.77336683937675;12.76698534502522;229.1001672122528;-2.372729;7.916842;-0.1284439;-1.782653628444246;-3.576883785891804;286.3594856520498;72.88463685288741;106.6838;8.264758;0.5620058;-0.3467251;0.7532068;-0.0223783;-0.0504699;0.2845823;0;303383.0058639986;10732.63965725414;-0.001;1;0;2;
1510748165.495313;1510748165.495313;1510748165.49543;57.773366413319;12.76698801543278;229.1028508961858;-2.374313;7.915366;-0.1265863;-1.77058996079743;-3.585749834210065;286.3748799977431;72.88465026910049;106.6973;8.2638;0.3894773;-0.5013762;0.7140517;0.04804507;-0.1471648;0.3186471;0;303383.0258639934;10732.65965724905;-0.001;1;0;2;
1510748165.535568;1510748165.535568;1510748165.535775;57.7733659874694;12.76699068572867;229.1054122794044;-2.375917;7.913908;-0.1183978;-1.765770586783581;-3.592618793759808;286.3887067399478;72.8846636855054;106.7108;8.262864;0.5403365;-0.2549019;0.9030356;-0.04557995;-0.03419481;-0.02674731;0;303383.0458639883;10732.67965724396;-0.001;1;0;2;
1510748165.545446;1510748165.545446;1510748165.545618;57.77336556107724;12.76699335580844;229.1079248233225;-2.375541;7.914919;-0.1168518;-1.762455051183435;-3.600337044937428;286.4044666812358;72.88467710205964;106.7063;8.263724;-0.1027833;-0.3418073;0.667448;-0.02942127;-0.2725115;0.2146885;0;303383.0658639832;10732.69965723887;-0.001;1;0;2;
1510748165.561505;1510748165.561505;1510748165.563334;57.77336470694836;12.76699869360181;229.1129724241878;-2.381211;7.90845;-0.1199849;-1.752873162148695;-3.616251489391201;286.434968436991;72.88470393718956;106.7569;8.259161;0.5683423;-0.2367837;0.5879453;0.1144847;-0.2390124;-0.03991606;0;303383.1058639731;10732.73965722869;-0.001;1;0;2;
1510748165.576259;1510748165.576259;1510748165.576733;57.7733638515525;12.76700402847865;229.1182574867886;-2.388136;7.903179;-0.1287875;-1.737961659608894;-3.633355106692324;286.4590447256079;72.88473077504966;106.8135;8.256115;0.8483803;-0.2848535;0.6347679;0.02295975;-0.3647124;-0.4854805;0;303383.1458649629;10732.77965821852;-0.001;1;0;2;
1510748165.589693;1510748165.589693;1510748165.589797;57.77336299434383;12.76700936045369;229.1238828402444;-2.381369;7.904954;-0.1367348;-1.716710169099125;-3.655240075085824;286.4841127626813;72.88475761541399;106.7649;8.255859;0.141021;-0.7871504;0.3260607;0.007673293;0.3291059;0.2182524;0;303383.1858649527;10732.81965820834;-0.001;1;0;2;
1510748165.600882;1510748165.600882;1510748165.600987;57.77336213743325;12.76701469110412;229.1294085387456;-2.387687;7.898611;-0.1342731;-1.711088244243054;-3.664701346158208;286.5114495252717;72.88478445652071;106.8196;8.251612;-0.1086847;-0.3451948;0.7204378;0.03564692;0.05831135;0.02375297;0;303383.2258649425;10732.85965819816;-0.001;1;0;2;
1510748165.613809;1510748165.613809;1510748165.613926;57.77336084920898;12.76702268149381;229.1376255052019;-2.39417;7.892006;-0.1286842;-1.700159589082341;-3.666406509896858;286.5562953209467;72.88482472218102;106.876;8.247169;0.1334104;0.2475632;0.5868824;0.1411107;-0.2423663;-0.1668417;0;303383.2858659273;10732.91965918289;-0.001;1;0;2;
1510748165.648447;1510748165.648447;1510748165.648554;57.77335998848422;12.76702800357384;229.1430470825609;-2.399401;7.885655;-0.1294869;-1.675449592723569;-3.651120719681004;286.5822044781198;72.88485156931361;106.9237;8.242614;0.3152647;0.47237;0.7684302;0.2068366;-0.06618045;-0.1378877;0;303383.3258659171;10732.95965917271;-0.001;1;0;2;
1510748165.728417;1510748165.728417;1510748165.728481;57.7733591276317;12.76703332289941;229.1485291405633;-2.399405;7.883147;-0.1342499;-1.668919803175041;-3.626735862019618;286.6059542642882;72.884878418779;106.9288;8.240215;-0.1995612;0.4121186;0.6391486;0.05516779;-0.03056959;0.2609168;0;303383.3658659069;10732.99965916254;-0.001;1;0;2;
1510748165.835717;1510748165.835717;1510748165.835914;57.77335826583655;12.76703864067671;229.1540526527949;-2.399967;7.880603;-0.136697;-1.667547612704865;-3.608380557154908;286.6271864980203;72.88490526999074;106.9376;8.237946;-0.2387304;0.07358249;0.4176554;-0.01786801;0.00585869;0.0800587;0;303383.4058658967;10733.03965915236;-0.001;1;0;2;
1510748165.915426;1510748165.915426;1510748165.915498;57.77335740277204;12.76704395682992;229.1595437375344;-2.404772;7.878339;-0.1249255;-1.664169539945741;-3.597095692278637;286.6459661873193;72.88493212294591;106.9742;8.237181;0.2962598;0.7031577;0.3285151;0.2226602;-0.1209399;-0.125124;0;303383.4458668866;10733.07966014218;-0.001;1;0;2;
1510748165.995613;1510748165.995613;1510748165.995719;57.7733565386687;12.7670492691568;229.165057685541;-2.410359;7.87178;-0.1368481;-1.661664224488409;-3.574789499511094;286.6656651839273;72.88495897865943;107.0247;8.232542;0.2936679;0.546283;0.5076783;0.09402439;-0.3099569;-0.3419153;0;303383.4858668764;10733.119660132;-0.001;1;0;2;
1510748166.013614;1510748166.013614;1510748166.01372;57.77335567391309;12.76705457911697;229.1707966948889;-2.407423;7.86786;-0.1345388;-1.648013443482773;-3.551232444807356;286.6846985255827;72.88498583618519;107.0132;8.227935;0.3370613;0.8977923;0.3709944;0.3791622;-0.1359431;-0.0187486;0;303383.5258668662;10733.15966012182;-0.001;1;0;2;
1510748166.023414;1510748166.023414;1510748166.023523;57.77335481004285;12.76705988748152;229.1763728059532;-2.406833;7.867258;-0.1270912;-1.658914346042953;-3.527709883097415;286.7037336363229;72.88501269542982;107.0105;8.227186;-0.4475691;0.6000614;0.4717883;0.2681467;-0.2332338;0.3787983;0;303383.565867856;10733.19966111165;-0.001;1;0;2;
1510748166.030836;1510748166.030836;1510748166.030942;57.77335394504559;12.76706519388245;229.1814352456948;-2.412267;7.863024;-0.1153294;-1.673869460721521;-3.49651447826356;286.7220900398683;72.88503955611401;107.0553;8.22473;-0.2749745;0.9913205;0.4709509;0.2328923;-0.3181846;0.04221586;0;303383.6058678459;10733.23966110147;-0.001;1;0;2;
1510748166.036503;1510748166.036503;1510748166.036611;57.77335307950881;12.76707049818078;229.1864967650124;-2.411605;7.860174;-0.1189575;-1.686860404749746;-3.478222630364211;286.7328524932032;72.88506641942996;107.0567;8.22181;-0.3049302;0.4074094;0.2383304;0.1507318;-0.08645631;0.2575724;0;303383.6458678357;10733.27966109129;-0.001;1;0;2;
1510748166.057379;1510748166.057379;1510748166.057485;57.77335221341063;12.76707580092852;229.1915022387068;-2.411454;7.861245;-0.115723;-1.704035750009782;-3.470487541220276;286.7398346875826;72.88509328472993;107.0535;8.222791;-0.693349;0.1639139;0.0779709;0.03672596;0.08311681;0.2524519;0;303383.6858678255;10733.31966108111;-0.001;1;0;2;
1510748166.066964;1510748166.066964;1510748166.067074;57.77335134710601;12.76708110168864;229.1962971651612;-2.411204;7.85831;-0.1179579;-1.700399067464582;-3.45942713472268;286.7437156444119;72.88512015140678;107.0578;8.219912;0.2597272;0.06617928;-0.0559747;-0.217079;-0.04491606;-0.0163676;0;303383.7258688153;10733.35966207093;-0.001;1;0;2;
1510748166.078964;1510748166.078964;1510748166.079076;57.77335048123175;12.76708640118468;229.2013816610478;-2.411498;7.852691;-0.1202043;-1.697132739435812;-3.460218645545793;286.7482817454594;72.88514701961073;107.0713;8.214625;0.5918581;0.3370957;0.3147276;0.0654899;0.1621194;-0.08117535;0;303383.7658688052;10733.39966206076;-0.001;1;0;2;
1510748166.125473;1510748166.125473;1510748166.125551;57.77334961707268;12.76709169845973;229.2063988969653;-2.403924;7.855628;-0.1090905;-1.695091610187139;-3.453873569713598;286.7526634394727;72.88517388942891;107.0148;8.215214;0.2293943;0.3968208;0.08143164;-0.1680469;0.07348622;0.3026613;0;303383.805868795;10733.43966205058;-0.001;1;0;2;
1510748166.205378;1510748166.205378;1510748166.205463;57.77334875400057;12.7670969954842;229.2110301627086;-2.406016;7.848896;-0.1074758;-1.701341420047428;-3.440306675124403;286.7595183544182;72.88520075917202;107.0425;8.20939;0.6650457;0.6193336;0.06977741;0.111909;-0.347551;-0.2102078;0;303383.8458697848;10733.4796630404;-0.001;1;0;2;
1510748166.28567;1510748166.28567;1510748166.285784;57.77334789031117;12.76710228997066;229.2157107511164;-2.403277;7.847214;-0.1066308;-1.697101670801872;-3.434342077796557;286.7623190961435;72.88522763140584;107.0277;8.206979;0.3481893;0.3079556;0.0236203;0.1274406;0.04995184;-0.1060562;0;303383.8858697746;10733.51966303022;-0.001;1;0;2;
1510748166.365467;1510748166.365467;1510748166.365574;57.77334702851825;12.7671075831124;229.2203643510492;-2.397623;7.847059;-0.1107717;-1.703019975793812;-3.430522636808172;286.7571598603748;72.88525450539498;106.9902;8.205177;0.1776432;-0.01556993;-0.3825711;0.006635455;-0.06941212;0.1387772;0;303383.9258697644;10733.55966302004;-0.001;1;0;2;
1510748166.428894;1510748166.428894;1510748166.429002;57.77334616636421;12.76711287575865;229.2248511676725;-2.40051;7.846416;-0.1014406;-1.694124630860707;-3.433819031032147;286.7488293825856;72.88528138002034;107.0108;8.205406;0.3577695;0.02349474;-0.2947366;0.1302461;-0.1073934;-0.01470939;0;303383.9658697543;10733.59966300987;-0.001;1;0;2;
1510748166.45741;1510748166.45741;1510748166.457505;57.77334487824548;12.76712081357954;229.2316109799453;-2.392368;7.838496;-0.1116248;-1.71516952194262;-3.436595146660733;286.7317392814903;72.88556973687993;106.9726;8.195453;-0.642875;0.1490958;-0.3492861;0.2688874;0.1215651;0.002449607;0;303384.0258709934;10733.6596639946;-0.001;1;0;2;
1510748166.462653;1510748166.462653;1510748166.463031;57.77334444879582;12.76712345820974;229.2338731243744;-2.400808;7.83745;-0.1086743;-1.713655919825048;-3.433779133345011;286.727054132483;72.88572491432819;107.0311;8.19692;0.4401599;0.2336868;-0.1890191;0.02104608;-0.1954935;0.041345;0;303384.0458709883;10733.67966398951;-0.001;1;0;2;
1510748166.468392;1510748166.468392;1510748166.468527;57.7733440191375;12.76712610292135;229.2361614457531;-2.398674;7.839092;-0.1106386;-1.70593785961185;-3.435815964921702;286.7211598928776;72.88588009186962;107.0135;8.197865;1.005049;-0.08735145;-0.2752831;-0.2575062;0.2306318;0.1154287;0;303384.0658709832;10733.69966398442;-0.001;1;0;2;
1510748166.475006;1510748166.475006;1510748166.475112;57.77334316173425;12.76713139087062;229.2406684824761;-2.388162;7.835258;-0.1087065;-1.67413436542681;-3.428812357543676;286.7099733948184;72.88619044747013;106.9511;8.191128;0.8585094;0.3077377;-0.2739296;0.05038482;0.04481658;0.1115605;0;303384.1058709731;10733.73966397424;-0.001;1;0;2;
1510748166.492601;1510748166.492601;1510748166.492703;57.77334230647371;12.76713667761349;229.2451389954487;-2.383583;7.835918;-0.1055374;-1.659298114263651;-3.419942371691988;286.7046166024468;72.88650080399609;106.9191;8.190426;0.4471384;0.3489228;-0.2292499;-0.1366897;0.03143071;-0.0157523;0;303384.1458719629;10733.77966496406;-0.001;1;0;2;
1510748166.502029;1510748166.502029;1510748166.502493;57.77334145317137;12.76714196407139;229.249414210011;-2.380064;7.833485;-0.1058329;-1.661711264463102;-3.4092405666337;286.702209911309;72.88681116080897;106.9005;8.187075;-0.1397406;0.06006139;0.01796873;-0.008826979;0.06949563;0.07204541;0;303384.1858719527;10733.81966495389;-0.001;1;0;2;
1510748166.568482;1510748166.568482;1510748166.568587;57.77334060057345;12.76714724844559;229.2536998759873;-2.379434;7.830789;-0.1043779;-1.666455181704623;-3.404243000109013;286.6959352268415;72.88712151983572;106.9017;8.184312;0.09411687;0.08743685;-0.2496132;-0.1085711;-0.0409872;0.1021053;0;303384.2258719425;10733.85966494371;-0.001;1;0;2;
1510748166.688587;1510748166.688587;1510748166.688697;57.77333932222061;12.76715517083721;229.2603642291357;-2.376543;7.825651;-0.1130871;-1.6663607326984;-3.400994376500365;286.6827198094786;72.88758706214772;106.8928;8.178555;-0.2352405;0.1209776;-0.1700526;-0.103936;0.2186083;-0.04792495;0;303384.2858729273;10733.91966592844;-0.001;1;0;2;
1510748166.768564;1510748166.768564;1510748166.768669;57.7733384713166;12.76716045011305;229.2650550193854;-2.372967;7.822322;-0.1112616;-1.675151574443718;-3.40119385627471;286.6734395163668;72.88789742590278;106.8756;8.174332;-0.1142435;0.1144797;-0.2140789;0.07629733;0.01086708;0.3079974;0;303384.3258729171;10733.95966591826;-0.001;1;0;2;
1510748166.848624;1510748166.848624;1510748166.848741;57.77333762182823;12.76716572735988;229.2695568756929;-2.367282;7.820879;-0.1065657;-1.690114075777396;-3.395020985058375;286.6591086468185;72.8882077914424;106.8404;8.171302;-0.8236082;0.1236461;-0.5044877;0.1760895;0.04307676;0.5293947;0;303384.3658729069;10733.99966590808;-0.001;1;0;2;
1510748166.899624;1510748166.899624;1510748166.900743;57.77333719720463;12.76716836548688;229.2716924316065;-2.371127;7.819283;-0.1040591;-1.69547705329956;-3.392099072614936;286.6503464771017;72.88836297468158;106.8695;8.17089;-0.2875049;0.1207006;-0.3483691;0.06375051;0.04890662;0.006184902;0;303384.3858739018;10734.019666903;-0.001;1;0;2;
1510748166.921024;1510748166.921024;1510748166.92118;57.77333634783334;12.76717363910249;229.275922924399;-2.367929;7.814465;-0.1061783;-1.689075586906432;-3.384876222126863;286.6318376638985;72.88867334312299;106.8578;8.16535;-0.2804459;-0.006243166;-0.3559434;0.09038712;0.1451998;0.1015131;0;303384.4258738916;10734.05966689282;-0.001;1;0;2;
1510748166.929692;1510748166.929692;1510748166.929798;57.7733355013819;12.76717891124391;229.2802199849162;-2.355965;7.813272;-0.1060555;-1.691428805776063;-3.376863730585051;286.612411911809;72.88898371295234;106.7798;8.160748;-0.3380737;0.2225148;-0.6772571;0.2189983;0.131779;-0.03047707;0;303384.4658738815;10734.09966688264;-0.001;1;0;2;
1510748166.944908;1510748166.944908;1510748166.945015;57.77333465788183;12.76718418293762;229.2846231222161;-2.352203;7.811671;-0.1066544;-1.720034329452063;-3.37885679906215;286.5925153058266;72.88929408398667;106.7578;8.158129;-0.9524186;-0.1119441;-0.4554098;0.1873878;-0.08174983;0.04119398;0;303384.5058738713;10734.13966687246;-0.001;1;0;2;
1510748166.950222;1510748166.950222;1510748166.95036;57.77333381557328;12.7671894532921;229.2889796470692;-2.348439;7.810323;-0.1087153;-1.753108410411967;-3.386934011068724;286.5698849973824;72.88960445659652;106.7352;8.155753;-0.810141;-0.3135122;-0.5797769;0.07344195;0.2384972;-0.04388127;0;303384.5458748611;10734.17966786228;-0.001;1;0;2;
1510748166.95668;1510748166.95668;1510748166.956782;57.77333297443023;12.76719472161746;229.2934239746459;-2.345537;7.806978;-0.1076707;-1.757555319017911;-3.396425978728542;286.5355240956608;72.88991483109658;106.7224;8.151714;-0.05543058;0.004924259;-0.860915;0.01401693;0.185324;0.1232873;0;303384.5858748509;10734.2196678521;-0.001;1;0;2;
1510748166.977386;1510748166.977386;1510748166.977489;57.77333213302961;12.76719998632967;229.2980531225412;-2.347163;7.802292;-0.1157365;-1.744422519033432;-3.402959868067331;286.5070327682429;72.89022520799305;106.7429;8.147695;0.6500052;-0.2364271;-0.6217515;-0.01223772;0.2940877;0.1300529;0;303384.6258748408;10734.25966784193;-0.001;1;0;2;
1510748166.998411;1510748166.998411;1510748166.998516;57.77333129227263;12.76720524829846;229.3026542199036;-2.343679;7.796741;-0.1097978;-1.721863785849082;-3.404261284575891;286.4889236615022;72.89053558637112;106.7306;8.141376;0.6465567;0.04826429;-0.377133;0.2181173;0.2144706;0.03773188;0;303384.6658758306;10734.29966883175;-0.001;1;0;2;
1510748167.066778;1510748167.066778;1510748167.066917;57.77333045097391;12.76721050694201;229.3071994642748;-2.351269;7.792421;-0.1081312;-1.675184386870868;-3.411337831663927;286.4835455377947;72.89084596684869;106.7906;8.139428;1.534616;-0.2382222;0.2088076;-0.03300554;-0.0698108;0.1247976;0;303384.7058758204;10734.33966882157;-0.001;1;0;2;
1510748167.1061;1510748167.1061;1510748167.106203;57.77332961007455;12.76721576356873;229.3115776829306;-2.342211;7.790656;-0.1094087;-1.631354428718917;-3.418749360832327;286.4919878318949;72.89115634844556;106.7331;8.135126;0.6089371;-0.3806674;0.2692563;0.08058323;0.1329728;0.0009258658;0;303384.7458758102;10734.37966881139;-0.001;1;0;2;
1510748167.185484;1510748167.185484;1510748167.185661;57.77332877030266;12.76722101770022;229.3159526041208;-2.341723;7.785223;-0.1031449;-1.62073630622304;-3.426414092515444;286.5126080235168;72.89146673209042;106.7408;8.129783;0.2290331;0.1177475;0.4978776;0.1982154;-0.08617101;0.00437034;0;303384.7858758;10734.41966880121;-0.001;1;0;2;
1510748167.265488;1510748167.265488;1510748167.265589;57.77332792989406;12.76722626807613;229.320274532225;-2.34853;7.779853;-0.1041241;-1.618555674887494;-3.42846445574026;286.533878396843;72.89177711877596;106.7977;8.126605;0.5241846;0.1051314;0.4535768;0.07319149;-0.4609682;-0.2715582;0;303384.8258767899;10734.45966979104;-0.001;1;0;2;
1510748167.3098;1510748167.3098;1510748167.309904;57.77332708816547;12.76723151427745;229.3246893870829;-2.348604;7.773266;-0.1092088;-1.619346326171931;-3.428415966160284;286.5454831954552;72.89208750940169;106.8116;8.12032;-0.2347526;0.05765656;0.165999;0.1519229;-0.1589054;-0.2630824;0;303384.8658767797;10734.49966978086;-0.001;1;0;2;
1510748167.32428;1510748167.32428;1510748167.324388;57.77332624457186;12.76723675585098;229.329199452372;-2.357422;7.76587;-0.1093682;-1.619606595580044;-3.428662545796609;286.5518401845704;72.8923979041914;106.8863;8.115797;0.03007875;0.0644748;0.2400134;0.2390739;-0.09041689;-0.06395514;0;303384.9058767695;10734.53966977068;-0.001;1;0;2;
1510748167.339761;1510748167.339761;1510748167.339867;57.77332540000413;12.7672419939049;229.3337015143962;-2.355342;7.762578;-0.1111415;-1.599852736025189;-3.429257324869481;286.5495526750793;72.89270830207724;106.879;8.112044;0.5864186;-0.1294809;-0.1042977;0.1640526;0.008769676;0.05968196;0;303384.9458777593;10734.5796707605;-0.001;1;0;2;
1510748167.353845;1510748167.353845;1510748167.353957;57.77332455680631;12.76724722899867;229.3383133726596;-2.350574;7.756502;-0.1127761;-1.591021919038606;-3.433970182329316;286.5481525251211;72.89301870275816;106.8592;8.104846;0.06816924;0.03025968;0.1144457;0.2505139;-0.02449966;-0.02000697;0;303384.9858777492;10734.61967075032;-0.001;1;0;2;
1510748167.356634;1510748167.356634;1510748167.35674;57.77332413571359;12.76724984617947;229.3406579595041;-2.349359;7.755827;-0.1162836;-1.59433378478163;-3.436657261872422;286.5507290134939;72.89312148640295;106.8524;8.103848;-0.0554615;-0.06626909;0.206152;0.06183217;0.2164399;-0.2872297;0;303385.0058779985;10734.63967074523;-0.001;1;0;2;
1510748167.367097;1510748167.367097;1510748167.367198;57.77332371444115;12.76725246290212;229.3430746470667;-2.346756;7.753859;-0.122271;-1.598835675253226;-3.442130387783877;286.5528910640206;72.89320679798686;106.8388;8.101209;-0.3074816;-0.4293397;0.1822253;0.1882415;0.07130817;-0.03221721;0;303385.0258779934;10734.65967074015;-0.001;1;0;2;
1510748167.372684;1510748167.372684;1510748167.372792;57.77332329357649;12.76725507886551;229.3455278805908;-2.344607;7.751606;-0.1220715;-1.604313834947847;-3.448373181478119;286.5561845666682;72.89329211020615;106.8288;8.098431;-0.1235855;-0.2852875;0.08636965;0.2331137;-0.08637457;-0.05350499;0;303385.0458779883;10734.67967073506;-0.001;1;0;2;
1510748167.389216;1510748167.389216;1510748167.389327;57.7733228726613;12.76725769385507;229.3480402843195;-2.346739;7.748579;-0.1236551;-1.615015148169741;-3.456939632035639;286.561698177511;72.89337742331867;106.8495;8.096151;-0.3966328;-0.341919;0.4271404;-0.000877462;0.08776524;-0.06671183;0;303385.0658779832;10734.69967072997;-0.001;1;0;2;
1510748167.458464;1510748167.458464;1510748167.458572;57.77332203091077;12.76726292086815;229.3530147758876;-2.344486;7.743678;-0.1216541;-1.623323630636505;-3.469086667927553;286.5723840387939;72.89354805166813;106.8443;8.090808;-0.1982981;-0.2325537;0.5040421;0.07963785;0.399075;0.06280129;0;303385.105878973;10734.73967171979;-0.001;1;0;2;
1510748167.538434;1510748167.538434;1510748167.53854;57.77332118953382;12.76726814462181;229.3579081838296;-2.343927;7.738511;-0.1198328;-1.631836352809579;-3.477159357037898;286.5811413202577;72.89371868270101;106.8511;8.085699;0.04458927;-0.1380623;0.1741914;0.07361265;0.1819259;0.04229097;0;303385.1458789629;10734.77967170961;-0.001;1;0;2;
1510748167.618417;1510748167.618417;1510748167.618525;57.77332034738637;12.76727336455634;229.3627372573096;-2.344317;7.7327;-0.1171649;-1.614903966668381;-3.487868823046448;286.5870378441365;72.89388931682478;106.8657;8.080252;0.6266896;-0.2926102;0.0914344;0.2063118;0.2515533;0.03080184;0;303385.1858789527;10734.81967169943;-0.001;1;0;2;
1510748167.698826;1510748167.698826;1510748167.698935;57.77331950674717;12.76727858086018;229.3673895879214;-2.342524;7.727298;-0.11466;-1.605108444362512;-3.496627634315649;286.5902128302933;72.89405995417412;106.8646;8.074562;0.1222829;-0.2710892;0.2948113;0.0411067;-0.07435407;-0.03535849;0;303385.2258799425;10734.85967268926;-0.001;1;0;2;
1510748167.763597;1510748167.763597;1510748167.763714;57.7733182472711;12.76728639927081;229.3738691472772;-2.339808;7.718897;-0.102622;-1.590310498408138;-3.494052134151268;286.5918265131203;72.89431591481656;106.8635;8.065734;0.5568122;0.2567756;0.07646992;0.15788;-0.07396061;-0.1909883;0;303385.2858799272;10734.91967267399;-0.001;1;0;2;
1510748167.76988;1510748167.76988;1510748167.769983;57.7733174087893;12.76729160610008;229.378127650612;-2.33701;7.712224;-0.1019389;-1.579809465139596;-3.483897083692947;286.5905299439868;72.89448655960764;106.8582;8.058536;0.6343325;0.5982348;0.09986974;0.1447992;-0.07149406;0.0584988;0;303385.3258799171;10734.95967266381;-0.001;1;0;2;
1510748167.777622;1510748167.777622;1510748167.777717;57.77331657111576;12.76729680874317;229.3823272218476;-2.334014;7.707056;-0.1077588;-1.570906301336827;-3.460486645617004;286.5891527484257;72.89465720742533;106.8485;8.052722;0.2639726;0.5868681;-0.04280736;0.1532262;-0.2028297;-0.4147705;0;303385.3658809069;10734.99967365363;-0.001;1;0;2;
1510748167.79667;1510748167.79667;1510748167.79678;57.77331573373937;12.76730200647405;229.3868722386467;-2.332771;7.698081;-0.1149581;-1.573064565352767;-3.437388168792725;286.5903627853641;72.8948278594543;106.8585;8.043773;0.06844442;0.8572229;0.07602338;0.3481684;-0.1643319;-0.3822972;0;303385.4058808967;10735.03967364345;-0.001;1;0;2;
1510748167.806217;1510748167.806217;1510748167.806323;57.77331489669282;12.7673071994714;229.3917226843847;-2.330068;7.693528;-0.1213723;-1.566420875243731;-3.413925467596906;286.5865040417265;72.89499851557673;106.8495;8.03863;-0.4198068;0.5353256;-0.1885902;0.4009768;-0.01575033;0.03914874;0;303385.4458808865;10735.07967363328;-0.001;1;0;2;
1510748167.82656;1510748167.82656;1510748167.826669;57.77331405975554;12.76731238931182;229.3966972230824;-2.330711;7.689415;-0.1240421;-1.561539778132742;-3.401922556558954;286.5848573731834;72.89516917476215;106.8624;8.034881;-0.0425048;0.1588711;-0.05395711;0.1303462;-0.1204411;0.1665271;0;303385.4858818763;10735.1196746231;-0.001;1;0;2;
1510748167.848636;1510748167.848636;1510748167.848741;57.77331322320043;12.76731757518954;229.4018300203979;-2.329422;7.683457;-0.1312546;-1.544998937744209;-3.402392863893168;286.5828720118421;72.89533983765295;106.8659;8.028806;0.2455543;-0.3153746;-0.09597705;0.05171782;-0.09970618;0.1199158;0;303385.5258818662;10735.15967461292;-0.001;1;0;2;
1510748167.930458;1510748167.930458;1510748167.930569;57.77331238796574;12.7673227577379;229.4069604458345;-2.321871;7.678099;-0.1289515;-1.532209408868577;-3.406764502923656;286.5826424086862;72.89551050349461;106.8254;8.021489;-0.127703;-0.1026697;-0.04711479;0.1915932;0.1131985;-0.1666859;0;303385.565881856;10735.19967460274;-0.001;1;0;2;
1510748168.009224;1510748168.009224;1510748168.009326;57.77331155449955;12.76732793707122;229.4122673262237;-2.318279;7.675504;-0.128668;-1.544706374408226;-3.423511091114506;286.5850386523502;72.89568117281998;106.8062;8.017966;-0.3668767;-0.4688234;-0.0894108;0.1044654;0.04351879;0.3617505;0;303385.6058818458;10735.23967459256;-0.001;1;0;2;
1510748168.068391;1510748168.068391;1510748168.068496;57.77331072142321;12.7673331132751;229.4173512039962;-2.320462;7.669101;-0.1227373;-1.558705377042719;-3.447160207171621;286.5856865240136;72.89585184517917;106.8344;8.012469;-0.2889304;-0.7004815;-0.02155029;0.0914521;0.06074001;0.2434107;0;303385.6458828356;10735.27967558239;-0.001;1;0;2;
1510748168.115535;1510748168.115535;1510748168.115676;57.77330988843926;12.76733828567007;229.4221731395122;-2.321493;7.66318;-0.1169366;-1.562230581995022;-3.474552340406682;286.5804594535991;72.89602252103035;106.8537;8.007101;0.1069494;-0.7494008;-0.08584739;0.04529586;0.002148211;0.1459788;0;303385.6858828255;10735.31967557221;-0.001;1;0;2;
1510748168.176839;1510748168.176839;1510748168.176944;57.77330905555357;12.76734345436347;229.4267678828688;-2.317608;7.657825;-0.1107813;-1.560596672685189;-3.501716297907318;286.5728280150832;72.89619320003683;106.8382;8.000849;0.2675967;-0.5683811;-0.3497963;0.2511297;0.02392455;-0.1781443;0;303385.7258828153;10735.35967556203;-0.001;1;0;2;
1510748168.189314;1510748168.189314;1510748168.189413;57.77330822440533;12.76734861841684;229.431236366547;-2.311262;7.650397;-0.1114383;-1.557169631740996;-3.520975717576722;286.5639845832137;72.89636388267424;106.8101;7.991902;-0.02920423;-0.4310778;-0.2648381;0.1785735;0.09617444;-0.03521626;0;303385.7658838051;10735.39967655185;-0.001;1;0;2;
1510748168.201209;1510748168.201209;1510748168.201762;57.77330739561485;12.76735377843319;229.435626857477;-2.303754;7.646702;-0.1059673;-1.56034611062458;-3.529666230770173;286.5549823072585;72.89653456840159;106.7662;7.986196;-0.1503147;-0.01186944;-0.3514347;-0.02912337;0.1710726;-0.0235612;0;303385.8058837949;10735.43967654167;-0.001;1;0;2;
1510748168.22597;1510748168.22597;1510748168.226073;57.77330656881749;12.76735893438875;229.4398273863677;-2.29854;7.639329;-0.107884;-1.564034898592421;-3.524523437809885;286.546273265309;72.8967052569943;106.7456;7.977633;-0.5717005;0.04893241;-0.2382418;-0.1140502;0.1262718;-0.3043078;0;303385.8458837848;10735.47967653149;-0.001;1;0;2;
1510748168.239761;1510748168.239761;1510748168.239833;57.77330574402753;12.76736408533932;229.4441395160439;-2.296431;7.631663;-0.1045812;-1.574706085935963;-3.505410914667595;286.5373698746164;72.89687594936431;106.747;7.969685;0.01159044;0.8157637;-0.1262182;0.000604855;0.1283085;0.05518344;0;303385.8858837746;10735.51967652132;-0.001;1;0;2;
1510748168.25505;1510748168.25505;1510748168.255159;57.77330492069211;12.76736923174022;229.4485871116578;-2.29214;7.62463;-0.1116255;-1.581542752949862;-3.478302699346371;286.5223096662778;72.89704664548525;106.732;7.961714;-0.1564816;0.6844075;-0.3517454;0.3703625;0.1232789;0.01675189;0;303385.9258847644;10735.55967751114;-0.001;1;0;2;
1510748168.272544;1510748168.272544;1510748168.272654;57.77330409836247;12.76737437341883;229.4533814407108;-2.288731;7.61758;-0.1236823;-1.588452958690278;-3.454166399349265;286.5057595946105;72.89721734579024;106.7231;7.953981;-0.4819785;0.6275929;-0.4073569;0.3516834;-0.02316574;-0.256061;0;303385.9658847542;10735.59967750096;-0.001;1;0;2;
1510748168.555601;1510748168.555601;1510748168.555704;57.77330161783869;12.76738976893926;229.4685330057725;-2.278562;7.602753;-0.12211;-1.628541488483912;-3.389812769243698;286.4508436478641;72.89500691387993;106.6836;7.936857;-0.5802934;0.3859259;-0.3576004;0.191294;0.1799224;0.2833863;0;303386.0858849781;10735.71967847043;-0.001;1;0;2;
1510748168.635513;1510748168.635513;1510748168.635785;57.77330079231215;12.76739489360626;229.4731969650719;-2.277632;7.596465;-0.1135437;-1.628310187918707;-3.367885424237394;286.4333827031604;72.89403128858757;106.6902;7.930567;0.7073547;0.6735491;-0.4489758;0.07962929;-0.0578408;-0.1484043;0;303386.125884968;10735.75967846025;-0.001;1;0;2;
1510748168.644537;1510748168.644537;1510748168.644676;57.77329996881688;12.76740001547045;229.4778711300918;-2.268658;7.594534;-0.116679;-1.623143828020366;-3.35756797899199;286.4146942676794;72.8930556661265;106.6321;7.926144;-0.3709476;-0.009654081;-0.4112063;0.265961;0.01761957;0.3217691;0;303386.1658849578;10735.79967845007;-0.001;1;0;2;
1510748168.662978;1510748168.662978;1510748168.663119;57.77329914775503;12.76740513546582;229.4822770321032;-2.264649;7.589804;-0.1071607;-1.629923838514009;-3.356118840195905;286.398687033226;72.8920800456641;106.6141;7.920465;-0.3360426;-0.04218707;-0.2801144;0.2253254;-0.0398894;0.08409728;0;303386.2058859476;10735.83967943989;-0.001;1;0;2;
1510748168.674459;1510748168.674459;1510748168.674568;57.77329832849037;12.76741025317989;229.4864360262877;-2.258732;7.588145;-0.1056536;-1.644600838027658;-3.361177989799748;286.383493946509;72.8911044274785;106.5765;7.917184;-0.7579891;-0.423169;-0.4056495;0.01666532;0.04843008;0.02593806;0;303386.2458859374;10735.87967942971;-0.001;1;0;2;
1510748168.680008;1510748168.680008;1510748168.680112;57.773297919275;12.76741281127245;229.4884449014938;-2.258912;7.585116;-0.09716042;-1.64670270161041;-3.365328030351084;286.3740876650619;72.89061661910485;106.584;7.914333;0.2774453;0.01050052;-0.4615702;0.262127;-0.1614276;-0.06917872;0;303386.2658859324;10735.89967942462;-0.001;1;0;2;
1510748168.690202;1510748168.690202;1510748168.690263;57.77329710096139;12.76741792346674;229.4925435301065;-2.256098;7.577523;-0.1057429;-1.644827556140049;-3.374440544505919;286.3582518345878;72.88964100553852;106.5801;7.906252;0.328279;-0.2400071;-0.5346105;0.1050239;-0.2724805;-0.2433984;0;303386.3058859222;10735.93967941445;-0.001;1;0;2;
1510748168.700337;1510748168.700337;1510748168.700402;57.77329628378693;12.76742303115883;229.4967490994592;-2.250711;7.574428;-0.1030358;-1.636755022175195;-3.37963320252386;286.343292738751;72.88866539548623;106.5491;7.90175;0.03447994;-0.05675252;-0.4131435;0.03952824;0.3619455;0.1900621;0;303386.345886912;10735.97968040427;-0.001;1;0;2;
1510748168.739568;1510748168.739568;1510748168.739686;57.77329506177555;12.76743068698624;229.5028117956998;-2.243402;7.565729;-0.09959552;-1.640473100423903;-3.368030000208023;286.3211243039299;72.88720198466022;106.5162;7.891331;-0.5434028;0.2111153;-0.3150652;0.1191032;0.3132619;-0.1408611;0;303386.4058868967;10736.039680389;-0.001;1;0;2;
1510748168.818542;1510748168.818542;1510748168.818715;57.77329424910609;12.76743578652235;229.5066089046508;-2.242571;7.559756;-0.0957097;-1.644723260327485;-3.349757125842449;286.3048849398725;72.88622638077898;106.5228;7.885369;0.02370809;0.492562;-0.4810164;0.1207393;-0.2857179;-0.3136982;0;303386.4458868866;10736.07968037882;-0.001;1;0;2;
