SampleTimeStamp;SentTimeStamp;ReceivedTimeStamp;lat;lon;alt;vel_north;vel_east;vel_down;roll;pitch;heading;wander;track;speed;arate_lon;arate_trans;arate_down;accel_lon;accel_trans;accel_down;alignment;timeDistance.time1;timeDistance.time2;timeDistance.distanceTag;timeDistance.time1Type;timeDistance.time2Type;timeDistance.distanceType;
1510740250.240512;1510740250.240512;1510740250.240641;57.77341269697401;12.76666107215156;229.2449181883658;-0.6686373;2.325314;-0.04616706;-1.536213897351267;-4.077205357466765;285.6345941556912;74.23710623756664;106.0424;2.419538;-0.1222499;0.08562229;0.1541974;-0.5269737;0.02246488;0.1020347;0;295468.4136749413;2818.047035060747;-0.001;1;0;2;
1510740250.287508;1510740250.287508;1510740250.287576;57.77341258069143;12.76666183385508;229.2457531054879;-0.6700648;2.337719;-0.04598799;-1.545367764215541;-4.075690331524751;285.6358597464027;74.23705424969313;105.994;2.431855;-0.366054;-0.01198699;0.09189387;-0.5435541;0.05823239;0.1577665;0;295468.4336749385;2818.067035057908;-0.001;1;0;2;
1510740250.367314;1510740250.367314;1510740250.367396;57.77341234639736;12.76666336856002;229.2473943534624;-0.6755689;2.360309;-0.04602743;-1.560734510944083;-4.074265383584262;285.6395417089286;74.23695026435924;105.9722;2.455087;-0.5221616;-0.09229341;0.0526115;-0.6387501;-0.02496203;0.07032436;0;295468.4736759327;2818.107036052229;-0.001;1;0;2;
1510740250.447247;1510740250.447247;1510740250.447349;57.77341210965256;12.76666491818158;229.2490086257651;-0.6834583;2.380991;-0.04357607;-1.574262361836724;-4.074217319573963;285.6445748792879;74.23684626637505;106.016;2.477142;-0.07733083;-0.01214958;0.1103418;-0.5746353;0.03258244;0.1697171;0;295468.5136759271;2818.147036046551;-0.001;1;0;2;
1510740250.527349;1510740250.527349;1510740250.527466;57.77341187082723;12.76666648220315;229.2506086812674;-0.6900172;2.401892;-0.04483763;-1.586224691865578;-4.071615332860155;285.6489654879634;74.23674225611505;106.0283;2.499042;-0.2340343;0.1110579;0.2200279;-0.546345;0.1213646;-0.04812959;0;295468.5536759214;2818.187036040873;-0.001;1;0;2;
1510740250.607332;1510740250.607332;1510740250.607473;57.77341163020967;12.76666805981266;229.2523235166772;-0.6921998;2.421993;-0.0497784;-1.597442160379836;-4.065990596575157;285.6517664164431;74.2366382343013;105.9498;2.518966;-0.384172;0.123685;-0.008535768;-0.5412601;-0.03205602;-0.1137395;0;295468.5936759157;2818.227036035195;-0.001;1;0;2;
1510740250.687314;1510740250.687314;1510740250.687432;57.77341138749963;12.76666965102672;229.2542404253478;-0.6970685;2.442105;-0.05583009;-1.612378429455956;-4.058081059685033;285.6563257532975;74.2365342008634;105.9307;2.539641;-0.3120491;0.1378818;-0.07903281;-0.4264331;0.02439575;-0.183714;0;295468.63367691;2818.267037029517;-0.001;1;0;2;
1510740250.767307;1510740250.767307;1510740250.767412;57.77341114254868;12.76667125584848;229.2563172787882;-0.7061962;2.461839;-0.0579868;-1.625803226197284;-4.049080036225443;285.661538067715;74.23643015582063;106.0059;2.561126;-0.4063926;0.1746761;0.1622151;-0.5587621;0.01137554;-0.008493513;0;295468.6736769043;2818.307037023839;-0.001;1;0;2;
1510740250.838118;1510740250.838118;1510740250.838234;57.77341089506638;12.76667287392073;229.2585170117213;-0.7127768;2.481958;-0.05983882;-1.62911796956957;-4.042025694503894;285.6644689705306;74.23632609960327;106.0232;2.58228;0.1715581;0.1016811;0.04279957;-0.6405316;0.007129247;0.08924023;0;295468.7136768987;2818.347037018161;-0.001;1;0;2;
1510740250.887509;1510740250.887509;1510740250.887632;57.77341064557906;12.76667450511625;229.2607363647539;-0.7158928;2.500188;-0.05932141;-1.623780636912088;-4.034271190262692;285.6673428450133;74.23622203213655;105.9783;2.600662;0.09584729;0.1711349;0.09338024;-0.5107363;0.1067168;0.1002993;0;295468.753676893;2818.387037012483;-0.001;1;0;2;
1510740250.967515;1510740250.967515;1510740250.967692;57.77341039502165;12.76667614892005;229.2629060800435;-0.7174345;2.518951;-0.05972656;-1.616310657444781;-4.02329124621212;285.6702886789305;74.23611795384288;105.8977;2.619127;-0.1805586;0.1425334;-0.005775096;-0.4752732;0.1551045;0.07284239;0;295468.7936778874;2818.427038006805;-0.001;1;0;2;
1510740251.037326;1510740251.037326;1510740251.037443;57.77341014358616;12.76667780446742;229.26497746948;-0.723787;2.534174;-0.05666904;-1.610889810695069;-4.00624127148681;285.6720713241053;74.23601386545498;105.9399;2.635509;0.08561239;0.3367194;0.1582964;-0.5105602;-0.01694776;0.06125202;0;295468.8336778816;2818.467038001127;-0.001;1;0;2;
1510740251.110635;1510740251.110635;1510740251.110754;57.7734098904703;12.76667947181032;229.2669327971036;-0.7263818;2.553416;-0.05302158;-1.611318429813944;-3.984764598038255;285.6746369926005;74.23590976696065;105.8797;2.654724;-0.2740101;0.4117879;-0.001466522;-0.4554337;0.1135865;0.1893002;0;295468.873677876;2818.507037995449;-0.001;1;0;2;
1510740251.118312;1510740251.118312;1510740251.118422;57.77340963531207;12.76668115087335;229.2686706700285;-0.7349874;2.56927;-0.04566047;-1.609842765503509;-3.957808755129776;285.6759363545141;74.23580565836221;105.9642;2.672331;-0.02964635;0.6491287;0.1466078;-0.4411677;-0.04844036;0.1592086;0;295468.9136778703;2818.547037989771;-0.001;1;0;2;
1510740251.128267;1510740251.128267;1510740251.128331;57.77340937762624;12.76668284130931;229.2703106857404;-0.74093;2.5862;-0.04417938;-1.609714676307016;-3.935221685732793;285.6778237463631;74.23570154030753;105.9867;2.690243;-0.06049576;0.5066462;0.07703954;-0.4563992;-0.01729745;0.1377822;0;295468.9536788646;2818.587038984093;-0.001;1;0;2;
1510740251.133689;1510740251.133689;1510740251.133749;57.77340924776323;12.76668369111876;229.2711244990591;-0.7466685;2.595699;-0.04432604;-1.606415505206716;-3.927451018491812;285.6782538048759;74.23564947751258;106.0482;2.700957;0.3958396;0.3159896;0.1015047;-0.4783695;-0.06728625;0.09968852;0;295468.9736788618;2818.607038981254;-0.001;1;0;2;
1510740251.148679;1510740251.148679;1510740251.152519;57.77340885522443;12.76668625804619;229.2735818054221;-0.7514406;2.620948;-0.04580396;-1.597508524912386;-3.917401766161027;285.6804698438539;74.23559626344984;105.9979;2.726542;-0.1528579;0.01543812;0.02103849;-0.3320174;-0.006097999;0.003049858;0;295469.0336779952;2818.667038972724;-0.001;1;0;2;
1510740251.165115;1510740251.165115;1510740251.165217;57.77340859233785;12.76668798192519;229.2753717660124;-0.7539483;2.636155;-0.05010876;-1.602261280013034;-3.915192876213513;285.6822826986461;74.23559510661086;105.9607;2.741852;-0.2430756;0.01588463;0.02935761;-0.366299;0.06167712;0.02055138;0;295469.0736779895;2818.707038967032;-0.001;1;0;2;
1510740251.20045;1510740251.20045;1510740251.200561;57.77340832783536;12.76668971556105;229.2773666949347;-0.7601544;2.648999;-0.05487724;-1.600440056045549;-3.912765135984264;285.6847590334737;74.23559394138668;106.0113;2.755908;0.2532752;0.1148912;0.06166082;-0.3262095;-0.008924384;-0.1242705;0;295469.1136789838;2818.747039961339;-0.001;1;0;2;
1510740251.280739;1510740251.280739;1510740251.280842;57.77340806204199;12.76669145814896;229.2795116568251;-0.7593949;2.663715;-0.05791086;-1.586248501634898;-3.907729773065836;285.6845971921169;74.2355927684273;105.9122;2.769848;0.288947;0.1483754;-0.2132998;-0.3872665;0.08213705;0.04383473;0;295469.1536789782;2818.787039955646;-0.001;1;0;2;
1510740251.360303;1510740251.360303;1510740251.360413;57.77340779554376;12.76669321037396;229.2817072789456;-0.7629048;2.676825;-0.05882697;-1.570668937612213;-3.899108978355424;285.6851504520292;74.23559158712095;105.9077;2.783418;0.01256441;0.2159736;0.08194456;-0.3226474;0.1937992;0.0441496;0;295469.1936789724;2818.827039949954;-0.001;1;0;2;
1510740251.497459;1510740251.497459;1510740251.497568;57.77340739470367;12.76669585739624;229.2849422658551;-0.7686951;2.698848;-0.05414841;-1.554131913928716;-3.877898852528368;285.689717979356;74.23558979895533;105.8982;2.806185;0.1038577;0.4843122;0.322655;-0.3722804;0.0709222;0.07107737;0;295469.2536799639;2818.887040941415;-0.001;1;0;2;
1510740251.572254;1510740251.572254;1510740251.572359;57.77340712580405;12.76669763521814;229.2869370436778;-0.7732083;2.714826;-0.05025157;-1.547456005039464;-3.860801275540541;285.6933732219027;74.23558859564436;105.8975;2.822788;0.2727521;0.4501987;0.0897603;-0.3855257;-0.1002277;0.1397913;0;295469.2936799582;2818.927040935722;-0.001;1;0;2;
1510740251.586398;1510740251.586398;1510740251.586812;57.77340685438504;12.76669942348468;229.2887590940819;-0.7793038;2.730711;-0.04786108;-1.539945456466763;-3.84690213260362;285.6961608338248;74.23558738365169;105.9279;2.839735;0.1833242;0.2292103;-0.07326812;-0.4096133;-0.1096778;0.05766441;0;295469.3336799525;2818.96704093003;-0.001;1;0;2;
1510740251.603644;1510740251.603644;1510740251.60376;57.77340644250369;12.76670212521965;229.2912222927457;-0.7892301;2.752107;-0.04342837;-1.53473718972312;-3.831955269984021;285.6969510679604;74.23558554977822;106.0015;2.863037;0.04555056;0.2780949;-0.1198836;-0.3407454;-0.1436592;-0.1488643;0;295469.393679944;2819.027040921491;-0.001;1;0;2;
1510740251.618935;1510740251.618935;1510740251.619037;57.77340602541948;12.76670484853288;229.2938378034884;-0.8012421;2.772738;-0.04883354;-1.551392452119032;-3.825555353022014;285.6996971149437;74.23558369821629;106.1178;2.886185;-0.2281849;0.07264355;0.09717403;-0.2946185;-0.1644767;-0.147473;0;295469.4536809354;2819.087041912952;-0.001;1;0;2;
1510740251.627147;1510740251.627147;1510740251.627321;57.77340574466874;12.76670667613566;229.2958199939516;-0.8061608;2.786903;-0.05366039;-1.573250832059652;-3.829862256598953;285.7024425987456;74.23558245409461;106.1334;2.901159;-0.6167285;-0.02842709;0.09664612;-0.3811012;-0.1671243;-0.08069385;0;295469.4936809298;2819.127041907259;-0.001;1;0;2;
1510740251.635251;1510740251.635251;1510740251.635414;57.77340546172717;12.76670851346633;229.2979668895454;-0.8128927;2.801647;-0.06033033;-1.596405148934135;-3.835648729706122;285.7048007134001;74.2355812018385;106.18;2.917194;-0.6111363;-0.2660217;0.1375657;-0.3986292;-0.0609376;-0.1085025;0;295469.533680924;2819.167041901567;-0.001;1;0;2;
1510740251.687483;1510740251.687483;1510740251.687587;57.77340517629883;12.76671036023756;229.3001948055775;-0.8170714;2.816268;-0.05844703;-1.611953647739973;-3.837237715373923;285.7108738225796;74.235579941155;106.1788;2.9324;-0.3618894;0.04260524;0.1237454;-0.4014138;-0.03733516;0.0101984;0;295469.5736819184;2819.207042895874;-0.001;1;0;2;
1510740251.767476;1510740251.767476;1510740251.76757;57.77340488988175;12.76671221769053;229.3023641095935;-0.8180308;2.832514;-0.05236859;-1.626774090759249;-3.834467408663567;285.7169790751728;74.23557867124912;106.1087;2.948272;-0.1643578;0.3374583;0.0910634;-0.4778476;-0.0009149853;0.1150253;0;295469.6136819127;2819.247042890182;-0.001;1;0;2;
1510740251.838392;1510740251.838392;1510740251.838494;57.77340460265572;12.76671408675876;229.3042497463574;-0.8217844;2.849262;-0.04565405;-1.634613627607853;-3.822018005123323;285.7235583648969;74.23557739100924;106.0886;2.965404;-0.08459195;0.468802;0.2610588;-0.392891;0.1421432;0.09976748;0;295469.653681907;2819.287042884489;-0.001;1;0;2;
1510740251.887349;1510740251.887349;1510740251.887417;57.77340431489979;12.76671596711673;229.3058529446253;-0.8240368;2.866776;-0.03985111;-1.63798418766448;-3.804213614911815;285.7276380377036;74.23557610105129;106.037;2.982858;-0.01356977;0.4729155;0.1739465;-0.5126997;0.05197259;0.10373;0;295469.6936819013;2819.327042878796;-0.001;1;0;2;
1510740251.967433;1510740251.967433;1510740251.967533;57.7734040264011;12.76671785950772;229.3072342964248;-0.8273742;2.883245;-0.03431792;-1.646811222537534;-3.782638763440294;285.7278240171135;74.23557480101249;106.0113;2.999608;-0.242925;0.6654736;0.1778536;-0.4335922;-0.02499641;0.09425153;0;295469.7336828956;2819.367043873104;-0.001;1;0;2;
1510740252.007984;1510740252.007984;1510740252.008218;57.77340373588465;12.76671976286754;229.3084734675336;-0.831673;2.899591;-0.03248914;-1.651634722282276;-3.757654051801038;285.7280354001186;74.23557349149795;106.0042;3.016505;0.05913535;0.742295;-0.08918974;-0.4148861;-0.1131942;-0.1312848;0;295469.7736828899;2819.407043867411;-0.001;1;0;2;
1510740252.022306;1510740252.022306;1510740252.022413;57.77340344291494;12.76672167607166;229.309792523332;-0.8413056;2.913704;-0.03759833;-1.649630712960206;-3.733302189640479;285.7276012918038;74.23557217361096;106.1056;3.032733;0.2496415;0.5830363;0.1904925;-0.4869749;-0.07853506;-0.1732551;0;295469.8136828842;2819.447043861719;-0.001;1;0;2;
1510740252.033489;1510740252.033489;1510740252.033593;57.77340314744033;12.76672359936294;229.311316900039;-0.8442829;2.929273;-0.04455475;-1.636876629407844;-3.712370553480346;285.7292646645633;74.23557084708105;106.0782;3.048517;0.2207058;0.4135225;0.05278879;-0.4588735;0.05127854;-0.06215529;0;295469.8536828785;2819.487043856026;-0.001;1;0;2;
1510740252.054017;1510740252.054017;1510740252.057362;57.77340285085918;12.76672553391241;229.3130363660902;-0.8467087;2.945655;-0.04818808;-1.627417536859921;-3.697318775182188;285.7325722406251;74.23556951123768;106.0369;3.064931;-0.08477204;0.2261323;0.1950539;-0.3629106;0.1109201;0.02057312;0;295469.8936838728;2819.527044850333;-0.001;1;0;2;
1510740252.062729;1510740252.062729;1510740252.062839;57.77340255352765;12.76672747915575;229.314835812507;-0.8496089;2.961385;-0.04840579;-1.632982969326746;-3.686879152309602;285.7391335661113;74.23556816660285;106.008;3.080849;-0.3658074;0.1781412;0.2256265;-0.3331173;-0.02148252;-0.002482186;0;295469.9336838671;2819.567044844641;-0.001;1;0;2;
1510740252.087949;1510740252.087949;1510740252.088067;57.7734021046308;12.76673041473048;229.3175775708173;-0.858502;2.978367;-0.0472948;-1.659456042447566;-3.682722677219505;285.7496371051966;74.23556613536286;106.0794;3.099628;-0.4030043;0.1316729;0.2496438;-0.2558142;-0.0904489;-0.02852958;0;295469.9936838586;2819.627044836102;-0.001;1;0;2;
1510740252.096054;1510740252.096054;1510740252.096472;57.77340195415272;12.7667313966775;229.3185057917309;-0.8597672;2.983594;-0.04809663;-1.663089711313379;-3.680906930965993;285.7509397414295;74.2355664062009;106.0751;3.105001;-0.2692493;0.1080493;-0.04456244;-0.2784716;-0.1273053;-0.02932667;0;295470.0136839981;2819.647044833257;-0.001;1;0;2;
1510740252.188664;1510740252.188664;1510740252.189504;57.77340165128972;12.7667333641513;229.3203396370622;-0.8674513;2.990853;-0.04771619;-1.66863776917613;-3.673261927530036;285.7534244106575;74.23556694466205;106.174;3.114109;-0.133127;0.2028614;0.094482;-0.1842535;0.03839029;-0.0297456;0;295470.0536849924;2819.687045827568;-0.001;1;0;2;
1510740252.260398;1510740252.260398;1510740252.260511;57.77340134730906;12.76673533644072;229.3221270389971;-0.8674066;2.997263;-0.04468834;-1.68119347874667;-3.659566347810141;285.7582598772051;74.23556747879951;106.1404;3.120253;-0.5717137;0.4719319;0.1240918;-0.1303509;0.0936638;0.006259502;0;295470.0936849867;2819.727045821879;-0.001;1;0;2;
1510740252.340472;1510740252.340472;1510740252.340578;57.77340104320979;12.76673731293551;229.3237892541749;-0.8688539;3.001766;-0.04199553;-1.691271221783308;-3.63474118386905;285.7636689650367;74.23556800886644;106.143;3.124981;-0.06351575;0.7776486;0.1996984;-0.03631946;0.0771168;0.01521745;0;295470.133684981;2819.76704581619;-0.001;1;0;2;
1510740252.420427;1510740252.420427;1510740252.420532;57.77340073911801;12.76673929210272;229.3254224273721;-0.867714;3.004891;-0.04171533;-1.68335335118424;-3.602109291197094;285.7699129303086;74.23556853605976;106.107;3.127666;0.5420955;0.9628166;0.2192591;-0.04543525;0.1255165;-0.08862998;0;295470.1736849753;2819.807045810501;-0.001;1;0;2;
1510740252.432968;1510740252.432968;1510740252.433075;57.77340043614444;12.76674127355007;229.3271235648168;-0.8638414;3.00715;-0.04579806;-1.669782233749583;-3.566537935656426;285.7754712838143;74.23556906115103;106.0274;3.128766;0.3762226;0.9032875;0.2441715;-0.06230789;0.1050469;-0.08788461;0;295470.2136859696;2819.847046804812;-0.001;1;0;2;
1510740252.440767;1510740252.440767;1510740252.441032;57.77340028518655;12.76674226500193;229.3279993613213;-0.8630017;3.008943;-0.04369561;-1.664986915967742;-3.548455773545763;285.7780241862255;74.23556932310561;106.0035;3.130257;0.3077876;1.051718;0.2324719;-0.04448535;-0.03185743;-0.06247239;0;295470.2336859668;2819.867046801968;-0.001;1;0;2;
1510740252.451146;1510740252.451146;1510740252.451341;57.77339998352797;12.76674424882097;229.3298103344035;-0.8620334;3.009687;-0.04741746;-1.656471835290453;-3.516806880878668;285.7814093637853;74.23556984651437;105.9827;3.130705;0.133905;0.7856837;0.1184196;0.06665824;-0.1318762;-0.1132719;0;295470.2736859611;2819.907046796279;-0.001;1;0;2;
1510740252.474094;1510740252.474094;1510740252.474316;57.77339968102525;12.76674623250989;229.3317481484585;-0.8663558;3.007642;-0.05233029;-1.645358217977218;-3.495768871016211;285.7840562873253;74.23557037046118;106.0691;3.129933;0.08910999;0.3800666;0.2658413;0.07017599;-0.09089596;-0.1028391;0;295470.3136859554;2819.94704679059;-0.001;1;0;2;
1510740252.486897;1510740252.486897;1510740252.486962;57.77339937777909;12.76674821418591;229.3337763751351;-0.8677356;3.005614;-0.05461958;-1.630004725793708;-3.480558141141792;285.7848590643599;74.23557089637016;106.1037;3.128367;0.2723515;0.1634102;0.1230728;-0.0059696;-0.08500531;0.04589292;0;295470.3536859497;2819.987046784901;-0.001;1;0;2;
1510740252.49821;1510740252.49821;1510740252.499073;57.77339907416204;12.76675019380911;229.3358529008444;-0.8653116;2.999672;-0.05332538;-1.621018636519545;-3.47255000682774;285.7871243694178;74.23557142433654;106.0912;3.121986;0.02209556;0.1830519;0.0470076;0.1899664;-0.08984596;0.03020876;0;295470.393686944;2820.027047779212;-0.001;1;0;2;
1510740252.590435;1510740252.590435;1510740252.59054;57.77339861962244;12.76675315132802;229.3389990001864;-0.8653829;2.98105;-0.05665456;-1.631869770739045;-3.460445650200523;285.7956752862862;74.23557222648014;106.1877;3.104117;-0.3049712;0.1455917;0.3354786;0.3074349;-0.07620612;-0.09017803;0;295470.4536869355;2820.087047770679;-0.001;1;0;2;
1510740252.670521;1510740252.670521;1510740252.670953;57.77339831719612;12.76675511261247;229.341104757216;-0.8630689;2.96976;-0.05251505;-1.646399318311797;-3.447039984422075;285.8024703908057;74.23557276987182;106.2049;3.09263;-0.2340976;0.4399523;0.190463;0.2562819;-0.1059096;-0.0173777;0;295470.4936869298;2820.12704776499;-0.001;1;0;2;
1510740252.750549;1510740252.750549;1510740252.75066;57.77339801520476;12.76675706515822;229.3431042404037;-0.8613564;2.954675;-0.04965096;-1.652345318754599;-3.428653247630491;285.8065804089147;74.23557332044743;106.2526;3.077668;-0.4092054;0.5174043;0.2953822;0.3221235;-0.0008474082;0.05435693;0;295470.5336879241;2820.167048759301;-0.001;1;0;2;
1510740252.830559;1510740252.830559;1510740252.83075;57.77339771453042;12.76675900911541;229.3449160619344;-0.8556176;2.943761;-0.04640744;-1.659307278719521;-3.406559443113838;285.8101769075948;74.23557387817227;106.2067;3.065585;-0.4852725;0.4374768;0.1717839;0.296664;0.05889461;0.1866102;0;295470.5736879184;2820.207048753612;-0.001;1;0;2;
1510740252.858764;1510740252.858764;1510740252.858906;57.77339741590879;12.76676094476878;229.3466078851098;-0.8477998;2.931073;-0.04322765;-1.671132178741183;-3.387954572538935;285.8142348614105;74.23557444311342;106.1323;3.051221;-0.2687886;0.2973084;0.03057274;0.3328658;0.1724356;0.1878802;0;295470.6136879127;2820.247048747923;-0.001;1;0;2;
1510740252.87068;1510740252.87068;1510740252.870787;57.7733971193696;12.76676287220947;229.348164871075;-0.8432027;2.919787;-0.0396378;-1.678716911100545;-3.376488665486521;285.8200305977472;74.23557501515788;106.1081;3.039103;0.01598061;0.09641852;0.06506424;0.2873601;0.03553744;0.1694701;0;295470.653687907;2820.287048742234;-0.001;1;0;2;
1510740252.87708;1510740252.87708;1510740252.877187;57.77339682468337;12.76676479086233;229.3495675776179;-0.8352733;2.901923;-0.03497384;-1.67590140365405;-3.372411680064845;285.8261374295295;74.23557559477872;106.0576;3.019742;0.2653302;0.06555956;-0.05752514;0.5908328;0.06381155;0.05791905;0;295470.6936889014;2820.327049736545;-0.001;1;0;2;
1510740252.882445;1510740252.882445;1510740252.882554;57.77339653209223;12.76676669693921;229.3509001028283;-0.8327363;2.884303;-0.03241276;-1.663340585204885;-3.37448703455486;285.8303265566873;74.2355761852383;106.1041;3.002108;0.532396;-0.03399618;0.15385;0.3971567;0.09794658;0.1540867;0;295470.7336888956;2820.367049730856;-0.001;1;0;2;
1510740252.889102;1510740252.889102;1510740252.88921;57.77339624156865;12.76676859144871;229.3520060081362;-0.8238457;2.864915;-0.02727442;-1.635882129627045;-3.372357791939347;285.8324212944511;74.23557678518945;106.0433;2.981016;0.7902828;0.1016585;-0.08389097;0.5972763;0.02140056;-0.04082202;0;295470.77368889;2820.407049725167;-0.001;1;0;2;
1510740252.894864;1510740252.894864;1510740252.895092;57.77339595390188;12.76677047108322;229.3530908920425;-0.8192849;2.839648;-0.02883852;-1.609985871108418;-3.369870955020389;285.8347194804194;74.23557739772237;106.0937;2.955474;1.024541;0.1289329;0.1726449;0.6083006;-0.006131095;-0.07333498;0;295470.8136888843;2820.447049719478;-0.001;1;0;2;
1510740252.902587;1510740252.902587;1510740252.902758;57.77339566895912;12.76677233526109;229.3542294915524;-0.8141533;2.81722;-0.03135149;-1.581949879410194;-3.366217423045795;285.8356917426551;74.23557802331092;106.1189;2.932503;0.7419708;0.07686479;0.3108085;0.5822027;-0.02225323;-0.1367022;0;295470.8536898786;2820.487050713789;-0.001;1;0;2;
1510740252.9604;1510740252.9604;1510740252.96051;57.77339538643939;12.76677418409582;229.3553917337896;-0.8016089;2.794635;-0.03186609;-1.56111555066816;-3.3589095285907;285.8375546077608;74.23557866179111;106.0049;2.907329;0.5918445;0.197886;-0.1341133;0.6713829;-0.1077101;-0.1739187;0;295470.8936898729;2820.5270507081;-0.001;1;0;2;
1510740253.034166;1510740253.034166;1510740253.035888;57.77339510626989;12.76677601565864;229.3566436589325;-0.7996438;2.766477;-0.03380011;-1.556472423216149;-3.352751285234055;285.8417673711042;74.23557931505674;106.1218;2.879726;-0.1815078;0.1817752;0.2728341;0.6840137;-0.2741554;-0.09385896;0;295470.9336898672;2820.567050702411;-0.001;1;0;2;
1510740253.150788;1510740253.150788;1510740253.150904;57.77339468817696;12.76677872979521;229.3585803087145;-0.7955677;2.727467;-0.03544033;-1.570710542511866;-3.335686756306699;285.8487038398166;74.23558032299904;106.2613;2.841128;-0.1955694;0.2862243;0.1461072;0.6582356;-0.09682933;-0.06927487;0;295470.9936898587;2820.627050693878;-0.001;1;0;2;
1510740253.188025;1510740253.188025;1510740253.188133;57.77339454938571;12.76677962551223;229.3592993176549;-0.793945;2.712377;-0.03664258;-1.576249728773704;-3.331045529394343;285.8509933830794;74.23558122511935;106.3154;2.826188;-0.2061327;0.2904439;0.1364414;0.7380149;-0.1213698;-0.1292338;0;295471.013689998;2820.647051691028;-0.001;1;0;2;
1510740253.300451;1510740253.300451;1510740253.300554;57.77339441099966;12.76678051589544;229.3600197459883;-0.7915254;2.697339;-0.03671475;-1.58189495784154;-3.324520069323859;285.8532473669065;74.23558213167298;106.3542;2.811076;-0.2404188;0.3646758;0.1602073;0.7234836;-0.05930825;-0.02817215;0;295471.0336899952;2820.667051688176;-0.001;1;0;2;
1510740253.308215;1510740253.308215;1510740253.308323;57.77339413577698;12.76678228374891;229.361517793881;-0.7851563;2.672963;-0.04011096;-1.595718477718898;-3.312450802796284;285.8559845166115;74.23558395585994;106.3696;2.785894;-0.5579399;0.1774221;0.1601609;0.6842374;0.1034943;0.02964412;0;295471.0736899895;2820.707051682472;-0.001;1;0;2;
1510740253.316349;1510740253.316349;1510740253.316451;57.77339386277792;12.76678403489333;229.3630682014071;-0.7754992;2.648029;-0.03753754;-1.613371344521384;-3.308230891059571;285.8618937405508;74.2355857944203;106.3231;2.759249;-0.6103887;0.1550188;0.09546215;0.6789807;0.09256312;0.03842741;0;295471.1136899838;2820.747051676769;-0.001;1;0;2;
1510740253.321654;1510740253.321654;1510740253.321763;57.77339359322841;12.76678576932644;229.3646056327551;-0.7702718;2.623251;-0.03892234;-1.627575377581852;-3.313154135311656;285.8678632897388;74.23558764744482;106.364;2.734002;-0.1579719;-0.2725554;0.3794525;0.5538972;0.06477428;0.05212355;0;295471.1536899781;2820.787051671065;-0.001;1;0;2;
1510740253.328146;1510740253.328146;1510740253.328251;57.77339332700898;12.76678748932214;229.3660587520335;-0.7584884;2.602481;-0.03558943;-1.639346119693706;-3.324723669796515;285.8750371024547;74.23558951286918;106.2487;2.710759;-0.1668409;-0.3090416;0.2654112;0.6615258;0.07147463;0.05969067;0;295471.1936909723;2820.827052665362;-0.001;1;0;2;
1510740253.336343;1510740253.336343;1510740253.336447;57.77339293371985;12.76679003978549;229.3681290769541;-0.7399527;2.566845;-0.03586768;-1.626673011033808;-3.347352741483571;285.8865955420454;74.23559233573256;106.0809;2.671371;0.3304507;-0.4736963;-0.119912;0.6989874;0.1521589;-0.03518517;0;295471.2536909638;2820.887052656807;-0.001;1;0;2;
1510740253.370373;1510740253.370373;1510740253.370475;57.77339267609024;12.76679171787089;229.3694770982134;-0.7353848;2.535815;-0.03755613;-1.610154551843651;-3.358847013325744;285.8952765791556;74.2355942361318;106.1721;2.640293;-0.02150373;-0.4059027;0.4612143;0.7171115;0.01912552;-0.0466836;0;295471.2936909581;2820.927052651103;-0.001;1;0;2;
1510740253.450497;1510740253.450497;1510740253.450568;57.77339242154457;12.76679337612749;229.3709010391728;-0.725658;2.506642;-0.03994715;-1.591545937900476;-3.364987834906131;285.9038154053769;74.2355961530594;106.1454;2.609566;0.5560809;-0.243927;0.1255665;0.7435212;-0.01564937;-0.1329773;0;295471.3336919524;2820.9670536454;-0.001;1;0;2;
1510740253.557454;1510740253.557454;1510740253.557796;57.77339216979328;12.76679501370711;229.372443443036;-0.7217538;2.473419;-0.04189361;-1.57504400318259;-3.367579110857866;285.9106217074352;74.23559808743937;106.2675;2.576574;0.3472502;-0.09830335;0.3865941;0.7420717;-0.1251458;-0.06899745;0;295471.3736919467;2821.007053639696;-0.001;1;0;2;
1510740253.637362;1510740253.637362;1510740253.637425;57.77339192051222;12.76679662898164;229.3740973799548;-0.7115253;2.441534;-0.04185922;-1.565358631514413;-3.365456250237111;285.9157468790993;74.2356000406669;106.2475;2.5431;0.2572272;0.1919223;0.04277556;0.7191101;-0.1173346;-0.0145101;0;295471.413691941;2821.047053633993;-0.001;1;0;2;
1510740253.717671;1510740253.717671;1510740253.718068;57.7733916732418;12.76679822287406;229.3758912696939;-0.7083035;2.408058;-0.04567392;-1.563327911150492;-3.365277476683067;285.9218652198404;74.23560201212835;106.3907;2.510067;-0.0009465236;0.05706068;0.2828897;0.882923;-0.1089768;-0.06974376;0;295471.4536919353;2821.087053628289;-0.001;1;0;2;
1510740253.773458;1510740253.773458;1510740253.773565;57.77339142859319;12.76679979426252;229.3777985730598;-0.6997322;2.374287;-0.04864547;-1.564861485981564;-3.370250313487938;285.9264861024949;74.23560400295851;106.4209;2.47525;0.1473802;-0.08704878;0.142275;0.8936515;-0.1316128;-0.1793223;0;295471.4936929296;2821.127054622586;-0.001;1;0;2;
1510740253.78352;1510740253.78352;1510740253.783582;57.77339118647676;12.76680134287256;229.3798139208874;-0.6918632;2.340862;-0.05043026;-1.57293258690345;-3.378494173818136;285.9326791482654;74.23560601321628;106.4655;2.440965;0.02295753;-0.1650281;0.17263;0.8907725;-0.07636167;-0.06902231;0;295471.5336929239;2821.167054616882;-0.001;1;0;2;
1510740253.788662;1510740253.788662;1510740253.788765;57.77339094746969;12.76680287050477;229.3818132303782;-0.6817702;2.309254;-0.04803749;-1.58037601913334;-3.390227369680923;285.9397117997653;74.23560804131718;106.4484;2.407792;-0.06383329;-0.2141075;0.2177214;0.9497131;0.0007798137;-0.01541207;0;295471.5736929182;2821.207054611179;-0.001;1;0;2;
1510740253.793379;1510740253.793379;1510740253.793484;57.77339071242554;12.76680437654137;229.3836770884685;-0.6685925;2.277506;-0.04349866;-1.596561966861857;-3.404789625361177;285.9470219237805;74.2356100879165;106.3603;2.373615;-0.5232854;-0.3133209;0.1925109;0.8669351;0.1108865;0.1476693;0;295471.6136929124;2821.247054605475;-0.001;1;0;2;
1510740253.800108;1510740253.800108;1510740253.800267;57.77339048111769;12.76680586097301;229.3851866918252;-0.6622859;2.244273;-0.03575495;-1.609592861870619;-3.414006415824619;285.9557260226914;74.23561215246337;106.4414;2.339953;-0.262453;-0.2544216;0.4378269;0.8772613;-0.004853559;0.1539094;0;295471.6536939068;2821.287055599772;-0.001;1;0;2;
1510740253.807025;1510740253.807025;1510740253.807185;57.77339025364142;12.76680732330651;229.3863869344968;-0.6455638;2.211763;-0.02755553;-1.621176861883499;-3.418637800004961;285.9619958498579;74.23561423560392;106.2713;2.30405;-0.1514029;-0.0565003;-0.0744756;0.9474026;0.1114041;0.1014538;0;295471.6936939011;2821.327055594068;-0.001;1;0;2;
1510740253.814159;1510740253.814159;1510740253.814319;57.77339002987308;12.76680876097646;229.387281856996;-0.637412;2.173822;-0.02305315;-1.618815087327322;-3.410063540944241;285.9658412634527;74.23561633897236;106.3423;2.265347;-0.05285519;0.1873499;-0.01086607;0.8704653;0.03553517;0.07040625;0;295471.7336938953;2821.367055588365;-0.001;1;0;2;
1510740253.84754;1510740253.84754;1510740253.847704;57.77338981032312;12.76681017403429;229.3880379798025;-0.6236539;2.137214;-0.01790168;-1.607731224118205;-3.392162487289491;285.9683300869265;74.23561846271174;106.2676;2.226348;0.5369322;0.601311;-0.08423842;0.9165725;0.06089379;-0.07601804;0;295471.7736938897;2821.407055582661;-0.001;1;0;2;
1510740253.927573;1510740253.927573;1510740253.927699;57.77338959526737;12.7668115618378;229.3887990344276;-0.6124992;2.098048;-0.01863346;-1.595954569861681;-3.370910925539031;285.9747363056885;74.23562060748891;106.2745;2.185626;0.2332874;0.5949523;0.3145502;0.9852322;0.1132079;-0.04794773;0;295471.813694884;2821.447056576957;-0.001;1;0;2;
1510740254.007916;1510740254.007916;1510740254.008025;57.77338938546498;12.76681292408022;229.389551996491;-0.5993041;2.058726;-0.01916014;-1.575011577879811;-3.350354580794683;285.9793194902655;74.2356227738663;106.2305;2.144183;0.4936596;0.5454392;0.2685769;1.070287;0.05993196;-0.06388286;0;295471.8536948782;2821.487056571254;-0.001;1;0;2;
1510740254.077473;1510740254.077473;1510740254.077535;57.7733891799186;12.76681426012737;229.3904074339769;-0.5831301;2.019771;-0.02164767;-1.553278193189961;-3.339007921877387;285.9867326635907;74.2356249626441;106.104;2.102264;0.861954;0.2888143;-0.0484957;1.144374;0.1026423;-0.08065683;0;295471.8936948726;2821.527056565551;-0.001;1;0;2;
1510740254.157476;1510740254.157476;1510740254.157539;57.77338897862087;12.76681556852627;229.3912522384892;-0.5754832;1.978269;-0.02578974;-1.519782387636918;-3.330003076946665;285.9948891044019;74.23562717470314;106.2198;2.060275;0.7583743;-0.06000967;0.2370435;1.039344;-0.01143017;-0.0740467;0;295471.9336948668;2821.567056559847;-0.001;1;0;2;
1510740254.197084;1510740254.197084;1510740254.19719;57.77338868463573;12.76681747976985;229.3925933758422;-0.5581092;1.915173;-0.02485778;-1.475226848749438;-3.324665826386537;286.0043653731474;74.23563053677918;106.2469;1.994837;0.4286838;0.03574612;0.2757083;1.131704;-0.04885977;-0.2159696;0;295471.9936958583;2821.627057551292;-0.001;1;0;2;
1510740254.200195;1510740254.200195;1510740254.200294;57.77338858883258;12.76681810367922;229.3931001670115;-0.5550137;1.895473;-0.02455589;-1.467763238569106;-3.326911838921894;286.0088071869667;74.23563199114348;106.3206;1.975059;0.4987634;0.008723462;0.4441309;0.9286195;-0.03215163;0.04286348;0;295472.0136959981;2821.647057548441;-0.001;1;0;2;
1510740254.209424;1510740254.209424;1510740254.209552;57.77338849426344;12.7668187204882;229.3935501515393;-0.5471913;1.873231;-0.02524318;-1.457493082447484;-3.324230675669136;286.0104931581726;74.23563345138973;106.2837;1.951515;0.6452563;0.100294;0.2138606;1.152701;-0.05077729;-0.1728223;0;295472.0336959952;2821.667057545591;-0.001;1;0;2;
1510740254.214897;1510740254.214897;1510740254.21501;57.77338830752218;12.76681993170898;229.3945436563007;-0.5366037;1.830462;-0.03056758;-1.44600037464704;-3.322476505150506;286.0160742774775;74.23563639100936;106.3386;1.907495;0.02923752;-0.2266558;0.1680591;1.02364;-0.07833172;-0.03617043;0;295472.0736959895;2821.707057539892;-0.001;1;0;2;
1510740254.220134;1510740254.220134;1510740254.220238;57.77338812389988;12.76682111464078;229.3955792869315;-0.5263851;1.789502;-0.02767728;-1.435285099615907;-3.323593500224448;286.0214676153443;74.23563935469849;106.3913;1.865315;0.2312614;-0.1070217;0.02156636;1.001764;-0.05357933;0.08636501;0;295472.1136959838;2821.747057534192;-0.001;1;0;2;
1510740254.225674;1510740254.225674;1510740254.225776;57.77338794402396;12.76682227025338;229.3965978850754;-0.5156033;1.748645;-0.02597023;-1.431036406009592;-3.326541588097925;286.0241382560812;74.23564234179122;106.4286;1.823076;0.4446873;-0.09953836;-0.1256257;1.050393;-0.02764131;0.02459143;0;295472.1536969781;2821.787058528492;-0.001;1;0;2;
1510740254.280813;1510740254.280813;1510740254.280922;57.77338776771559;12.76682339960978;229.3976315853016;-0.5070481;1.712019;-0.02629218;-1.436545807316278;-3.335937659338581;286.0281406549821;74.23564535144338;106.4977;1.785527;-0.004142385;-0.3131359;0.001123396;0.9477266;0.004732658;-0.0224537;0;295472.1936969724;2821.827058522792;-0.001;1;0;2;
1510740254.420486;1510740254.420486;1510740254.420589;57.77338750961089;12.76682504906504;229.3991974987445;-0.4903669;1.659055;-0.02730821;-1.448544275538906;-3.363801862702904;286.0334968220613;74.23564990428549;106.4661;1.730007;-0.2776124;-0.5967144;-0.0462831;0.9302806;-0.00349359;0.07856882;0;295472.2536969638;2821.887058514242;-0.001;1;0;2;
1510740254.500852;1510740254.500852;1510740254.50096;57.77338734223429;12.76682611893689;229.4002427049666;-0.4819158;1.623181;-0.02585219;-1.450676221362615;-3.38765485034495;286.0370489386124;74.23565296482529;106.5359;1.69321;0.2321472;-0.4712944;0.07528654;0.9048402;0.01382592;-0.1555364;0;295472.2936969582;2821.927058508542;-0.001;1;0;2;
1510740254.580603;1510740254.580603;1510740254.580707;57.77338717895354;12.76682716567714;229.4013193407509;-0.4698595;1.588659;-0.02566201;-1.450984207347258;-3.414346327062128;286.0424843507746;74.23565604493625;106.476;1.656685;0.2166101;-0.4741817;0.1419214;0.9186276;0.03443058;-0.1065217;0;295472.3336979524;2821.967059502842;-0.001;1;0;2;
1510740254.660178;1510740254.660178;1510740254.66028;57.77338694255056;12.76682869309098;229.402820146027;-0.4489382;1.538128;-0.02433063;-1.447172301974634;-3.447673187894565;286.0496930006025;74.23566070092298;106.2711;1.602306;-0.1486585;-0.4191313;0.05986328;0.8749536;0.09647167;0.0346093;0;295472.3936979439;2822.027059494293;-0.001;1;0;2;
1510740254.676609;1510740254.676609;1510740254.676672;57.77338671534575;12.76683016722337;229.4041611304798;-0.4351416;1.483645;-0.02507159;-1.436137934631216;-3.462799909375388;286.0576132616607;74.23566540109579;106.346;1.546141;0.2241067;-0.283993;0.1878505;0.884639;-0.05178317;-0.0121472;0;295472.4536979353;2822.087059485743;-0.001;1;0;2;
1510740254.6844;1510740254.6844;1510740254.684952;57.77338656852117;12.76683111989159;229.4050279378493;-0.4256107;1.448571;-0.02276981;-1.429001536681626;-3.462712364183819;286.0624004524067;74.23566855960395;106.3735;1.509802;0.2233503;0.08292829;0.1725873;0.7663522;-0.04564551;-0.04717803;0;295472.4936989297;2822.127060480043;-0.001;1;0;2;
1510740254.693748;1510740254.693748;1510740254.693843;57.77338642431977;12.76683205123191;229.4059289262957;-0.4189593;1.418077;-0.02260004;-1.424729219438835;-3.462069618548475;286.0668924916115;74.23567173618653;106.4594;1.478671;-0.0004690159;0.1336699;0.1444783;0.8408878;-0.06319502;-0.1221624;0;295472.5336989239;2822.167060474343;-0.001;1;0;2;
1510740254.705873;1510740254.705873;1510740254.706049;57.77338628233633;12.7668329614798;229.406798891539;-0.4114574;1.387761;-0.02138548;-1.421562331611465;-3.458158697586649;286.0715672016458;74.23567493048574;106.5146;1.447473;-0.008593931;0.1595909;0.03376059;0.7688469;-0.0134095;-0.01296356;0;295472.5736989182;2822.207060468643;-0.001;1;0;2;
1510740254.720342;1510740254.720342;1510740254.720521;57.77338614260879;12.76683385296472;229.4075718795752;-0.4073585;1.359046;-0.01815804;-1.424246286318164;-3.455209802809426;286.0775086409811;74.23567814072419;106.6855;1.418784;-0.03217716;0.1792893;0.2850586;0.7840376;-0.09031684;-0.05983894;0;295472.6136989126;2822.247060462943;-0.001;1;0;2;
1510740254.770794;1510740254.770794;1510740254.770902;57.77338600555951;12.766834725514;229.4082118400678;-0.3983661;1.330649;-0.01588026;-1.42996454501788;-3.451837325625343;286.0825530542259;74.23568136704874;106.6665;1.389001;-0.100978;0.08852166;0.1683818;0.7552288;-0.04656931;0.04615351;0;295472.6536999068;2822.287061457243;-0.001;1;0;2;
1510740254.838361;1510740254.838361;1510740254.838422;57.77338587185606;12.76683557838257;229.4087002486629;-0.3872437;1.303491;-0.01326219;-1.438924824274288;-3.444157544770407;286.0861866772889;74.23568460995666;106.5457;1.359797;-0.1555469;0.1472493;-0.01604141;0.5056071;-0.001775752;0.08942422;0;295472.6936999012;2822.327061451544;-0.001;1;0;2;
1510740254.898162;1510740254.898162;1510740254.898274;57.77338574106632;12.76683641417367;229.4091500734898;-0.3782611;1.277647;-0.01173079;-1.457119320775732;-3.436556316486087;286.0923090345045;74.2356878673354;106.492;1.332465;-0.5194314;0.2710985;0.06750622;0.7565687;0.0415047;-0.1166568;0;295472.7336998954;2822.367061445844;-0.001;1;0;2;
1510740254.970877;1510740254.970877;1510740254.970991;57.77338561357942;12.76683723169922;229.4096572145741;-0.3705686;1.250969;-0.01586261;-1.481042005295225;-3.429009788066472;286.0978952949101;74.23569114027589;106.5006;1.304701;-0.7541603;0.09172811;0.09472065;0.7241414;0.0051156;-0.121246;0;295472.7736998898;2822.407061440144;-0.001;1;0;2;
1510740255.040752;1510740255.040752;1510740255.041299;57.77338548807971;12.76683803135823;229.4102450648936;-0.3682228;1.222004;-0.01761362;-1.501756913672768;-3.423614321327455;286.1054386235178;74.23569442828298;106.769;1.276276;-0.3724353;0.07197159;0.3194098;0.7302739;0.008856788;-0.1251831;0;295472.8137008841;2822.447062434444;-0.001;1;0;2;
1510740255.065987;1510740255.065987;1510740255.066104;57.77338536502892;12.76683881289397;229.4109692806926;-0.3561823;1.195568;-0.02277654;-1.516860888441675;-3.424448550290891;286.1098625871454;74.23569773193802;106.5898;1.247497;-0.3937495;-0.1794073;-0.08667839;0.8043143;0.04750811;-0.083216;0;295472.8537008783;2822.487062428744;-0.001;1;0;2;
1510740255.088515;1510740255.088515;1510740255.088689;57.77338524485607;12.76683957535217;229.4117936002658;-0.3510308;1.168512;-0.02528839;-1.532027907943965;-3.427910335656525;286.1142492358622;74.23570105184231;106.7207;1.220099;-0.4544024;-0.3438576;0.1746344;0.6259363;0.04178364;0.07079292;0;295472.8937008727;2822.527062423044;-0.001;1;0;2;
1510740255.100886;1510740255.100886;1510740255.101769;57.77338512779085;12.76684031985809;229.4126477382952;-0.3406719;1.14134;-0.02235422;-1.548905498283744;-3.430700725832808;286.1179143696164;74.23570438696349;106.6195;1.191098;-0.3319275;-0.05291173;0.03435145;0.6279283;0.04776897;0.0344268;0;295472.9337008669;2822.567062417344;-0.001;1;0;2;
1510740255.122053;1510740255.122053;1510740255.122188;57.77338495835983;12.76684140443891;229.4139365222107;-0.3288627;1.103108;-0.02258701;-1.578142789027654;-3.436270438928264;286.1226160978329;74.23570941701661;106.6006;1.151085;-0.4958383;-0.1553231;0.1460652;0.5830157;0.03179463;0.1010451;0;295472.9937018584;2822.627063408795;-0.001;1;0;2;
1510740255.133393;1510740255.133393;1510740255.133509;57.77338490250407;12.76684175606059;229.4142708879891;-0.3237918;1.090557;-0.0195891;-1.586485487041553;-3.43710628027409;286.1241418357036;74.23558448762689;106.5364;1.137609;-0.3118767;0.04850927;-0.02348441;0.7177472;-0.01890829;-0.08101959;0;295473.013701998;2822.647063405946;-0.001;1;0;2;
1510740255.162485;1510740255.162485;1510740255.162604;57.77338479381628;12.76684244684219;229.4148607971727;-0.3194166;1.065361;-0.01739182;-1.598035479352678;-3.435612698587297;286.1276699486032;74.23533463973045;106.6898;1.112214;-0.2278358;0.04900159;0.1895628;0.654092;-0.003917524;0.02359551;0;295473.0537019923;2822.68706340025;-0.001;1;0;2;
1510740255.208383;1510740255.208383;1510740255.208479;57.77338468783822;12.76684312158992;229.4153226241339;-0.3090189;1.042176;-0.01547003;-1.610788042484923;-3.431473568388324;286.1295790980151;74.23508480538044;106.5158;1.087025;-0.3923201;0.0380462;-0.02927218;0.6057406;0.04913291;0.04216307;0;295473.0937019867;2822.727063394554;-0.001;1;0;2;
1510740255.287473;1510740255.287473;1510740255.287537;57.77338458427116;12.76684377999102;229.4156584624659;-0.3061478;1.017858;-0.01159252;-1.627685752750034;-3.422350387926995;286.1347447982467;74.23483498456604;106.7401;1.062902;-0.4726376;0.1596035;0.3561311;0.5122157;0.04233158;0.124289;0;295473.1337029809;2822.767064388857;-0.001;1;0;2;
1510740255.367572;1510740255.367572;1510740255.36764;57.77338448324094;12.76684442319132;229.4158609059609;-0.2979372;0.9952888;-0.00584882;-1.65508332943141;-3.407863673694558;286.1396927386602;74.234585176553;106.6649;1.038926;-0.6475847;0.5267518;0.1352328;0.5026087;-0.07002675;0.008409668;0;295473.1737029753;2822.807064383161;-0.001;1;0;2;
1510740255.447484;1510740255.447484;1510740255.447555;57.77338438378176;12.76684505083536;229.4159952141817;-0.2953578;0.9714914;-0.005104655;-1.689404085881586;-3.390312881573563;286.1463309096101;74.23433538159715;106.9106;1.015397;-0.7180367;0.5632358;0.2526757;0.5580919;-0.08565582;-0.09010454;0;295473.2137029695;2822.847064377464;-0.001;1;0;2;
1510740255.50746;1510740255.50746;1510740255.50757;57.77338433440874;12.76684535914376;229.4160426750851;-0.2942811;0.9622737;-0.005480946;-1.708276414645541;-3.380943516627503;286.1507246359744;74.23421048873486;107.0046;1.006266;-0.9024372;0.4389493;0.3214983;0.4016739;-0.04722903;0.1320762;0;295473.2337029667;2822.867064374616;-0.001;1;0;2;
1510740255.534244;1510740255.534244;1510740255.534334;57.77338423672613;12.76684596586533;229.4160660253283;-0.2885564;0.9416312;-0.001719553;-1.747805145935888;-3.360204647715873;286.1572487102883;74.2339607114271;107.0373;0.9848524;-1.144145;0.6494968;0.2154083;0.4499825;-0.03655849;0.07110958;0;295473.273703961;2822.90706536892;-0.001;1;0;2;
1510740255.549831;1510740255.549831;1510740255.549934;57.77338414014778;12.76684655866328;229.4159918055603;-0.2862391;0.9212168;2.408085e-06;-1.787768424161512;-3.33486983115146;286.1672159674023;74.23371094555674;107.261;0.9646622;-0.8987852;0.7347274;0.3486988;0.5139279;0.002863979;-0.09001851;0;295473.3137039553;2822.947065363223;-0.001;1;0;2;
1510740255.562657;1510740255.562657;1510740255.562767;57.77338404565853;12.76684713850858;229.4158734333964;-0.278537;0.9021001;-7.2429e-05;-1.829848001894483;-3.306973756707401;286.1762995647867;74.23346119060734;107.1589;0.9441227;-0.906992;0.7638198;0.2006912;0.534557;0.03370902;-0.1223674;0;295473.3537039496;2822.987065357527;-0.001;1;0;2;
1510740255.570349;1510740255.570349;1510740255.570493;57.77338399929693;12.76684742374532;229.4158273675374;-0.27303;0.8937965;-0.0008557476;-1.85119400043955;-3.293848223263861;286.1806582612713;74.23333631714296;106.9865;0.9345681;-1.059582;0.6633567;0.06012149;0.4765772;0.03422421;0.03000556;0;295473.3737039468;2823.007065354679;-0.001;1;0;2;
1510740255.582468;1510740255.582468;1510740255.582578;57.77338390851005;12.76684798453051;229.4157174384467;-0.2684127;0.8738742;-0.0006797441;-1.884915320807713;-3.265312744432781;286.1876756741694;74.23308657825983;107.0745;0.9141671;-0.5665909;0.7248214;0.2084465;0.493364;0.09826721;-0.06020084;0;295473.4137039411;2823.047065348983;-0.001;1;0;2;
1510740255.590173;1510740255.590173;1510740255.59028;57.7733838641123;12.76684826018173;229.4156836234833;-0.2632544;0.8647625;-0.003827507;-1.897552540667727;-3.251614409876431;286.1909077711133;74.23296171280303;106.9315;0.9039453;-0.5753925;0.5673613;0.1259863;0.4672287;0.09255998;-0.01740782;0;295473.4337049382;2823.067066346134;-0.001;1;0;2;
1510740255.602322;1510740255.602322;1510740255.60249;57.77338377761491;12.76684880213311;229.4156616460255;-0.2553587;0.8458995;-0.004185422;-1.909996641319955;-3.225475130393995;286.1960352018647;74.23271198972363;106.7979;0.8836029;-0.2794974;0.5802407;0.2411954;0.4211956;0.1787325;0.05900631;0;295473.4737049325;2823.107066340438;-0.001;1;0;2;
1510740255.615864;1510740255.615864;1510740255.616017;57.77338369487865;12.76684933181282;229.4156912949976;-0.2437569;0.8271906;-0.00475332;-1.909741829708021;-3.20026047664229;286.1985976879409;74.23246227699271;106.4192;0.8623583;0.003861565;0.6237856;0.1302596;0.4812666;0.1688306;-0.021702;0;295473.5137049268;2823.147066334742;-0.001;1;0;2;
1510740255.690799;1510740255.690799;1510740255.690965;57.77338361602036;12.76684984831284;229.4158052080079;-0.2312104;0.8068874;-0.007476258;-1.891138754111755;-3.176913052396972;286.1978220780314;74.23221257537038;105.9894;0.8393602;0.7476588;0.5499787;-0.1859424;0.6458505;0.1317068;-0.1100038;0;295473.5537049212;2823.187066329046;-0.001;1;0;2;
1510740255.77136;1510740255.77136;1510740255.771581;57.77338354105355;12.76685035058252;229.4160489554761;-0.222221;0.7834974;-0.01064985;-1.86316487250954;-3.159557867876508;286.196514362566;74.23196288592234;105.8348;0.8144018;0.9337422;0.4370167;0.002457685;0.7068265;0.1234418;-0.1303145;0;295473.5937059154;2823.227067323349;-0.001;1;0;2;
1510740255.83923;1510740255.83923;1510740255.839472;57.77338346946734;12.76685083773379;229.4164322307741;-0.2130417;0.7616357;-0.01516212;-1.825838548616406;-3.148312158108911;286.1941545157311;74.2317132094296;105.6272;0.7908702;0.8923169;0.1987959;-0.06294944;0.5648795;0.05815523;-0.04950483;0;295473.6337059098;2823.267067317653;-0.001;1;0;2;
1510740255.897603;1510740255.897603;1510740255.897801;57.77338340018306;12.76685131040736;229.4169427423058;-0.2087114;0.7409908;-0.01978199;-1.776296287932154;-3.143378594997496;286.1906794231201;74.23146354532024;105.7307;0.7698232;1.160769;-0.0985188;-0.043215;0.463184;-0.001923946;0.03331639;0;295473.673705904;2823.307067311956;-0.001;1;0;2;
1510740255.959099;1510740255.959099;1510740255.959199;57.77338333239006;12.76685176991919;229.4175427684054;-0.2044706;0.7233492;-0.01760339;-1.723384281259822;-3.144914867875348;286.1874992947434;74.23121389255336;105.7841;0.7516929;1.146491;-0.06286617;-0.08456879;0.3729342;-0.008274251;0.1421958;0;295473.7137058984;2823.34706730626;-0.001;1;0;2;
1510740255.966132;1510740255.966132;1510740255.966301;57.77338326567845;12.76685221752137;229.4181321119845;-0.202264;0.7050624;-0.01467694;-1.677734849898522;-3.151702632344723;286.187632364641;74.23096425003681;106.0068;0.7335011;1.315491;-0.03250814;-0.06460524;0.4147567;-0.1408777;0.0342571;0;295473.7537068927;2823.387068300563;-0.001;1;0;2;
1510740255.980557;1510740255.980557;1510740255.981261;57.77338319986021;12.76685265442697;229.4186452351341;-0.2015916;0.6889578;-0.01411683;-1.647734417981835;-3.16234139229806;286.1892294456975;74.23071461689237;106.3097;0.7178454;0.7339418;-0.2120587;0.1056898;0.4781753;-0.1357253;-0.06740046;0;295473.7937068869;2823.427068294867;-0.001;1;0;2;
1510740255.991594;1510740255.991594;1510740255.992331;57.77338313433189;12.76685308153717;229.4190505999658;-0.2008426;0.6762944;-0.01286096;-1.62687287166472;-3.174265675038944;286.1910915995588;74.23046499220943;106.5401;0.705487;0.5333623;-0.3414649;0.0814089;0.3152776;-0.0978898;-0.03434074;0;295473.8337068813;2823.467068289171;-0.001;1;0;2;
1510740256.002931;1510740256.002931;1510740256.003036;57.77338306880166;12.76685350102509;229.419362768691;-0.1998961;0.6668099;-0.01133202;-1.615248492168983;-3.188012746814901;286.1949251701049;74.23021537409544;106.6877;0.6961278;0.3374697;-0.4529726;0.02102;0.1706366;-0.06610128;0.07466497;0;295473.8737068755;2823.507068283475;-0.001;1;0;2;
1510740256.013821;1510740256.013821;1510740256.013941;57.77338300331733;12.76685391499341;229.4195986420618;-0.1998777;0.6599087;-0.00895288;-1.612992954950311;-3.203201303784866;286.1996725111537;74.22996576080583;106.8509;0.6895148;-0.07496551;-0.4414902;0.1139078;0.08799482;-0.09384394;0.1300394;0;295473.9137078699;2823.547069277778;-0.001;1;0;2;
1510740256.022252;1510740256.022252;1510740256.022357;57.77338293810386;12.7668543249029;229.4197855993779;-0.1980466;0.6545826;-0.007377872;-1.61864906886183;-3.218215927536542;286.2037328551622;74.22971615108912;106.8334;0.6838866;-0.149552;-0.3495312;-0.01232581;0.07538259;-0.03254177;0.03684015;0;295473.9537078642;2823.587069272082;-0.001;1;0;2;
1510740256.0305;1510740256.0305;1510740256.031484;57.77338290559322;12.76685452862469;229.419890776286;-0.1981977;0.6516937;-0.009564319;-1.624678212196361;-3.226165876779771;286.2060378940643;74.22959134732638;106.9159;0.6811659;-0.3946847;-0.4263074;0.1136669;0.118968;-0.0002838355;-0.03443816;0;295473.9737078613;2823.607069269234;-0.001;1;0;2;
1510740256.241028;1510740256.241028;1510740256.241134;57.77338277813302;12.76685533248971;229.4205319923741;-0.1919194;0.6497883;-0.009690464;-1.646758622877402;-3.260245821663158;286.2085460810387;74.22946815426576;106.4549;0.6775381;-0.090032;-0.3667015;-0.4233641;-0.05354666;0.02795745;0.06012509;0;295474.0537069924;2823.687069257821;-0.001;1;0;2;
1510740256.32074;1510740256.32074;1510740256.320856;57.77338271494178;12.76685573267281;229.4209222579835;-0.1960678;0.6503469;-0.01050579;-1.653228498821525;-3.276539582547236;286.2108370873825;74.2294692277837;106.7771;0.6792597;0.05106492;-0.3833521;0.03693643;-0.07212352;0.07440726;-0.002412554;0;295474.0937079866;2823.72707025211;-0.001;1;0;2;
1510740256.400756;1510740256.400756;1510740256.400878;57.77338265198593;12.76685613546187;229.4213302528073;-0.1961915;0.6543617;-0.01035046;-1.656301240290041;-3.293264940901671;286.2136371246921;74.22947029904105;106.6898;0.68314;0.1107793;-0.3123402;0.1383037;-0.0874901;0.07289182;-0.07466564;0;295474.1337079809;2823.7670702464;-0.001;1;0;2;
1510740256.416215;1510740256.416215;1510740256.416324;57.77338258907992;12.76685654192294;229.4217654259343;-0.1989772;0.6593735;-0.0109089;-1.657400995267816;-3.311110995037033;286.2172869845584;74.22947136717004;106.7921;0.6887419;0.2423881;-0.3303655;0.3550985;-0.1226866;0.04737749;-0.05993342;0;295474.1737079752;2823.807070240689;-0.001;1;0;2;
1510740256.427764;1510740256.427764;1510740256.427832;57.77338252582043;12.76685695282961;229.4222053334709;-0.1958141;0.6680145;-0.01387927;-1.656691474338297;-3.327916942901257;286.221773320474;74.22947243142943;106.3374;0.6961225;-0.1898714;-0.4851778;0.05453796;-0.1950832;-0.0115453;0.01990993;0;295474.2137079695;2823.847070234978;-0.001;1;0;2;
1510740256.440471;1510740256.440471;1510740256.440812;57.77338249377907;12.76685716008137;229.4224287663602;-0.1979699;0.6714526;-0.01184507;-1.654253986083801;-3.336145073864754;286.2247218841955;74.22947296196739;106.4275;0.7000291;0.1532145;-0.3572598;0.0661232;-0.1276125;0.02436377;-0.08622968;0;295474.2337089666;2823.867071232123;-0.001;1;0;2;
1510740256.458938;1510740256.458938;1510740256.459055;57.77338242907575;12.76685757805171;229.422857029075;-0.1986312;0.6785115;-0.01090875;-1.645925608485805;-3.348885987402034;286.2289855049962;74.22947401998037;106.3172;0.7069881;0.2695709;-0.1873896;-0.1486314;-0.1600656;-0.005156002;-0.057779;0;295474.2737089609;2823.907071226412;-0.001;1;0;2;
1510740256.469377;1510740256.469377;1510740256.469492;57.77338236362747;12.76685800138705;229.4232952587697;-0.2029425;0.6863444;-0.0135773;-1.636481453003905;-3.360414664642537;286.2310618746251;74.22947507348806;106.4722;0.7157194;0.2307481;-0.3366668;0.01948553;-0.217103;-0.001126728;-0.0002215115;0;295474.3137089552;2823.947071220701;-0.001;1;0;2;
1510740256.475697;1510740256.475697;1510740256.475838;57.77338229742219;12.76685843024727;229.4237381287424;-0.207247;0.6945002;-0.01300752;-1.631707461707637;-3.37105406129932;286.2331761371444;74.22947612235177;106.6157;0.7247633;0.1070477;-0.3494779;0.2091912;-0.298109;0.005471956;0.1035067;0;295474.3537089495;2823.98707121499;-0.001;1;0;2;
1510740256.486129;1510740256.486129;1510740256.486231;57.77338226406533;12.76685864689069;229.4239244202505;-0.2055697;0.6985452;-0.01038171;-1.629123565335975;-3.373983273946086;286.2330765304072;74.22947664486267;106.3982;0.728165;-0.1485474;-0.08361498;0.02782823;-0.1274849;-0.003206969;-0.08293701;0;295474.3737089466;2824.007071212135;-0.001;1;0;2;
1510740256.531057;1510740256.531057;1510740256.531469;57.7733821963453;12.76685908416976;229.4243360069358;-0.2103463;0.7061774;-0.01237812;-1.625127567898676;-3.381616524109488;286.2345337541321;74.22947768652168;106.587;0.7368392;0.04310651;-0.2298789;0.0969153;-0.1831834;-0.02427221;-0.06935804;0;295474.413709941;2824.047072206424;-0.001;1;0;2;
1510740256.57773;1510740256.57773;1510740256.577803;57.77338216202005;12.76685930480647;229.4245449345038;-0.2107386;0.7110683;-0.0104369;-1.621782173419045;-3.385645367004572;286.2354256832612;74.22947820564299;106.5082;0.7416393;0.1723196;-0.1202953;-0.02998263;-0.2424222;-0.01570927;-0.02233623;0;295474.4337099381;2824.067072203569;-0.001;1;0;2;
1510740256.657493;1510740256.657493;1510740256.657602;57.77338209252573;12.76685975013965;229.4249413023017;-0.2149777;0.717973;-0.009820905;-1.615908258622582;-3.391065360488158;286.2385587495481;74.22947924029283;106.6689;0.7494669;0.2995273;-0.00797293;0.1114459;-0.1523478;-0.01335752;-0.06433931;0;295474.4737099324;2824.107072197858;-0.001;1;0;2;
1510740256.737491;1510740256.737491;1510740256.737597;57.77338202230779;12.76686020128544;229.4253433765096;-0.2153605;0.7272971;-0.01199348;-1.612149127914035;-3.396782881732719;286.2415679472087;74.22948027007433;106.4946;0.7585126;0.1311704;-0.1717806;0.02685496;-0.1953999;0.02929443;-0.05320835;0;295474.5137099267;2824.147072192147;-0.001;1;0;2;
1510740256.810841;1510740256.810841;1510740256.810911;57.77338195097328;12.76686065892052;229.4257638498651;-0.2201945;0.7374645;-0.01353606;-1.611465359071369;-3.404990481858865;286.2474311970494;74.22948129438278;106.6247;0.769636;-0.02996721;-0.340195;0.2232526;-0.3179865;0.04759426;0.09471828;0;295474.553710921;2824.187073186436;-0.001;1;0;2;
1510740256.844775;1510740256.844775;1510740256.844878;57.77338187873553;12.76686112349943;229.4262167644772;-0.2203897;0.7485288;-0.01334081;-1.611620523436144;-3.41556910421845;286.2521608307047;74.22948231297879;106.406;0.7802993;-0.1240575;-0.3787664;-0.008633673;-0.3170393;0.04966439;0.1553431;0;295474.5937109152;2824.227073180726;-0.001;1;0;2;
1510740256.868331;1510740256.868331;1510740256.86844;57.77338180525191;12.76686159450519;229.4266603187449;-0.226886;0.7570049;-0.01092618;-1.606862931398719;-3.425731102030759;286.2560167879609;74.22948332608829;106.6843;0.7902744;0.2669392;-0.2013678;0.1575694;-0.2779368;-0.008248715;-0.01036829;0;295474.6337109095;2824.267073175015;-0.001;1;0;2;
1510740256.881405;1510740256.881405;1510740256.881576;57.77338173064494;12.76686207257423;229.4271069276841;-0.2301681;0.7669511;-0.0119473;-1.601032788733752;-3.436321968522181;286.2582768092761;74.22948433329746;106.7049;0.8007443;0.3458471;-0.2220169;0.1226882;-0.1743042;0.003425974;-0.137732;0;295474.6737109039;2824.307073169304;-0.001;1;0;2;
1510740256.897626;1510740256.897626;1510740256.89779;57.77338165491577;12.76686255855104;229.4275741530345;-0.2331921;0.779503;-0.01383047;-1.5978222959943;-3.448342716416112;286.2600631328902;74.22948533393563;106.6548;0.813636;0.161551;-0.319293;0.08738291;-0.3624979;-0.04271664;-0.05804629;0;295474.7137118981;2824.347074163593;-0.001;1;0;2;
1510740256.91245;1510740256.91245;1510740256.912557;57.77338157796029;12.76686305351716;229.4280507993909;-0.2334728;0.7949527;-0.01369111;-1.598313048907896;-3.461545716502156;286.261094665405;74.22948632710644;106.3672;0.8285284;-0.3278665;-0.4070583;-0.07425904;-0.4494942;0.03683282;0.2404959;0;295474.7537118924;2824.387074157883;-0.001;1;0;2;
1510740256.922327;1510740256.922327;1510740256.92243;57.77338149920435;12.7668635580779;229.4285202032024;-0.2394673;0.8094903;-0.01121687;-1.595697126756748;-3.475023953804291;286.2629584648185;74.2294873120876;106.4795;0.8441676;0.409665;-0.2845951;-0.1623337;-0.4124282;-0.02487166;0.02761803;0;295474.7937118867;2824.427074152172;-0.001;1;0;2;
1510740256.932241;1510740256.932241;1510740256.932382;57.77338141852854;12.7668640730767;229.4289834909627;-0.2451834;0.8249223;-0.01280907;-1.59174999899892;-3.48965833676538;286.2661423924321;74.22948828820516;106.553;0.860588;0.1756136;-0.3238308;-0.04922049;-0.365882;-0.1221523;-0.1991786;0;295474.833711881;2824.467074146461;-0.001;1;0;2;
1510740256.941517;1510740256.941517;1510740256.941954;57.77338133622759;12.76686460053494;229.4294841813601;-0.2500809;0.8455813;-0.01456213;-1.596550315637915;-3.509171641675867;286.2694557445711;74.22948925410414;106.4756;0.8817869;-0.5262783;-0.6056907;0.08328114;-0.5918255;0.04803888;0.2536182;0;295474.8737128753;2824.50707514075;-0.001;1;0;2;
1510740257.017449;1510740257.017449;1510740257.017515;57.77338125169242;12.76686514248168;229.4299710290098;-0.25881;0.8679688;-0.01290338;-1.599386725397933;-3.531349667300989;286.2720117560612;74.22949020786022;106.6035;0.9057331;0.2169604;-0.5510543;0.05436971;-0.6633766;-0.01108237;-0.03588124;0;295474.9137128696;2824.547075135039;-0.001;1;0;2;
1510740257.087602;1510740257.087602;1510740257.087697;57.7733811643143;12.76686570114856;229.4304759525136;-0.267206;0.894941;-0.0144386;-1.598290018824804;-3.557045171579525;286.2743197610625;74.2294911475672;106.6243;0.9339799;0.01077828;-0.7549576;0.1059704;-0.7584606;-0.007021312;0.1437989;0;295474.9537128638;2824.587075129329;-0.001;1;0;2;
1510740257.13126;1510740257.13126;1510740257.131324;57.77338111962598;12.7668659877935;229.4307306055128;-0.2718173;0.9100002;-0.0135602;-1.599349392119951;-3.571336836001493;286.274380988297;74.22949161136754;106.6309;0.949729;0.1345375;-0.739213;0.07575272;-0.8061218;-0.02396586;0.171258;0;295474.973712861;2824.607075126473;-0.001;1;0;2;
1510740257.29345;1510740257.29345;1510740257.293513;57.7733809784273;12.76686687806669;229.4315261900289;-0.283338;0.9639466;-0.01337735;-1.599068097216335;-3.621452953855591;286.2754557500191;74.22894104391543;106.3799;1.004726;-0.02799689;-0.8311518;-0.1260254;-0.9032074;0.103308;-0.06829974;0;295475.0337139952;2824.66707611791;-0.001;1;0;2;
1510740257.302026;1510740257.302026;1510740257.305809;57.77338088044606;12.766867502001;229.4320559557308;-0.2974737;1.000652;-0.01380471;-1.596455318443671;-3.657323608760581;286.2778584670399;74.22838999603469;106.5562;1.043932;0.1227383;-0.9059113;0.1278055;-0.9668341;-0.03507059;0.01803042;0;295475.0737139895;2824.707076112203;-0.001;1;0;2;
1510740257.315356;1510740257.315356;1510740257.318;57.77338077873702;12.76686815161344;229.4326402252805;-0.3045175;1.041079;-0.01580879;-1.596595294280238;-3.694620808759808;286.279762990203;74.22783892654896;106.3043;1.084701;-0.04631561;-0.9452507;-0.1915021;-1.187019;0.00912628;0.1775508;0;295475.1137139838;2824.747076106496;-0.001;1;0;2;
1510740257.32778;1510740257.32778;1510740257.327882;57.77338067250182;12.76686882888963;229.4332580855778;-0.3201532;1.083114;-0.01616773;-1.592593221429672;-3.729156285037497;286.2821553195619;74.22728783346265;106.4669;1.129439;0.1192018;-0.8252168;0.03746255;-1.214007;0.03303605;0.1870128;0;295475.1537139781;2824.787076100789;-0.001;1;0;2;
1510740257.340519;1510740257.340519;1510740257.343976;57.77338056150264;12.76686953646925;229.4339479188998;-0.3327321;1.130116;-0.01889512;-1.589801970761046;-3.763587999793199;286.2843106115041;74.2267367147625;106.4056;1.17808;0.1078364;-0.8692658;-0.1147254;-1.278615;-0.06506813;0.104182;0;295475.1937149724;2824.827077095082;-0.001;1;0;2;
