SampleTimeStamp;SentTimeStamp;ReceivedTimeStamp;lat;lon;alt;vel_north;vel_east;vel_down;roll;pitch;heading;wander;track;speed;arate_lon;arate_trans;arate_down;accel_lon;accel_trans;accel_down;alignment;timeDistance.time1;timeDistance.time2;timeDistance.distanceTag;timeDistance.time1Type;timeDistance.time2Type;timeDistance.distanceType;
1510749238.79665;1510749238.79665;1510749238.796726;57.77246110069194;12.77335677993453;234.6361743231633;0.002405409;-0.01381791;0.001692092;-1.894217053068569;-2.25194585755864;108.098906994085;72.93360180140412;279.875;0.01402572;-0.04860498;0.02522144;-0.04806265;0.05298267;0.003234832;-0.03692651;0;304456.7134428182;11806.34723890245;-0.001;1;0;2;
1510749238.876809;1510749238.876809;1510749238.876885;57.77246111063159;12.77335675349219;234.6368132075442;0.004016052;-0.01312337;0.001811561;-1.893216592882064;-2.251492350016034;108.1003103259038;72.93301924485708;287.0153;0.01372412;0.09479403;0.06040082;0.07441206;0.0407987;-0.01725699;-0.04925727;0;304456.753443808;11806.38723989226;-0.001;1;0;2;
1510749238.956491;1510749238.956491;1510749238.956626;57.77246112038236;12.77335672673184;234.6374647557637;0.001691683;-0.01433429;0.001076255;-1.893857361665483;-2.252108289047286;108.1002624301115;72.93243668843175;276.7307;0.01443377;-0.06617172;-0.007929677;-0.08688606;0.002940007;-0.01823367;-0.01681848;0;304456.7934437978;11806.42723988206;-0.001;1;0;2;
1510749239.036672;1510749239.036672;1510749239.036792;57.77246113025724;12.77335669997869;234.6381113951423;0.003159073;-0.01444755;0.000849271;-1.893503191884037;-2.252413149100636;108.1012339318873;72.93185413208188;282.334;0.0147889;-0.01467458;-0.03844522;0.02424416;-0.04129102;-0.002719222;0.03131454;0;304456.8334437876;11806.46723987187;-0.001;1;0;2;
1510749239.095467;1510749239.095467;1510749239.095572;57.7724611400239;12.77335667306854;234.6387613876896;0.0001934286;-0.01570885;0.0008478692;-1.893734461055979;-2.252717292802942;108.1014895957066;72.93127157581898;270.7055;0.01571004;-0.1180584;-0.02297546;-0.213635;-0.05205621;0.02473902;0.04066307;0;304456.8734437774;11806.50723986168;-0.001;1;0;2;
1510749239.150013;1510749239.150013;1510749239.150096;57.77246114973911;12.7733566460811;234.6394118011278;0.0008962238;-0.01547068;0.001896609;-1.892917183078488;-2.252850505775742;108.1011628237664;72.93068901961671;273.3155;0.01549662;-0.1148384;0.06254374;-0.145866;-0.001076594;0.02955397;-0.01318325;0;304456.9134447672;11806.54724085149;-0.001;1;0;2;
1510749239.230037;1510749239.230037;1510749239.230147;57.77246115952983;12.77335661931569;234.6400538750839;0.001533561;-0.01460052;0.002244504;-1.891865336946898;-2.252120570064151;108.1019942655048;72.93010646332699;275.9961;0.01468084;-0.1405756;0.1061686;-0.07087781;0.04864183;0.0116516;-0.02634382;0;304456.953444757;11806.58724084129;-0.001;1;0;2;
1510749239.300403;1510749239.300403;1510749239.300725;57.77246116930237;12.7733565926215;234.6406965742957;0.003391013;-0.01404299;0.001123994;-1.889970057926561;-2.251633552990789;108.1024780953504;72.92952390696252;283.5756;0.01444661;0.2451258;0.009499743;-0.04346765;0.05849613;-0.005109154;-0.0312875;0;304456.9934447468;11806.6272408311;-0.001;1;0;2;
1510749239.346778;1510749239.346778;1510749239.346877;57.77246117522316;12.77335658114343;234.6409948454655;0.002706326;-0.01478394;0.002028185;-1.890752705357132;-2.25155714374939;108.1019085972565;72.92920324124825;280.3736;0.01502961;0.1612828;0.05817295;-0.06525573;-0.04621685;0.006714617;0.01603786;0;304457.0134449966;11806.64724082601;-0.001;1;0;2;
1510749239.536948;1510749239.536948;1510749239.537287;57.77246118848324;12.77335654363547;234.6418580216451;0.00117382;-0.01537649;0.001545211;-1.889623014822814;-2.25009311984043;108.1023557929027;72.92824124449115;274.3654;0.01542123;0.002585858;-0.0004974412;-0.1645373;-0.04786686;-0.01741807;0.01454996;0;304457.0734459813;11806.70724181074;-0.001;1;0;2;
1510749239.61678;1510749239.61678;1510749239.616845;57.77246119727226;12.77335651841017;234.6424327661597;0.002982136;-0.01545654;0.001927321;-1.889547765776111;-2.24985684647243;108.1031167254838;72.92759991348565;280.9203;0.01574159;0.1565157;0.01830685;-0.02274252;-0.05517881;-0.004715954;0.03375886;0;304457.1134459712;11806.74724180056;-0.001;1;0;2;
1510749239.664275;1510749239.664275;1510749239.664737;57.77246120582343;12.77335649283331;234.6429967684974;0.000474198;-0.01660787;0.002788288;-1.891562617483576;-2.248664428342254;108.1030105691385;72.92695858274151;271.6355;0.01661464;-0.04508406;0.1103806;-0.1724669;-0.04195793;0.005009345;-0.007715816;0;304457.153446961;11806.78724279038;-0.001;1;0;2;
1510749239.674359;1510749239.674359;1510749239.674442;57.77246121475004;12.77335646698424;234.6436007521234;0.00269264;-0.01679157;0.0003584872;-1.892863178283841;-2.248901605894257;108.1042496686092;72.92631725224452;279.1102;0.01700609;-0.05339191;-0.03375191;-0.05172246;0.02644009;0.01096678;-0.03758287;0;304457.1934469508;11806.82724278021;-0.001;1;0;2;
1510749239.69681;1510749239.69681;1510749239.697527;57.77246122840123;12.77335642831521;234.644556422583;0.003724441;-0.01637373;-0.0001737832;-1.890291574634682;-2.248402551219368;108.1048857238835;72.92535525646042;282.8147;0.01679198;-0.04187557;-0.01154404;0.02428558;-0.01195396;0.0166408;0.02776745;0;304457.2534469355;11806.88724276494;-0.001;1;0;2;
1510749239.708505;1510749239.708505;1510749239.708598;57.77246123721464;12.77335640295055;234.6451691865978;0.003732552;-0.01494671;0.002101283;-1.891482058316441;-2.246381195471514;108.1058647754491;72.9247139256416;284.0214;0.01540572;0.05636309;0.1206364;0.09860929;0.04306083;0.02475409;-0.0007378525;0;304457.2934479253;11806.92724375476;-0.001;1;0;2;
1510749239.716991;1510749239.716991;1510749239.717066;57.77246124570796;12.77335637787333;234.645774703654;0.002925911;-0.01463935;0.001487328;-1.893179384961593;-2.246847102110032;108.1063875843673;72.92407259443895;281.3026;0.01492888;0.04772291;-0.01751443;0.07313581;0.07278645;-0.002403343;-0.026195;0;304457.3334479152;11806.96724374458;-0.001;1;0;2;
1510749239.726177;1510749239.726177;1510749239.726285;57.77246125413676;12.77335635310423;234.6463401514374;0.001309589;-0.01507284;0.00139956;-1.892352780920638;-2.246890936043882;108.1060440172732;72.92343126299158;274.9656;0.01512962;0.04328823;-0.03757919;-0.0920928;0.01818472;0.01190048;-0.02402717;0;304457.3734479049;11807.0072437344;-0.001;1;0;2;
1510749239.786863;1510749239.786863;1510749239.786991;57.77246126278884;12.77335632826352;234.646912336429;0.001226619;-0.01574165;0.001144438;-1.889490780611345;-2.247661697937853;108.1069599077252;72.92278993166995;274.4556;0.01578937;0.06582835;-0.04992049;-0.1128338;-0.05661194;0.02141677;0.009736053;0;304457.4134478948;11807.04724372422;-0.001;1;0;2;
1510749239.86683;1510749239.86683;1510749239.866933;57.77246127137627;12.77335630294081;234.6475105704472;0.003051796;-0.01655455;0.0001348971;-1.888252367611898;-2.248905353895887;108.1081061440069;72.92214860072035;280.4451;0.0168335;-0.07007637;-0.09090952;0.07441899;-0.07310505;-0.001495661;0.02752172;0;304457.4534488846;11807.08724471404;-0.001;1;0;2;
1510749239.946798;1510749239.946798;1510749239.946859;57.77246127978681;12.77335627701826;234.6481199329164;0.00289794;-0.01701667;0.001152346;-1.889358344930294;-2.24900846786906;108.1086195223727;72.92150727025795;279.6648;0.01726167;-0.1294803;0.04703489;0.08664587;-0.05106077;-0.01105357;-0.004804146;0;304457.4934488744;11807.12724470387;-0.001;1;0;2;
1510749240.02686;1510749240.02686;1510749240.026963;57.77246128853295;12.77335625092264;234.6487450021497;0.004960261;-0.01664275;0.001167709;-1.889583703393322;-2.248623382696504;108.1108690772734;72.92086594006562;286.5963;0.01736621;0.03515246;0.06632047;0.1798312;0.03892932;-0.02003336;-0.01127151;0;304457.5334488642;11807.16724469369;-0.001;1;0;2;
1510749240.094462;1510749240.094462;1510749240.094996;57.77246129737573;12.77335622491426;234.6493519040853;0.003795671;-0.01646993;0.001436319;-1.888602769782283;-2.246941287743959;108.1116678194655;72.92022460980293;282.9778;0.01690165;-0.03807118;0.08780638;0.06917074;0.09392742;-0.003833222;-0.0333289;0;304457.5734498541;11807.20724568351;-0.001;1;0;2;
1510749240.102017;1510749240.102017;1510749240.102081;57.77246130181479;12.77335621191694;234.6496666673937;0.004558178;-0.01734414;0.0005722574;-1.888610496382668;-2.24742560794237;108.11171573226;72.91990394458151;284.7248;0.01793311;-0.1459126;-0.04564613;0.1224784;-0.04318075;0.01510063;0.06289332;0;304457.593449849;11807.22724567842;-0.001;1;0;2;
1510749240.110787;1510749240.110787;1510749240.110941;57.77246131059498;12.77335618602806;234.6502422166747;0.002775611;-0.01713085;0.00231577;-1.89006131368785;-2.245946731415072;108.1117297023991;72.91926261412925;279.2033;0.01735425;-0.1340525;0.0753617;-0.01324293;0.01188466;0.01503778;-0.01200846;0;304457.6334498388;11807.26724566824;-0.001;1;0;2;
1510749240.11746;1510749240.11746;1510749240.11757;57.77246131925303;12.77335616037211;234.6508141003039;0.002242954;-0.01651124;0.002189132;-1.890316963050201;-2.244916600233417;108.1111467125652;72.9186212834495;277.7359;0.01666289;0.1755718;0.04667949;-0.1126733;0.08753221;0.001511888;-0.01620718;0;304457.6734498286;11807.30724565806;-0.001;1;0;2;
1510749240.125735;1510749240.125735;1510749240.125842;57.77246132783407;12.7733561351537;234.651382660447;0.002226562;-0.01548078;0.002643218;-1.891711069453817;-2.24411079299509;108.1117684481374;72.91797995243218;278.1846;0.01564008;0.03542718;0.1169351;-0.01945364;0.0485256;-0.02744761;-0.04414015;0;304457.7134508184;11807.34724664788;-0.001;1;0;2;
1510749240.135548;1510749240.135548;1510749240.136173;57.77246133635272;12.7733561100365;234.651977620575;0.002438494;-0.01609615;0.0003747476;-1.891594411763686;-2.245090289640674;108.1127140260816;72.91733862129183;278.6146;0.01627981;0.09618327;-0.08194876;0.001871718;-0.001883796;0.0093989;-0.01714451;0;304457.7534508083;11807.38724663771;-0.001;1;0;2;
1510749240.142059;1510749240.142059;1510749240.142189;57.77246134476491;12.77335608487063;234.6525727205954;0.0004154091;-0.01744957;-0.000103012;-1.891907826159483;-2.245885967315139;108.1138968277877;72.91669729020576;271.3637;0.01745451;-0.1420969;-0.1102985;-0.1044572;-0.06916881;0.002361448;0.03917592;0;304457.7934507981;11807.42724662753;-0.001;1;0;2;
1510749240.147803;1510749240.147803;1510749240.147942;57.77246135320527;12.77335605943222;234.6531645253299;0.003910492;-0.01691238;0.00124419;-1.892134575720327;-2.246612162387241;108.1158938423924;72.91605595939583;283.0192;0.01735859;-0.01733028;-0.04130343;0.176405;-0.07003565;0.02117651;0.03517144;0;304457.8334517879;11807.46724761735;-0.001;1;0;2;
1510749240.190203;1510749240.190203;1510749240.190336;57.77246136152391;12.77335603362467;234.6537506323994;0.000792561;-0.01795725;0.002644227;-1.891813461717782;-2.246428667990876;108.1157088564239;72.91541462883677;272.5272;0.01797473;0.1355798;0.1073667;-0.1785745;0.009621165;0.003637941;-0.01126669;0;304457.8734517777;11807.50724760717;-0.001;1;0;2;
1510749240.270374;1510749240.270374;1510749240.270541;57.77246137011982;12.77335600779227;234.6543293698483;0.003430726;-0.0171432;0.001994923;-1.891622156752368;-2.245353555078522;108.1166529457288;72.91477329839287;281.3166;0.01748312;-0.002800228;0.07836384;0.05939631;0.05351746;0.01075695;-0.04778551;0;304457.9134517676;11807.54724759699;-0.001;1;0;2;
1510749240.340219;1510749240.340219;1510749240.340654;57.77246137873001;12.77335598184043;234.65493129957;0.003521117;-0.01752552;0.0001360718;-1.890660947852197;-2.245501889038232;108.116287994957;72.91413196794261;281.3603;0.01787574;0.04192451;-0.06133381;0.01385788;0.03490587;-0.01921221;-0.04202724;0;304457.9534517574;11807.58724758681;-0.001;1;0;2;
1510749240.420088;1510749240.420088;1510749240.420235;57.77246138746817;12.77335595596803;234.6555263515572;0.004322429;-0.0175531;-0.0006853581;-1.892096810594747;-2.245134340738398;108.1174551669783;72.91349063748618;283.8338;0.01807747;-0.1078916;-0.1208294;0.1204389;0.008925384;-0.008306135;-0.007731677;0;304457.9934527472;11807.62724857663;-0.001;1;0;2;
1510749240.45717;1510749240.45717;1510749240.457276;57.7724613920453;12.77335594432397;234.6558936656374;0.001644552;-0.01826253;0.00188903;-1.89421829648712;-2.244617233257991;108.1175194912513;72.91362933107305;275.1456;0.01833643;-0.1921106;0.06821301;-0.05807478;0.03420373;0.02872288;0.005428301;0;304458.0134519966;11807.64724857154;-0.001;1;0;2;
1510749240.539697;1510749240.539697;1510749240.539863;57.77246140789804;12.77335591073582;234.6570086468247;0.002314925;-0.01833111;-0.000220341;-1.895890567544286;-2.244358731135816;108.1172039235033;72.91404541174413;277.1974;0.0184767;-0.02526638;-0.1009462;-0.04530925;-0.0398138;0.01188816;0.04125634;0;304458.0734519813;11807.70724855625;-0.001;1;0;2;
1510749240.546167;1510749240.546167;1510749240.546268;57.77246141849506;12.77335588868303;234.6577369718568;0.003728307;-0.01714076;0.001935173;-1.897485830416126;-2.243443428806531;108.1183537296222;72.91432279866473;282.2713;0.01754155;-0.01903262;0.0508064;0.09334575;0.02268068;-0.003538169;0.003088835;0;304458.1134529711;11807.74724954606;-0.001;1;0;2;
1510749240.554478;1510749240.554478;1510749240.555088;57.77246142905602;12.77335586661231;234.6584635676612;0.002795484;-0.01725155;0.002118824;-1.898874976063741;-2.243337941923907;108.1187742680436;72.91460018553144;279.2043;0.01747658;-0.02925408;0.0522616;0.01651262;0.06973068;0.0210618;0.007949315;0;304458.1534529609;11807.78724953586;-0.001;1;0;2;
1510749240.562394;1510749240.562394;1510749240.562497;57.77246143946751;12.77335584444067;234.659182334652;0.002442594;-0.01739356;0.0009834439;-1.898863702082194;-2.243417900391278;108.1175731607205;72.91487757241606;277.9938;0.01756423;-0.05335259;-0.01263118;-0.01914805;0.03860618;-0.005736552;-0.04558906;0;304458.1934529507;11807.82724952567;-0.001;1;0;2;
1510749240.56983;1510749240.56983;1510749240.570205;57.77246145512507;12.7733558109495;234.6602956462504;0.006258724;-0.01665174;0.001416643;-1.895954100854801;-2.24424476409783;108.1166537749433;72.91529365300173;290.5992;0.0177891;0.1895456;0.06562304;0.2854802;0.05540847;0.009962179;-0.04839532;0;304458.2534539354;11807.88725051038;-0.001;1;0;2;
1510749240.64687;1510749240.64687;1510749240.646996;57.77246146518801;12.7733557884714;234.6610580755848;0.002186005;-0.01754337;0.0007982043;-1.89527219772944;-2.243865508216103;108.1143950830494;72.91557104012337;277.1028;0.01767904;0.1636022;0.07176515;-0.04455293;0.06178146;0.01080749;-0.01814407;0;304458.2934539252;11807.92725050019;-0.001;1;0;2;
1510749240.726669;1510749240.726669;1510749240.726732;57.77246147542072;12.7733557661606;234.6618189718022;0.0005956336;-0.01802755;0.0005258196;-1.892677256069405;-2.243669246756234;108.1134171872316;72.91584842719142;271.8924;0.01803738;0.118018;0.03621926;-0.2071804;0.03908448;0.0007347799;-0.02816943;0;304458.333453915;11807.96725049;-0.001;1;0;2;
1510749240.80671;1510749240.80671;1510749240.806772;57.77246148589301;12.77335574401343;234.6625658986688;0.004480236;-0.0172486;0.0008257343;-1.890281552444697;-2.243836563362752;108.1138478251419;72.91612581417318;284.5605;0.01782097;0.05327414;-0.008723083;0.1012866;-0.0402233;-0.008435794;0.03916725;0;304458.3734549048;11808.0072514798;-0.001;1;0;2;
1510749240.860122;1510749240.860122;1510749240.860226;57.77246149107867;12.77335573279133;234.6629133042052;0.001996765;-0.01806169;0.003379121;-1.889587995542114;-2.243118490486279;108.1133452657547;72.9162645077804;276.3086;0.01817173;0.0564827;0.1582702;-0.1019976;0.03710562;-0.001452237;-0.006381073;0;304458.3934548998;11808.02725147471;-0.001;1;0;2;
1510749240.980199;1510749240.980199;1510749240.980302;57.77246150685167;12.77335569897425;234.6639855833417;0.003409862;-0.01883023;0.002147777;-1.890483235367849;-2.243606122730857;108.1127916298864;72.91668058861296;280.2642;0.01913647;0.03749498;0.06136062;-0.08153158;-0.03448933;-0.01098517;0.006233446;0;304458.4534548845;11808.08725145942;-0.001;1;0;2;
1510749241.01574;1510749241.01574;1510749241.015842;57.77246151756958;12.77335567630113;234.6647038175235;0.004885248;-0.01834772;0.001142792;-1.890190879736446;-2.242792045204993;108.1127410526589;72.91695797602399;284.9096;0.01898696;0.04087534;0.05807192;0.04401415;0.03745407;-0.004210895;-0.03210217;0;304458.4934548743;11808.12725144923;-0.001;1;0;2;
1510749241.028232;1510749241.028232;1510749241.028399;57.77246152814717;12.77335565358051;234.6654440906945;0.004588712;-0.01805809;0.0008415438;-1.891131252184196;-2.241588105894428;108.112165231979;72.91723536344563;284.2576;0.01863199;0.1807792;0.07622299;0.006989932;0.07298578;-0.01425846;-0.05230331;0;304458.5334558641;11808.16725243903;-0.001;1;0;2;
1510749241.038189;1510749241.038189;1510749241.038295;57.77246153856577;12.77335563087654;234.6662065133775;0.00177105;-0.01898129;-0.001065423;-1.892795536475032;-2.241208087127164;108.111459671304;72.91751275079858;275.3306;0.01906373;0.2139074;-0.06182474;-0.2297776;0.02872012;-0.03994274;-0.02316282;0;304458.5734558539;11808.20725242884;-0.001;1;0;2;
1510749241.04462;1510749241.04462;1510749241.044786;57.77246154894988;12.77335560838772;234.6669549584051;0.003431246;-0.01831159;-0.0005365851;-1.893432253526061;-2.240817820361641;108.1122026171547;72.91779013806006;280.6131;0.01863029;-0.0202934;-0.05635871;0.03669195;-0.006863941;0.01074588;0.008411068;0;304458.6134558437;11808.24725241865;-0.001;1;0;2;
1510749241.051892;1510749241.051892;1510749241.051993;57.77246155912594;12.77335558587439;234.6676932985637;0.003355114;-0.01887284;-1.056828e-05;-1.892403979646987;-2.241591551082958;108.1120493664244;72.918067525273;280.0804;0.01916875;-0.01915889;-0.09774885;0.03252078;-0.06591781;0.01565975;0.0633609;0;304458.6534568335;11808.28725340846;-0.001;1;0;2;
1510749241.061134;1510749241.061134;1510749241.061268;57.77246156912838;12.77335556311248;234.6684069781323;0.002257606;-0.01982878;-0.0002622647;-1.893058620748578;-2.24245682656273;108.1111026111437;72.91834491262455;276.4955;0.01995688;0.01732687;-0.1432071;-0.09987746;-0.04016987;0.04363775;0.02764117;0;304458.6934568233;11808.32725339826;-0.001;1;0;2;
1510749241.071666;1510749241.071666;1510749241.071809;57.77246157934466;12.77335554045387;234.6691002596596;0.003115437;-0.01848949;0.003206224;-1.892142675050686;-2.242023881989325;108.1116279056033;72.91862230004594;279.5644;0.01875013;0.0115745;0.1682853;-0.01615744;0.04069915;0.01751056;-0.05030703;0;304458.7334568131;11808.36725338807;-0.001;1;0;2;
1510749241.110119;1510749241.110119;1510749241.110213;57.77246158954525;12.77335551764063;234.6698150214088;0.003026985;-0.01880044;0.0002001847;-1.892001715293646;-2.241676071045761;108.1109024765007;72.91889968751839;279.1465;0.01904256;0.02847654;0.008259158;-0.08399522;0.06869489;-0.01120272;-0.05625363;0;304458.7734568029;11808.40725337788;-0.001;1;0;2;
1510749241.190047;1510749241.190047;1510749241.190134;57.7724615998388;12.77335549484065;234.6705637058616;0.005339249;-0.01838741;-0.001641504;-1.891838793684701;-2.241360759058581;108.1101002806569;72.91917707497468;286.192;0.01914692;-0.06823827;-0.07302007;0.1160575;0.03349718;-0.03664821;-0.060938;0;304458.8134577927;11808.44725436769;-0.001;1;0;2;
1510749241.270027;1510749241.270027;1510749241.270089;57.77246161019028;12.77335547215714;234.6713466098894;0.004292205;-0.01891155;-0.002204255;-1.892195380264869;-2.241697949085881;108.110092435334;72.91945446233542;282.7874;0.01939251;-0.05667598;-0.1156594;0.02287222;-0.03556718;-0.01384125;0.0439472;0;304458.8534577825;11808.48725435749;-0.001;1;0;2;
1510749241.340207;1510749241.340207;1510749241.340315;57.77246162049836;12.77335544958945;234.6720966371535;0.004070797;-0.01865195;0.0005593424;-1.893305995944137;-2.240942272764713;108.1105439028661;72.9197318496573;282.3118;0.01909101;-0.02611454;0.05615806;0.01444983;-0.0417786;-0.03173147;0.03292269;0;304458.8934577723;11808.5272543473;-0.001;1;0;2;
1510749241.420366;1510749241.420366;1510749241.420435;57.77246163072089;12.77335542695353;234.6728228248983;0.00404941;-0.01966553;0.00131952;-1.894369693443553;-2.240971866705781;108.1104899831694;72.92000923697746;281.6354;0.02007812;-0.09002189;0.0134271;-0.001432439;-0.09562977;-0.04165951;0.04938598;0;304458.9334587621;11808.56725533711;-0.001;1;0;2;
1510749241.44117;1510749241.44117;1510749241.443897;57.772461641184;12.77335540261676;234.673514937158;0.004116367;-0.02482993;0.00259026;-1.89626590954111;-2.242579963283041;108.1089745247537;72.92028662557945;279.413;0.02516883;-0.09655346;0.01020691;-0.1735708;-0.1764227;0.007597883;0.06765687;0;304458.973458752;11808.60725532692;-0.001;1;0;2;
1510749241.467975;1510749241.467975;1510749241.468825;57.77246165796293;12.77335535792112;234.6743627615186;0.01050251;-0.04376874;0.002835367;-1.896557418004703;-2.255032523970885;108.1079528515378;72.92053739501129;283.4933;0.04501117;-0.181225;-0.3134521;-0.07932086;-0.4160423;0.01057711;0.09498397;0;304459.0334589914;11808.66725531163;-0.001;1;0;2;
1510749241.479368;1510749241.479368;1510749241.479477;57.77246166433073;12.77335533878566;234.6745989960092;0.01650115;-0.05174894;0.002168979;-1.89702503805533;-2.261586669843552;108.1085438247064;72.92059343506864;287.6859;0.05431612;0.01293806;-0.4490362;0.1385851;-0.5002767;-0.009410166;0.08940515;0;304459.0534599863;11808.68725630653;-0.001;1;0;2;
1510749241.489678;1510749241.489678;1510749241.489781;57.77246167869202;12.77335528980423;234.6750568556289;0.02366447;-0.07432536;0.003863967;-1.899294828461411;-2.280611739096031;108.1089018824431;72.92070552392094;287.6609;0.07800171;0.06029962;-0.5672027;0.1299906;-0.6177284;-0.002087265;0.1085158;0;304459.0934599761;11808.72725629634;-0.001;1;0;2;
1510749241.501699;1510749241.501699;1510749241.501803;57.77246169584947;12.77335522482559;234.6754568983239;0.03183085;-0.09991418;0.006045802;-1.899223188014275;-2.303720078896165;108.1094143432304;72.92081762617408;287.6709;0.104862;0.09231774;-0.6024625;0.1165602;-0.7222656;0.009522758;0.1240822;0;304459.133459966;11808.76725628614;-0.001;1;0;2;
1510749241.513604;1510749241.513604;1510749241.513707;57.77246171635069;12.77335514142391;234.6758255803268;0.03893436;-0.1294022;0.005830001;-1.899165224360792;-2.33150262902084;108.1114542088279;72.92092974388611;286.7454;0.1351326;-0.1053153;-0.7636119;-0.03781706;-0.7651651;-0.01184013;0.08891533;0;304459.1734599558;11808.80725627595;-0.001;1;0;2;
1510749241.587126;1510749241.587126;1510749241.587204;57.7724617401642;12.77335503884403;234.6761616630323;0.04764682;-0.1590317;0.006726634;-1.898579532207548;-2.36076103015028;108.1122150539637;72.92104187770337;286.6785;0.166016;-0.1346831;-0.7432379;-0.1378324;-0.8159516;0.005205517;0.07246025;0;304459.2134609456;11808.84725726576;-0.001;1;0;2;
1510749241.646864;1510749241.646864;1510749241.646997;57.77246175348262;12.77335498022486;234.6763106780397;0.05521241;-0.1722406;0.00627482;-1.896328559837622;-2.374041720711997;108.1128033839888;72.92109795091424;287.7735;0.1808735;-0.01484321;-0.7252471;0.06946217;-0.7874819;-0.04593357;-0.0205454;0;304459.2334609405;11808.86725726066;-0.001;1;0;2;
1510749241.727041;1510749241.727041;1510749241.727193;57.77246178258559;12.77335484759195;234.6766370098397;0.06248249;-0.2031862;0.00503813;-1.895530058554117;-2.401144430126428;108.1120599966994;72.92121011017908;287.0934;0.2125763;-0.007782725;-0.7394107;-0.1915877;-0.8435251;-0.04745505;-0.02781403;0;304459.2734609303;11808.90725725047;-0.001;1;0;2;
1510749241.807037;1510749241.807037;1510749241.8072;57.77246181535844;12.77335469515894;234.6769703329993;0.07272169;-0.2331015;0.004166428;-1.89618058071828;-2.42294871225199;108.1124500935372;72.9213222864596;287.3266;0.2441818;-0.2378454;-0.5994497;-0.1249764;-0.9166448;-0.05929732;-0.02344617;0;304459.3134609201;11808.94725724028;-0.001;1;0;2;
1510749241.886817;1510749241.886817;1510749241.886903;57.77246185160516;12.77335452273699;234.6773301898999;0.08484873;-0.2619146;0.002994368;-1.895404596243312;-2.438425778763988;108.1109227916251;72.92143447985165;287.95;0.2753154;-0.1471115;-0.5004778;0.04373549;-0.878769;-0.04460315;0.007686344;0;304459.3534619099;11808.98725823008;-0.001;1;0;2;
1510749241.896935;1510749241.896935;1510749241.897;57.77246189116566;12.77335433142383;234.677733312044;0.09323996;-0.2902761;0.001838103;-1.895210919821941;-2.446599189793994;108.1091714946642;72.92154668952143;287.8076;0.3048834;-0.08488817;-0.291006;-0.05828487;-0.9314543;-0.04480554;0.02286305;0;304459.3934618997;11809.02725821989;-0.001;1;0;2;
1510749241.905569;1510749241.905569;1510749241.905675;57.77246193413086;12.77335412126543;234.6781793788502;0.1046211;-0.3172547;0.004271389;-1.895332242935451;-2.447495436020926;108.1080198447765;72.92165891547428;288.251;0.33406;0.01396945;0.1072657;0.1277763;-0.8880257;-0.006301823;0.08471122;0;304459.4334618895;11809.0672582097;-0.001;1;0;2;
1510749241.914705;1510749241.914705;1510749241.914809;57.77246198033599;12.77335389191265;234.6786718186663;0.1131285;-0.3465911;0.003985972;-1.895418050304721;-2.444586070008639;108.1066388454097;72.92177115781855;288.0769;0.3645867;0.09148995;0.1889228;0.04821593;-0.8497517;0.01586512;0.1062632;0;304459.4734628793;11809.10725919951;-0.001;1;0;2;
1510749241.923614;1510749241.923614;1510749241.923718;57.77246202991621;12.77335364311325;234.6791937693617;0.1210809;-0.3760146;0.003720808;-1.896284750525491;-2.440328079262378;108.1052145667928;72.92188341665705;287.8492;0.3950286;0.1199082;0.2147169;-0.09427773;-0.731223;0.01416619;0.05063992;0;304459.5134628692;11809.14725918931;-0.001;1;0;2;
1510749241.932295;1510749241.932295;1510749241.932399;57.77246208315459;12.77335337448898;234.6797213327609;0.1323036;-0.4049773;0.003250032;-1.895387335445563;-2.436798175065171;108.1040325351653;72.92199569227573;288.0919;0.4260409;0.02302135;0.1793426;0.04378131;-0.694399;0.01653109;-0.04734331;0;304459.553462859;11809.18725917912;-0.001;1;0;2;
1510749241.941149;1510749241.941149;1510749241.941275;57.77246213996789;12.77335308511875;234.6802740091078;0.1427775;-0.4356892;0.001540754;-1.892851508800615;-2.438815285273333;108.1015853257869;72.92210798516582;288.1442;0.4584872;0.163567;-0.02648563;0.03267737;-0.7441716;-0.01339921;-0.03180429;0;304459.5934638488;11809.22726016893;-0.001;1;0;2;
1510749242.000182;1510749242.000182;1510749242.000288;57.77246220031758;12.77335277500185;234.6807987452709;0.1509541;-0.4683649;0.001448736;-1.891586136631228;-2.443464403299318;108.0994069103025;72.92222029548489;287.8641;0.4920903;-0.1302896;-0.2066455;-0.06907948;-0.927439;0.01423481;0.2037905;0;304459.6334638385;11809.26726015874;-0.001;1;0;2;
1510749242.080349;1510749242.080349;1510749242.080453;57.7724622642424;12.77335244374506;234.6812571649712;0.1631516;-0.4996709;0.004936322;-1.890741436624751;-2.447242696810039;108.0976417420192;72.92233262373895;288.0828;0.5256324;-0.1407974;-0.08759726;0.1257249;-0.908897;0.009589606;0.1630214;0;304459.6734638283;11809.30726014854;-0.001;1;0;2;
1510749242.120825;1510749242.120825;1510749242.120928;57.77246233171597;12.77335209107175;234.6816827963796;0.1719547;-0.5312442;0.006513901;-1.888233026907272;-2.449831307286753;108.0941796770183;72.92244497010293;287.9359;0.5583805;0.3077457;0.1131428;-0.1287013;-0.7874169;-0.02963716;-0.1140481;0;304459.7134638182;11809.34726013835;-0.001;1;0;2;
1510749242.200176;1510749242.200176;1510749242.200344;57.77246240289887;12.77335171744887;234.6821204938241;0.1834572;-0.5611315;0.004134284;-1.885547072991886;-2.450116039927475;108.0904323784387;72.92255733427757;288.1047;0.5903602;0.3232383;0.09253924;-0.0420019;-0.7320368;-0.03499184;-0.1430945;0;304459.753464808;11809.38726112816;-0.001;1;0;2;
1510749242.280158;1510749242.280158;1510749242.280253;57.77246247785453;12.77335132270812;234.6825822204269;0.1920134;-0.5947051;0.0007018195;-1.884239059329122;-2.45053719886557;108.0865467315035;72.92266971628102;287.8938;0.6249346;-0.1076121;-0.2089609;-0.1583346;-0.850664;0.03841744;0.1533452;0;304459.7934647978;11809.42726111797;-0.001;1;0;2;
1510749242.30487;1510749242.30487;1510749242.30504;57.77246255660869;12.77335090688552;234.683020827942;0.2015955;-0.626255;0.005111895;-1.884524892755208;-2.450142797756269;108.0830139445931;72.92278211614567;287.8437;0.6579028;-0.2923441;0.03139325;-0.1455922;-0.898535;0.04634041;0.185019;0;304459.8334647876;11809.46726110777;-0.001;1;0;2;
1510749242.313262;1510749242.313262;1510749242.313361;57.77246263927358;12.77335047016997;234.6834343893828;0.2159939;-0.6556454;0.00600327;-1.881600907279321;-2.448401356778648;108.0796298383156;72.92289453380288;288.2338;0.6903074;0.3885546;0.127317;-0.02890427;-0.7419847;-0.06398089;-0.06679029;0;304459.8734657774;11809.50726209758;-0.001;1;0;2;
1510749242.319148;1510749242.319148;1510749242.319261;57.77246272574712;12.77335001243491;234.6838267754117;0.2274952;-0.6864774;0.004434829;-1.882938503909859;-2.445828218821487;108.0765793268014;72.92300696922474;288.3349;0.723191;0.1056638;0.06722535;0.08522825;-0.7631208;-0.1272027;-0.1448868;0;304459.9134657672;11809.54726208739;-0.001;1;0;2;
1510749242.324386;1510749242.324386;1510749242.324485;57.77246281601716;12.77334953330065;234.6842478298433;0.2349279;-0.7202812;0.004719812;-1.88705378430793;-2.446444694157938;108.0729580252085;72.92311942253636;288.0643;0.7576253;-0.1288006;-0.05741564;-0.132861;-0.8548102;-0.009419333;0.2441929;0;304459.953465757;11809.5872620772;-0.001;1;0;2;
1510749242.334425;1510749242.334425;1510749242.334556;57.77246291019177;12.77334903256085;234.6846163366432;0.2453896;-0.7532391;0.007854024;-1.887436207389139;-2.447398103983386;108.0693820256431;72.92323189417348;288.0445;0.7922027;0.08323826;0.02440189;-0.1610961;-0.9026235;0.002813728;0.1193417;0;304459.9934657468;11809.627262067;-0.001;1;0;2;
1510749242.337548;1510749242.337548;1510749242.337652;57.77246295860432;12.7733487757835;234.6847776266584;0.2511442;-0.7692773;0.003430456;-1.886471803671218;-2.448817918047997;108.068228417639;72.92302944730265;288.0802;0.8092348;-0.1276882;-0.2668376;-0.08682542;-0.8906963;0.05030517;0.1861917;0;304460.0134669965;11809.64726306191;-0.001;1;0;2;
1510749242.44688;1510749242.44688;1510749242.446963;57.77246310574947;12.77334796974219;234.6852427781185;0.2668538;-0.8189526;0.00366377;-1.889756141636856;-2.454821259071035;108.063913095908;72.92242213514109;288.0481;0.8613329;-0.1510645;-0.233561;0.004514952;-0.9280841;0.03540901;0.05616318;0;304460.0734669813;11809.70726304662;-0.001;1;0;2;
1510749242.496716;1510749242.496716;1510749242.496825;57.77246320851662;12.77334740455378;234.6855678599113;0.2743031;-0.8534939;0.006830909;-1.892718319276477;-2.458816366432099;108.0598821515231;72.92201728383652;287.8168;0.8964899;-0.1643454;-0.06874549;-0.2853999;-0.9653084;0.102251;0.2054273;0;304460.1134669711;11809.74726303642;-0.001;1;0;2;
1510749242.576856;1510749242.576856;1510749242.576985;57.77246331554791;12.77334681724579;234.6858822233614;0.2883109;-0.8848361;0.006744905;-1.887650914299858;-2.461253002825158;108.0564105191359;72.92161245147064;288.0475;0.9306224;0.3522416;-0.0211903;-0.181363;-0.7832085;-0.02277581;-0.07683739;0;304460.1534679609;11809.78726402623;-0.001;1;0;2;
1510749242.656952;1510749242.656952;1510749242.65702;57.7724634263732;12.77334620769627;234.6862053601893;0.2980768;-0.9183561;0.004814286;-1.886902083874245;-2.463816302310319;108.0523007039429;72.92120763781158;287.9822;0.9655193;-0.1561063;-0.09792039;-0.1879292;-0.9268523;-0.02475076;-0.003981698;0;304460.1934679507;11809.82726401604;-0.001;1;0;2;
1510749242.746179;1510749242.746179;1510749242.746271;57.77246359977951;12.77334525133051;234.6865981747823;0.3158776;-0.9679364;0.005682873;-1.88488093965134;-2.464503508321499;108.0454239821417;72.92060045300309;288.0736;1.018175;-0.1539408;-0.1086578;-0.0625898;-0.9071781;-0.08540744;0.01353441;0;304460.2534679354;11809.88726400075;-0.001;1;0;2;
1510749242.751509;1510749242.751509;1510749242.751617;57.77246372017506;12.77334458554603;234.6868389432898;0.3262779;-1.002794;0.00723664;-1.88842239076908;-2.465931050289819;108.0419127414417;72.92019568692504;288.0233;1.054539;-0.2973399;-0.1585397;-0.04896482;-0.9701846;0.04196199;0.1760468;0;304460.2934689252;11809.92726499056;-0.001;1;0;2;
1510749242.756586;1510749242.756586;1510749242.756696;57.77246384495383;12.77334389660037;234.6870581172584;0.3383982;-1.036875;0.008820004;-1.887204494244855;-2.467393004518434;108.0384942321415;72.91979094052056;288.0748;1.090699;0.2599155;0.0291598;-0.2122339;-0.9010776;-0.1007331;-0.114716;0;304460.333468915;11809.96726498037;-0.001;1;0;2;
1510749242.762112;1510749242.762112;1510749242.762214;57.77246397395255;12.77334318337934;234.6873139042912;0.3483006;-1.074792;0.006304811;-1.890129756634442;-2.471875977074058;108.0337470409732;72.91938621438607;287.9556;1.129819;-0.3889323;-0.1952324;-0.2570848;-0.9440959;0.01376241;0.1673229;0;304460.3734689048;11810.00726497017;-0.001;1;0;2;
1510749242.776393;1510749242.776393;1510749242.776494;57.77246410729925;12.77334244540729;234.6875513982656;0.3631743;-1.111505;0.009680044;-1.893369671765265;-2.476345832711246;108.0301525834834;72.91898150924311;288.0944;1.169332;0.09526004;-0.01315961;-0.09721898;-0.9544891;-0.03497386;0.03596054;0;304460.4134698946;11810.04726595998;-0.001;1;0;2;
1510749242.784335;1510749242.784335;1510749242.784523;57.77246417567172;12.77334206676238;234.6876900918763;0.3690819;-1.131643;0.005809839;-1.896996026567007;-2.480578571561515;108.0289818731597;72.91877916475484;288.0636;1.19031;-0.4011131;-0.356898;0.004537714;-1.059005;0.122142;0.1490062;0;304460.4334698895;11810.06726595488;-0.001;1;0;2;
1510749242.827078;1510749242.827078;1510749242.82724;57.77246431585266;12.77334128997123;234.6878996938881;0.3835159;-1.169662;0.008508959;-1.898114142899477;-2.486329660610535;108.0262568839439;72.91837449247353;288.1536;1.230932;0.09654388;-0.1843247;-0.02133691;-1.003982;-0.03529555;0.006078173;0;304460.4734698794;11810.10726594469;-0.001;1;0;2;
1510749242.907166;1510749242.907166;1510749242.907232;57.772464460289;12.77334048671863;234.6880935376244;0.3940475;-1.209326;0.009825103;-1.901370825819589;-2.493797512893278;108.0219406762658;72.91796984238761;288.0477;1.271905;-0.04095341;-0.1706087;-0.1144764;-1.01999;-0.04673482;0.1278887;0;304460.5134698692;11810.1472659345;-0.001;1;0;2;
1510749242.986856;1510749242.986856;1510749242.986937;57.77246460933539;12.77333965650347;234.6882630256536;0.4058858;-1.250331;0.009722742;-1.90254115501058;-2.502642531204184;108.0173756347593;72.91756521507226;287.9846;1.314561;0.04343168;-0.2096846;-0.2605569;-1.008859;-0.01684749;-0.02298059;0;304460.553470859;11810.18726692431;-0.001;1;0;2;
1510749243.067071;1510749243.067071;1510749243.067238;57.77246476335242;12.7733387987459;234.6883989598889;0.4207323;-1.292506;0.01090183;-1.902030075570398;-2.512275004909029;108.0155477765838;72.91716061118778;288.0309;1.35926;-0.0485958;-0.2917548;-0.06334619;-1.118687;0.03442488;0.1542353;0;304460.5934708487;11810.22726691411;-0.001;1;0;2;
1510749243.106924;1510749243.106924;1510749243.107027;57.77246492176712;12.77333791233814;234.6884951621961;0.4334883;-1.335186;0.01134229;-1.903519571360906;-2.522290577023853;108.0109030120156;72.91675603134863;287.9868;1.403793;0.02535013;-0.264265;-0.1742931;-1.135533;-0.006011098;0.04421487;0;304460.6334708386;11810.26726690392;-0.001;1;0;2;
1510749243.168651;1510749243.168651;1510749243.168758;57.77246508544027;12.77333699677259;234.688557820908;0.4476195;-1.379154;0.01249428;-1.902365452276513;-2.531810317029821;108.0065234054884;72.91635147625323;287.9814;1.449976;-0.1550155;-0.2331882;-0.1349429;-1.159799;0.0281368;0.04187387;0;304460.6734708284;11810.30726689373;-0.001;1;0;2;
1510749243.181148;1510749243.181148;1510749243.181271;57.77246525404638;12.77333605178481;234.6886001916977;0.4612282;-1.422378;0.013166;-1.898480592390263;-2.540050073031061;108.0006229729578;72.91594694607052;287.9661;1.49529;-0.04783832;-0.1562519;-0.1756115;-1.094687;0.02251909;0.05709532;0;304460.7134718182;11810.34726788354;-0.001;1;0;2;
1510749243.192529;1510749243.192529;1510749243.192635;57.77246542753948;12.77333507773828;234.6886354049901;0.4749994;-1.465539;0.01299838;-1.89842117063543;-2.547369905215795;107.9939995631373;72.91554244041104;287.9582;1.540594;0.07173741;-0.1314319;-0.2721887;-1.081927;0.01582714;-0.07722306;0;304460.753471808;11810.38726787334;-0.001;1;0;2;
1510749243.1985;1510749243.1985;1510749243.198599;57.7724656065067;12.77333407480915;234.6887054632158;0.4892919;-1.509401;0.01130744;-1.896479089308213;-2.555526269573145;107.9890603006899;72.915137959264;287.9608;1.586726;-0.1187467;-0.2624782;-0.2528001;-1.151539;-0.02973055;0.1233583;0;304460.7934717978;11810.42726786315;-0.001;1;0;2;
1510749243.204854;1510749243.204854;1510749243.204958;57.77246579039149;12.77333304314929;234.6887611827001;0.5040634;-1.55137;0.01274122;-1.897217928292766;-2.561634741533242;107.983303099803;72.91473350242508;287.9998;1.631205;0.1286895;-0.116169;-0.1963069;-1.085928;0.004602949;0.03891277;0;304460.8334727876;11810.46726885296;-0.001;1;0;2;
1510749243.210546;1510749243.210546;1510749243.210652;57.7724659793658;12.77333198264561;234.688822273147;0.5165901;-1.594688;0.0121337;-1.897782438914437;-2.566238451188786;107.9776665278579;72.91432907006021;287.9494;1.676274;0.001814614;-0.08022223;-0.3448969;-1.126801;-0.06263269;-0.05118256;0;304460.8734727774;11810.50726884276;-0.001;1;0;2;
1510749243.216272;1510749243.216272;1510749243.216376;57.77246617326796;12.77333089355914;234.6888875091808;0.5335749;-1.635798;0.01359085;-1.897964813196437;-2.570260660306972;107.9714679490967;72.91392466187774;288.0656;1.720621;0.1674557;0.02191229;-0.07555113;-1.132766;-0.06312754;0.02324203;0;304460.9134727672;11810.54726883257;-0.001;1;0;2;
1510749243.276927;1510749243.276927;1510749243.27707;57.77246637158404;12.77332977546997;234.688952378595;0.5442803;-1.680057;0.01139986;-1.901385610210149;-2.573412998019831;107.9614106108968;72.91352027802083;287.9505;1.766021;0.01339952;-0.1006317;-0.3194004;-1.123254;-0.02256899;-0.05994352;0;304460.953473757;11810.58726982238;-0.001;1;0;2;
1510749243.346978;1510749243.346978;1510749243.347127;57.77246657515042;12.7733286285616;234.6890122545616;0.5585004;-1.722816;0.01251478;-1.904921053417825;-2.577222202514921;107.9531885988001;72.91311591860557;287.9616;1.811082;-0.1022342;-0.1249483;-0.2456382;-1.096194;0.07023755;0.06943113;0;304460.9934737468;11810.62726981219;-0.001;1;0;2;
1510749243.387175;1510749243.387175;1510749243.38728;57.77246667868918;12.77332804753204;234.6890238292259;0.5660236;-1.744312;0.0133516;-1.906346740638217;-2.579884576553023;107.949043772004;72.91301729195676;287.9781;1.83385;-0.1116283;-0.119726;-0.2160417;-1.174705;-0.07458232;0.1454866;0;304461.0134729966;11810.64726980709;-0.001;1;0;2;
1510749243.580329;1510749243.580329;1510749243.580504;57.77246699540463;12.77332626100228;234.6889896912411;0.588378;-1.806397;0.01338262;-1.911030529912265;-2.590264073960052;107.9370555547738;72.91272144792495;288.0414;1.899805;0.1163504;-0.2771746;-0.1583337;-1.043928;-0.03005072;-0.002876646;0;304461.0734729813;11810.7072697918;-0.001;1;0;2;
1510749243.613837;1510749243.613837;1510749243.613937;57.77246721279754;12.77332503553083;234.6889022901677;0.6000625;-1.847051;0.01485485;-1.912541722069437;-2.596210498303413;107.9305970427665;72.91252424785966;287.9977;1.94208;-0.08191459;-0.158688;-0.1911412;-1.008289;0.0108659;-0.05522012;0;304461.1134739711;11810.74727078161;-0.001;1;0;2;
1510749243.624847;1510749243.624847;1510749243.62495;57.77246743475253;12.77332378287015;234.6888672767203;0.6136605;-1.886658;0.01422757;-1.916309904354728;-2.602362721849173;107.9246386084627;72.91232707077475;288.0178;1.98395;-0.1762113;-0.06383014;-0.04830364;-1.051839;-0.03901016;-0.03530434;0;304461.1534739609;11810.78727077142;-0.001;1;0;2;
1510749243.635404;1510749243.635404;1510749243.635509;57.77246766088248;12.77332250307478;234.6888527578939;0.6243904;-1.927627;0.0126427;-1.921303318293408;-2.604711819022828;107.9177426883505;72.91212991674085;287.948;2.026231;-0.1724299;-0.06054205;-0.1638454;-1.009175;0.00302459;0.03245438;0;304461.1934739507;11810.82727076122;-0.001;1;0;2;
1510749243.652195;1510749243.652195;1510749243.652301;57.77246800840614;12.77332053336022;234.6888815023428;0.6428296;-1.986758;0.01263439;-1.928559945007113;-2.604518841218711;107.9051402949995;72.91183422805608;287.9294;2.088166;-0.2782893;0.0474017;-0.224246;-1.047183;0.03760246;0.03529218;0;304461.2534749354;11810.88727174593;-0.001;1;0;2;
1510749243.661452;1510749243.661452;1510749243.661554;57.77246824545229;12.77331918677965;234.6889139970574;0.6555327;-2.026525;0.01237821;-1.931738178676144;-2.60419524111243;107.8933024372773;72.91163713041577;287.9252;2.129913;-0.1589664;-0.01478721;-0.1917021;-1.060156;0.102292;0.09422199;0;304461.2934749252;11810.92727173574;-0.001;1;0;2;
1510749243.667285;1510749243.667285;1510749243.667345;57.77246848676465;12.77331781361297;234.6888756784989;0.6657047;-2.066589;0.0135702;-1.935581726757303;-2.602759994115303;107.8811253678682;72.91144005528625;287.8552;2.171164;-0.2081035;-0.0648066;-0.3812696;-1.010477;0.02032182;0.1311873;0;304461.333474915;11810.96727172555;-0.001;1;0;2;
1510749243.727147;1510749243.727147;1510749243.727268;57.77246873249309;12.77331641411345;234.6887631372951;0.6787528;-2.105788;0.01705804;-1.938980165347839;-2.602313629158285;107.8697042443407;72.91124300243555;287.8655;2.212476;-0.1039179;0.02133092;-0.3279847;-1.045651;0.05872525;0.04227933;0;304461.3734759048;11811.00727271536;-0.001;1;0;2;
1510749243.830145;1510749243.830145;1510749243.830215;57.77246898276227;12.77331498795852;234.6886238362552;0.6922048;-2.144954;0.01693777;-1.944509162907315;-2.605216213743984;107.8596266299403;72.91104597202281;287.8856;2.25388;-0.08805877;-0.07667921;-0.22381;-1.071762;-0.03027341;0.05533737;0;304461.4134758947;11811.04727270516;-0.001;1;0;2;
1510749243.910149;1510749243.910149;1510749243.910257;57.77246923767131;12.77331353561891;234.6884905601108;0.7038721;-2.184105;0.01631003;-1.949709056350573;-2.609613482377596;107.8508544028967;72.91084896376722;287.8626;2.294722;-0.1919354;-0.1122488;-0.238741;-1.057937;0.00456963;0.03688135;0;304461.4534758845;11811.08727269497;-0.001;1;0;2;
1510749243.990202;1510749243.990202;1510749243.990302;57.77246949686728;12.7733120569623;234.6884160328649;0.714664;-2.223128;0.01559397;-1.952668813264851;-2.615756241497815;107.8411934891236;72.91065197769117;287.8209;2.335175;0.1795797;-0.03500366;-0.478637;-0.9907314;-0.09156732;-0.03138541;0;304461.4934768743;11811.12727368478;-0.001;1;0;2;
1510749244.070568;1510749244.070568;1510749244.070634;57.77246976027255;12.77331055218129;234.6884125075134;0.7285344;-2.261649;0.01174572;-1.958987375240051;-2.622903325589248;107.8319375142808;72.91045501363813;287.8551;2.376093;0.1118221;-0.2398011;-0.2740348;-0.9307089;0.04961614;-0.02258798;0;304461.533476864;11811.16727367459;-0.001;1;0;2;
1510749244.083558;1510749244.083558;1510749244.083661;57.77247002782404;12.77330902109084;234.6884474337344;0.7392532;-2.30147;0.01092375;-1.960269769755459;-2.631895494721645;107.8186320865182;72.91025807164155;287.8075;2.417283;0.01650544;-0.3252058;-0.3769146;-1.049678;0.02523868;-0.03366532;0;304461.5734768539;11811.20727366439;-0.001;1;0;2;
1510749244.093728;1510749244.093728;1510749244.093834;57.77247016330834;12.77330824577607;234.6884655790119;0.7459214;-2.319989;0.01342971;-1.960014314400938;-2.637435073821813;107.8126748250408;72.91015960891215;287.8236;2.436955;-0.07563694;-0.2560503;-0.2997607;-0.9440576;0.01170194;0.1643715;0;304461.5934768488;11811.2272736593;-0.001;1;0;2;
1510749244.103321;1510749244.103321;1510749244.103426;57.77247043687718;12.77330667519668;234.6884310299531;0.7539562;-2.360512;0.01483427;-1.953703215858269;-2.648177775815282;107.796772198909;72.90996270023933;287.7137;2.477996;0.1168872;-0.2355957;-0.5475294;-1.018441;0.008185354;-0.002267378;0;304461.6334778386;11811.2672746491;-0.001;1;0;2;
1510749244.113172;1510749244.113172;1510749244.113277;57.77247071403483;12.77330507796288;234.6883307068842;0.7673587;-2.399185;0.01851271;-1.948326421623308;-2.65848163525111;107.7807345281649;72.90976581411239;287.7364;2.518914;0.1625861;-0.07672671;-0.2185279;-1.152156;0.00513951;0.0180207;0;304461.6734778284;11811.30727463891;-0.001;1;0;2;
1510749244.12306;1510749244.12306;1510749244.123156;57.77247099488159;12.77330345324388;234.6881341287411;0.7777603;-2.440874;0.01947401;-1.942896372155323;-2.665346060014845;107.7638903818087;72.90956895134524;287.674;2.561792;0.3422299;-0.1361421;-0.2850825;-1.118883;0.01983047;0.09777106;0;304461.7134778182;11811.34727462872;-0.001;1;0;2;
1510749244.133351;1510749244.133351;1510749244.133454;57.77247127981295;12.77330180122642;234.6878630434232;0.7879513;-2.482712;0.02127795;-1.935190505542943;-2.671279534482713;107.748244121356;72.90937211180751;287.6082;2.60475;0.06905658;-0.1146673;-0.3598763;-1.232125;0.05483818;0.1782026;0;304461.753477808;11811.38727461853;-0.001;1;0;2;
1510749244.144607;1510749244.144607;1510749244.144713;57.77247156942329;12.7733001207891;234.6875010482697;0.8045651;-2.523347;0.02187369;-1.925514761392734;-2.674945660138448;107.734328037209;72.90917529652623;287.6848;2.64851;0.3028789;-0.09691685;-0.1684297;-1.141847;-0.07354813;-0.03127345;0;304461.7934787978;11811.42727560833;-0.001;1;0;2;
1510749244.180235;1510749244.180235;1510749244.180299;57.77247186395047;12.77329841227306;234.6870946974135;0.8153827;-2.566394;0.02557108;-1.918119298455139;-2.67667612516134;107.7210032768256;72.90897850507399;287.6259;2.692811;0.03708506;0.08433181;-0.3195525;-1.111804;-0.06675415;0.1570338;0;304461.8334787876;11811.46727559814;-0.001;1;0;2;
1510749244.260277;1510749244.260277;1510749244.260381;57.77247216358803;12.77329667539469;234.6866818139728;0.8315424;-2.608224;0.0239747;-1.9079768357649;-2.678103439715474;107.7070226917436;72.90878173763927;287.6831;2.737571;0.3799519;0.02463025;-0.270187;-1.134199;-0.07758475;0.05782475;0;304461.8734787774;11811.50727558795;-0.001;1;0;2;
1510749244.330253;1510749244.330253;1510749244.330715;57.7724724682809;12.77329491009042;234.6863139913735;0.843383;-2.651006;0.02152411;-1.898708931760844;-2.678919363309552;107.6918593218649;72.90858499420493;287.6478;2.781929;0.2875454;-0.01476572;-0.5031162;-1.076533;-0.1078713;0.02577776;0;304461.9134797672;11811.54727657776;-0.001;1;0;2;
1510749244.410262;1510749244.410262;1510749244.410328;57.77247277751722;12.77329311608857;234.6860470255657;0.8545336;-2.694641;0.01829543;-1.896940328493246;-2.680267286801979;107.6751032966126;72.90838827482609;287.595;2.826892;-0.05905814;-0.06458986;-0.5937232;-1.173883;-0.124428;0.05835895;0;304461.9534797571;11811.58727656756;-0.001;1;0;2;
1510749244.48687;1510749244.48687;1510749244.487052;57.77247309118908;12.77329129340206;234.6858259574381;0.8654302;-2.736891;0.01725582;-1.898020197899459;-2.680897794999696;107.6549708149567;72.90819157953177;287.5474;2.870461;-0.3983623;-0.07279469;-0.762275;-1.060368;-0.04048914;0.07600269;0;304461.9934797469;11811.62727655737;-0.001;1;0;2;
1510749244.502361;1510749244.502361;1510749244.502468;57.77247324951134;12.77329037301261;234.6857291153819;0.8767121;-2.756727;0.01956126;-1.900992361919092;-2.682702727509621;107.6455651953181;72.90819637618499;287.642;2.892778;0.09072486;0.04882248;-0.4302087;-1.163369;-0.03446701;0.1168296;0;304462.0134799966;11811.64727655227;-0.001;1;0;2;
1510749244.516724;1510749244.516724;1510749244.516845;57.77247373173882;12.77328756919488;234.6853277132326;0.8936977;-2.820833;0.02144876;-1.901358938158876;-2.688566418312361;107.6151920456787;72.90821080226544;287.5793;2.959019;0.001549513;-0.05003531;-0.5975686;-1.111452;0.08491523;0.1380771;0;304462.0734809813;11811.70727753699;-0.001;1;0;2;
1510749244.523572;1510749244.523572;1510749244.523675;57.77247405882002;12.77328566470542;234.6849520439745;0.9074852;-2.862642;0.02348621;-1.899710445860466;-2.690719381368249;107.5973793033879;72.90822044972187;287.5891;3.00304;-0.1460785;0.06253876;-0.2999877;-1.103383;0.1281282;0.07475697;0;304462.1134809711;11811.74727752679;-0.001;1;0;2;
1510749244.532129;1510749244.532129;1510749244.532359;57.7724743898688;12.77328373101315;234.6845653434921;0.9172421;-2.906355;0.02185865;-1.898401411814365;-2.693120527516905;107.5800844014536;72.90823012189237;287.5156;3.04766;0.1899817;-0.05799961;-0.5155102;-1.016557;0.1052924;-0.00978432;0;304462.1534809609;11811.7872775166;-0.001;1;0;2;
1510749244.543039;1510749244.543039;1510749244.543147;57.77247472547747;12.77328176831352;234.6841805785426;0.9320568;-2.949784;0.02213551;-1.895965066800695;-2.696068549157718;107.565402579871;72.90823981872504;287.5352;3.093535;0.1315399;-0.1221247;-0.2905799;-1.093178;0.07749954;0.07654745;0;304462.1934819507;11811.82727850641;-0.001;1;0;2;
1510749244.607;1510749244.607;1510749244.607074;57.77247523670849;12.77327876905719;234.6835850099557;0.9491824;-3.015862;0.02248882;-1.895360306124693;-2.69771616425071;107.5409963075094;72.90825441063006;287.4704;3.161703;-0.1384942;0.03830227;-0.4130203;-1.116639;0.04049816;0.006153362;0;304462.2534819354;11811.88727849112;-0.001;1;0;2;
1510749244.687322;1510749244.687322;1510749244.687457;57.77247558365598;12.77327673317078;234.6832800204143;0.9648708;-3.057665;0.01811343;-1.894640965651728;-2.698254166271854;107.5228493378798;72.90826416928165;287.5135;3.206289;-0.02770843;-0.05252258;-0.3530664;-1.141629;0.01684836;0.0169018;0;304462.2934819252;11811.92727848093;-0.001;1;0;2;
1510749244.767113;1510749244.767113;1510749244.767186;57.77247593555913;12.77327466773906;234.6830687458879;0.9769037;-3.103804;0.01814159;-1.88844730651668;-2.700613456612189;107.5016414072103;72.90827395278605;287.4711;3.253912;0.2775954;-0.007946626;-0.5797846;-1.133984;0.06302594;0.01006791;0;304462.3334829151;11811.96727947073;-0.001;1;0;2;
1510749244.847356;1510749244.847356;1510749244.847598;57.77247629186046;12.77327257167162;234.6828483803152;0.9893594;-3.150366;0.01818285;-1.88135761551035;-2.700455155699842;107.4792654010801;72.90828376227219;287.4347;3.302066;0.01117079;0.001209553;-0.5275314;-1.226456;0.02984004;0.08306992;0;304462.3734829049;11812.00727946054;-0.001;1;0;2;
1510749244.906904;1510749244.906904;1510749244.90699;57.77247647183162;12.7732715112306;234.6827412658138;0.9970945;-3.175509;0.01935246;-1.882018313896476;-2.702758614432403;107.4697124956304;72.90828867742306;287.432;3.328372;0.2240231;-0.0743634;-0.4567944;-1.362488;-0.0144704;0.09188763;0;304462.3934828998;11812.02727945544;-0.001;1;0;2;
1510749244.975149;1510749244.975149;1510749244.975255;57.77247701858889;12.77326828166292;234.6822837217365;1.01475;-3.247563;0.02018598;-1.883552204794636;-2.708516388321315;107.4398293859049;72.90830346368578;287.3522;3.402408;-0.1183981;-0.1553221;-0.5293305;-1.165609;0.06887814;0.0714801;0;304462.4534838845;11812.08728044016;-0.001;1;0;2;
1510749244.985195;1510749244.985195;1510749244.98536;57.77247738888752;12.77326608758048;234.6819260124737;1.0318;-3.295377;0.02163598;-1.888068514172582;-2.711793052506091;107.4175949263998;72.90831335576705;287.3856;3.453132;0.04611936;-0.0946468;-0.3582576;-1.254373;-0.01241942;0.05203417;0;304462.4934838742;11812.12728042996;-0.001;1;0;2;
1510749244.993678;1510749244.993678;1510749244.993782;57.77247776450015;12.77326386121887;234.6815509812508;1.044418;-3.344182;0.02331161;-1.884434442342967;-2.713434683282438;107.3922031090164;72.9083232752002;287.3441;3.503479;0.4726143;0.08193765;-0.6774734;-1.209705;-0.02299389;0.03552122;0;304462.5334838641;11812.16728041977;-0.001;1;0;2;
1510749245.002279;1510749245.002279;1510749245.00248;57.77247814454799;12.77326160396927;234.6811378501468;1.054037;-3.387382;0.0233418;-1.882916051654218;-2.709278088286403;107.3649217160833;72.90833322088767;287.2844;3.547584;0.01204951;0.2766964;-0.6252888;-1.168068;0.09921346;-0.04921181;0;304462.5734848539;11812.20728140958;-0.001;1;0;2;
1510749245.009288;1510749245.009288;1510749245.009398;57.77247852844385;12.77325931803342;234.6807434849113;1.065907;-3.428999;0.02131632;-1.884919269763955;-2.6972008566515;107.3367872009112;72.90834319108708;287.2679;3.590849;-0.03351355;0.3758632;-0.6742303;-1.090953;-0.01487757;-0.043398;0;304462.6134848437;11812.24728139938;-0.001;1;0;2;
1510749245.015602;1510749245.015602;1510749245.015666;57.77247891634305;12.77325700546756;234.6803744674461;1.074201;-3.467717;0.02103386;-1.887159021041398;-2.678284559105786;107.3085920192532;72.90835318410379;287.2115;3.630286;-0.1546154;0.4785135;-0.759073;-0.9671506;0.08194904;0.02875026;0;304462.6534848335;11812.28728138919;-0.001;1;0;2;
1510749245.036805;1510749245.036805;1510749245.036958;57.7724793072175;12.77325466791233;234.6800193928156;1.081958;-3.502947;0.0234405;-1.888903945611013;-2.658637741049075;107.2778225521321;72.90836319817821;287.1644;3.666234;0.1194951;0.599464;-0.8324909;-0.7997078;0.1702842;0.1584466;0;304462.6934848233;11812.327281379;-0.001;1;0;2;
1510749245.096637;1510749245.096637;1510749245.096736;57.77247970099202;12.77325230691075;234.6796770239845;1.092913;-3.537083;0.02180633;-1.882142557730282;-2.643229195953858;107.24440459226;72.90837323191289;287.1705;3.702082;0.2813181;0.3644042;-0.7386523;-0.8242483;0.01157054;0.08191583;0;304462.7334858131;11812.36728236881;-0.001;1;0;2;
1510749245.156953;1510749245.156953;1510749245.157077;57.77248009798386;12.77324992188309;234.6793271340311;1.098166;-3.574639;0.0204436;-1.877835327604728;-2.636334371141164;107.2125655152122;72.90838328564676;287.0775;3.73952;-0.02503077;-0.005299898;-0.8730331;-0.8752979;0.1690691;0.1811845;0;304462.7734858029;11812.40728235861;-0.001;1;0;2;
1510749245.236818;1510749245.236818;1510749245.23692;57.77248049745879;12.77324751203886;234.678929762404;1.105622;-3.611693;0.02212816;-1.87822236982613;-2.639262882340794;107.1812887466103;72.90839335990744;287.0206;3.777133;-0.07361834;-0.241678;-0.8589383;-0.9557526;0.1408774;0.147417;0;304462.8134857927;11812.44728234842;-0.001;1;0;2;
1510749245.306965;1510749245.306965;1510749245.307068;57.77248090009864;12.77324507729042;234.6784649158918;1.115244;-3.649669;0.02512083;-1.873891177544787;-2.647544407255365;107.1495169726528;72.90840345505704;286.9918;3.816261;-0.07847766;-0.2363033;-0.8847559;-0.9411461;0.03276116;0.1787665;0;304462.8534867825;11812.48728333823;-0.001;1;0;2;
1510749245.386978;1510749245.386978;1510749245.387117;57.77248130655842;12.7732426166392;234.6779137055409;1.126337;-3.687371;0.02839384;-1.864725003318945;-2.659909197733483;107.1201911490902;72.90841357213769;286.9857;3.855559;0.292338;-0.1994848;-0.7521976;-0.9109505;0.1697432;0.005671783;0;304462.8934867724;11812.52728332804;-0.001;1;0;2;
1510749245.397799;1510749245.397799;1510749245.399139;57.77248171568089;12.77324012951087;234.6772999143948;1.133641;-3.72708;0.028749;-1.863154498538754;-2.672735293487849;107.0879589188129;72.90842371134217;286.9178;3.895672;0.04256389;-0.2767074;-0.8699055;-0.9297028;0.1529837;0.0569337;0;304462.9334867622;11812.56728331784;-0.001;1;0;2;
1510749245.409438;1510749245.409438;1510749245.409548;57.77248212865131;12.77323761666462;234.6765768870677;1.145497;-3.765852;0.03093556;-1.861754104799555;-2.678465349017474;107.0558168028683;72.90843387261242;286.9187;3.936218;-0.1755262;-0.09317853;-0.7426525;-1.033218;0.1182541;0.1294695;0;304462.973486752;11812.60728330765;-0.001;1;0;2;
1510749245.427582;1510749245.427582;1510749245.427672;57.77248275094409;12.7732338041082;234.67543174183;1.157953;-3.822926;0.03119866;-1.8484350555041;-2.670671425414866;106.9975061735377;72.90909864746163;286.8514;3.994449;0.05009638;0.2952572;-0.9668906;-1.031532;0.07463227;0.04937358;0;304463.0334879914;11812.66728429236;-0.001;1;0;2;
1510749245.433815;1510749245.433815;1510749245.433977;57.77248296034173;12.77323252054459;234.6750958365956;1.161132;-3.846675;0.02972968;-1.8458453282362;-2.667524185482249;106.9764411078005;72.90942849946367;286.7966;4.018101;-0.02269266;0.2855286;-1.09851;-1.198018;0.1453425;-0.04983282;0;304463.0534879863;11812.68728428727;-0.001;1;0;2;
1510749245.444124;1510749245.444124;1510749245.444294;57.77248338153423;12.77322993203623;234.674511187371;1.170022;-3.888069;0.02377961;-1.839314955278028;-2.661957673821341;106.9351743499081;72.91008822158867;286.7479;4.060299;-0.0543675;0.07166813;-1.009518;-1.190851;0.1999609;-0.07377372;0;304463.0934879762;11812.72728427707;-0.001;1;0;2;
1510749245.476804;1510749245.476804;1510749245.47688;57.77248380573496;12.77322731262311;234.6741526710286;1.180517;-3.93703;0.02185741;-1.840604193564981;-2.665932487246517;106.8916212523712;72.91074796922278;286.6913;4.11021;0.1033655;-0.01325522;-1.092264;-1.263721;0.1122711;0.03834486;0;304463.133488966;11812.76728526688;-0.001;1;0;2;
1510749245.556785;1510749245.556785;1510749245.556849;57.77248423424538;12.77322466120066;234.6738352281085;1.190946;-3.985857;0.02258717;-1.845723672293339;-2.676899591614492;106.8490384879937;72.91140774362627;286.6358;4.159977;-0.2388152;-0.2979679;-1.23163;-1.394768;0.02158889;0.1935942;0;304463.1734889558;11812.80728525669;-0.001;1;0;2;
1510749245.636767;1510749245.636767;1510749245.63683;57.77248466748072;12.7732219777677;234.6733899447461;1.205095;-4.030849;0.02486122;-1.846067619246015;-2.690108953987777;106.8079411650582;72.91206754516004;286.645;4.207137;-0.2447517;-0.2944843;-1.079041;-1.194631;0.1640331;0.1374789;0;304463.2134889456;11812.84728524649;-0.001;1;0;2;
1510749245.690323;1510749245.690323;1510749245.690464;57.7724848857915;12.77322062404882;234.6731369687906;1.213024;-4.056053;0.02668775;-1.847249123125607;-2.697539158081658;106.786812649276;72.91239745600394;286.6501;4.233556;0.1382565;-0.2744311;-1.128189;-1.353162;-0.0871554;0.1381537;0;304463.2334889405;11812.8672852414;-0.001;1;0;2;
1510749245.770338;1510749245.770338;1510749245.770435;57.77248532541975;12.7732178917095;234.6724882090768;1.222607;-4.103927;0.02950152;-1.844108840186233;-2.70653513750868;106.743397904285;72.91305729904218;286.5894;4.28217;0.06903106;-0.1301494;-1.071844;-1.042754;0.08559193;0.01287726;0;304463.2734899303;11812.90728623121;-0.001;1;0;2;
1510749245.847564;1510749245.847564;1510749245.847667;57.77248576811698;12.77321512703688;234.671784968828;1.230495;-4.151848;0.0317698;-1.842702703660094;-2.715288384370471;106.6969476964422;72.91371716927959;286.5084;4.330353;0.06256701;-0.0912915;-1.197952;-1.175023;0.06745425;-0.00646895;0;304463.3134899201;11812.94728622101;-0.001;1;0;2;
1510749245.854655;1510749245.854655;1510749245.854757;57.77248621435844;12.77321232880329;234.6710021905997;1.240707;-4.20566;0.03258281;-1.841693374230905;-2.725921343935348;106.6505498389779;72.91437706782905;286.4365;4.384852;-0.2207142;-0.3613132;-1.081837;-1.360214;0.1868677;0.2169697;0;304463.3534899099;11812.98728621082;-0.001;1;0;2;
1510749245.865207;1510749245.865207;1510749245.865374;57.77248688982347;12.77320806718497;234.6698136969931;1.254557;-4.278622;0.02783931;-1.85845309093418;-2.748450215547509;106.5793855801941;72.91536696940189;286.3419;4.458757;-0.4802179;-0.5958931;-1.320392;-1.14294;0.02148159;-0.02547642;0;304463.4134908946;11813.04728719553;-0.001;1;0;2;
1510749245.869651;1510749245.869651;1510749245.871713;57.77248711704251;12.77320663068605;234.6694658653518;1.263106;-4.299975;0.03215824;-1.860221663855599;-2.757653173284429;106.5537693356329;72.9156969499939;286.37;4.481654;0.03453542;-0.2289618;-1.200037;-1.122123;0.07530196;0.05457189;0;304463.4334908895;11813.06728719044;-0.001;1;0;2;
1510749245.8782;1510749245.8782;1510749245.878356;57.77248757478187;12.77320373543919;234.6687998169674;1.273938;-4.345483;0.02671755;-1.851306595331168;-2.770775470217191;106.5023236020414;72.91635693040772;286.3392;4.528371;0.2326734;-0.3484794;-1.304923;-1.069593;-0.02120036;0.002006889;0;304463.4734908793;11813.10728718024;-0.001;1;0;2;
