SampleTimeStamp;SentTimeStamp;ReceivedTimeStamp;lat;lon;alt;vel_north;vel_east;vel_down;roll;pitch;heading;wander;track;speed;arate_lon;arate_trans;arate_down;accel_lon;accel_trans;accel_down;alignment;timeDistance.time1;timeDistance.time2;timeDistance.distanceTag;timeDistance.time1Type;timeDistance.time2Type;timeDistance.distanceType;
1510740124.586742;1510740124.586742;1510740124.586878;57.77267780603722;12.77176937824257;234.1000332365953;0.553527;-1.849526;0.02322662;-1.483081917991043;-1.944633167001695;106.3846615851484;73.98590158403113;286.6614;1.93058;0.1039636;0.04550467;0.149774;0.09525713;-0.04445609;0.007508537;0;295342.7529539008;2692.386286182784;-0.001;1;0;2;
1510740124.667779;1510740124.667779;1510740124.667841;57.77267800062168;12.77176815915901;234.098971297912;0.5524493;-1.848397;0.023416;-1.481793043526592;-1.943123036401184;106.3882091079679;73.98621614990702;286.6404;1.92919;-0.02869845;-0.0262064;0.1603049;0.008948082;0.04160595;0.09190945;0;295342.7929548955;2692.426287177514;-0.001;1;0;2;
1510740124.746782;1510740124.746782;1510740124.746873;57.77267819504123;12.77176694124276;234.0978731512491;0.552016;-1.847114;0.02414141;-1.480520245500434;-1.940849895118347;106.3914803155874;73.98653071481716;286.6389;1.927836;-0.120864;-0.02148514;0.1498999;0.01061325;0.04464715;0.07471024;0;295342.8329548902;2692.466287172243;-0.001;1;0;2;
1510740124.823162;1510740124.823162;1510740124.823318;57.77267838957899;12.77176572459655;234.0967565746359;0.5521942;-1.845144;0.0254772;-1.474812981106853;-1.937431010977072;106.3941111958414;73.98684527874123;286.6608;1.926;0.1437496;0.09774711;0.05968228;0.01061754;-0.007973862;0.003699206;0;295342.872954885;2692.506287166972;-0.001;1;0;2;
1510740124.863152;1510740124.863152;1510740124.863217;57.77267858407164;12.77176450908206;234.0956390937505;0.5526007;-1.842511;0.02613365;-1.469158648310607;-1.933139073062932;106.3970281971781;73.98715984175992;286.6949;1.923594;0.1737837;0.2141032;0.1822602;0.05625331;0.06550243;-0.02423064;0;295342.9129548797;2692.546287161702;-0.001;1;0;2;
1510740124.943219;1510740124.943219;1510740124.943328;57.77267877822175;12.77176329449294;234.0945355467745;0.5508115;-1.841051;0.02456823;-1.46447137316341;-1.927499924733928;106.3988722560856;73.98747440399312;286.6563;1.921682;0.1880271;0.1793709;0.05781423;0.09872122;-0.003674799;-0.0836864;0;295342.9529558744;2692.586288156431;-0.001;1;0;2;
1510740124.986481;1510740124.986481;1510740124.986593;57.77267887511234;12.77176268755665;234.0940181095924;0.5492348;-1.841829;0.02271783;-1.465886323942816;-1.926148573950058;106.399818801923;73.98763168468537;286.6046;1.921976;-0.2053984;0.01706415;0.03185936;-0.06031343;0.006695694;0.04085168;0;295342.9729558718;2692.606288153796;-0.001;1;0;2;
1510740125.206737;1510740125.206737;1510740125.206839;57.77267926423472;12.77176025897137;234.0918943869302;0.5521971;-1.836836;0.02587298;-1.464120989149852;-1.914783363714945;106.4074992400126;73.98738278764201;286.732;1.918043;0.05416582;0.2267282;0.2252225;0.07510369;-0.03896013;-0.03564796;0;295343.052955993;2692.686288143255;-0.001;1;0;2;
1510740125.286785;1510740125.286785;1510740125.28689;57.77267945869644;12.77175904491549;234.0908170575549;0.5503516;-1.836708;0.02219695;-1.463434287602482;-1.913307531574982;106.4109501128435;73.98711200165231;286.6803;1.917389;-0.08555509;-0.1688171;0.04799601;0.06235542;0.003908698;0.03947761;0;295343.0929559877;2692.726288137984;-0.001;1;0;2;
1510740125.366789;1510740125.366789;1510740125.366896;57.77267965324824;12.77175783165367;234.089724356466;0.550691;-1.835604;0.02323375;-1.464602160328975;-1.915325406903315;106.4154860543468;73.98684121485519;286.6995;1.916429;-0.3346528;-0.2286452;0.1524228;-0.001116617;-0.006937273;0.1634475;0;295343.1329569825;2692.766289132714;-0.001;1;0;2;
1510740125.434348;1510740125.434348;1510740125.434432;57.77267984782883;12.77175661923476;234.0886274173781;0.5512875;-1.834802;0.02477084;-1.463801100414591;-1.91817108607662;106.419785215644;73.98657042732584;286.7235;1.915833;0.01049577;-0.1076142;0.1300661;-0.02876738;-0.009478515;0.02831869;0;295343.1729569772;2692.806289127443;-0.001;1;0;2;
1510740125.444094;1510740125.444094;1510740125.444202;57.77268004226803;12.77175540754462;234.087564020359;0.5506454;-1.833344;0.02456806;-1.46187698751301;-1.918983396614203;106.4236238351067;73.9862996392677;286.7177;1.914252;0.1186585;0.06227852;0.09052063;0.01796672;0.0296763;-0.1187991;0;295343.212956972;2692.846289122172;-0.001;1;0;2;
1510740125.453624;1510740125.453624;1510740125.453727;57.77268013950347;12.77175480150996;234.0870566068004;0.5509096;-1.835056;0.02323419;-1.460619835522272;-1.919971291484483;106.4261740056885;73.9861642454063;286.7105;1.915968;0.1293958;-0.08701064;0.1288398;-0.1315984;0.04946825;0.1412957;0;295343.2329569693;2692.866289119537;-0.001;1;0;2;
1510740125.465898;1510740125.465898;1510740125.466059;57.77268033389691;12.77175358728775;234.0860242943355;0.5520468;-1.838982;0.0257646;-1.461297800905689;-1.922580140724887;106.4305836209803;73.98589345939645;286.7093;1.920055;0.2815157;0.05723634;0.1349475;-0.1609347;-0.01798141;0.008602348;0;295343.272956964;2692.906289114267;-0.001;1;0;2;
1510740125.483037;1510740125.483037;1510740125.483212;57.77268052882185;12.77175236926614;234.0849610134365;0.5528328;-1.846123;0.02318473;-1.461357297176909;-1.926899173647623;106.4344010147104;73.98562267650514;286.6707;1.927121;-0.04995;-0.1935576;0.06160914;-0.2079235;-0.07518861;-0.04701928;0;295343.3129579588;2692.946290108996;-0.001;1;0;2;
1510740125.50088;1510740125.50088;1510740125.500999;57.77268072461485;12.77175114582459;234.0838545189669;0.5571538;-1.85536;0.02598144;-1.46437660165007;-1.934402078110056;106.4376749082695;73.98535189798561;286.7147;1.937209;-0.3765912;-0.2614301;0.2602298;-0.3239469;0.09646296;0.246265;0;295343.3529579535;2692.986290103725;-0.001;1;0;2;
1510740125.514321;1510740125.514321;1510740125.514434;57.77268082296953;12.77175053182814;234.0832344756938;0.5569857;-1.859735;0.02706628;-1.463014671677463;-1.935919872385669;106.4386304012381;73.98521651076335;286.6728;1.941352;0.1837707;-0.1424044;-0.1304799;-0.2548108;-0.1741112;-0.09632298;0;295343.3729579509;2693.00629010109;-0.001;1;0;2;
1510740125.534581;1510740125.534581;1510740125.534696;57.77268102100302;12.77174929871157;234.0820041262839;0.5628856;-1.87064;0.02857416;-1.46640853568507;-1.943093575091272;106.4423405305843;73.98494574045789;286.7468;1.953493;-0.06544144;-0.2561707;0.09323624;-0.3155213;0.03634228;0.1885903;0;295343.4129579456;2693.04629009582;-0.001;1;0;2;
1510740125.542955;1510740125.542955;1510740125.543138;57.77268112055363;12.77174867950301;234.0813445428465;0.5631301;-1.875897;0.02973875;-1.465046828155631;-1.944561139270346;106.443471575908;73.98481035765516;286.7094;1.958598;0.007243876;-0.09490672;-0.07617527;-0.3725135;-0.0791982;-0.03127621;0;295343.4329579429;2693.066290093184;-0.001;1;0;2;
1510740125.616527;1510740125.616527;1510740125.617093;57.772681320683;12.77174743439623;234.0800491827013;0.5682445;-1.889886;0.03159962;-1.467278270796681;-1.950992726945244;106.4469817527278;73.98453959753458;286.7348;1.973467;-0.1236988;-0.1102852;0.1512765;-0.412457;0.1264352;0.1517381;0;295343.4729589377;2693.106291087914;-0.001;1;0;2;
1510740125.696461;1510740125.696461;1510740125.696671;57.7726815222983;12.7717461793178;234.0787133813331;0.5737525;-1.904673;0.03171054;-1.464863906620401;-1.95676678380384;106.450414514481;73.98426884594498;286.7641;1.989214;0.1850557;-0.1195327;0.1846338;-0.3378945;0.0323368;0.02234152;0;295343.5129589324;2693.146291082643;-0.001;1;0;2;
1510740125.776795;1510740125.776795;1510740125.776977;57.77268172534535;12.77174491305408;234.077377033917;0.5757816;-1.923;0.03134172;-1.464854878178736;-1.963999666519333;106.4542484120957;73.98399810373439;286.6687;2.00735;-0.1611691;-0.1470461;0.06104721;-0.4636849;0.02108499;0.05575804;0;295343.5529589271;2693.186291077373;-0.001;1;0;2;
1510740125.843563;1510740125.843563;1510740125.843753;57.77268193022335;12.77174363451025;234.0760430375107;0.5843015;-1.940795;0.03199286;-1.463233204276469;-1.972003859455868;106.4593543529734;73.98372737196036;286.7551;2.026843;0.4672374;-0.09845984;0.1752944;-0.508247;-0.1011219;-0.07608366;0;295343.5929589219;2693.226291072102;-0.001;1;0;2;
1510740125.876642;1510740125.876642;1510740125.876752;57.7726821371515;12.77174234276963;234.0747273391618;0.5876611;-1.961657;0.02916286;-1.462487824359655;-1.981205782615618;106.4643895125873;73.98345665127987;286.6768;2.04779;-0.01395259;-0.3025924;0.08011486;-0.519999;-0.03735394;-0.004875337;0;295343.6329599166;2693.266292066831;-0.001;1;0;2;
1510740125.888379;1510740125.888379;1510740125.888454;57.77268234621241;12.77174103781037;234.073422736008;0.5956224;-1.980878;0.02948462;-1.462349259841121;-1.988701212925384;106.4686176688096;73.98318594181237;286.7353;2.068488;0.01953151;-0.1703889;0.196459;-0.5441672;-0.02443221;-0.0909017;0;295343.6729599113;2693.306292061561;-0.001;1;0;2;
1510740125.894004;1510740125.894004;1510740125.894064;57.77268255783399;12.77173971915175;234.0721587499836;0.6007758;-2.002313;0.02800446;-1.460221486553703;-1.995027248016251;106.4721770282911;73.98291524398535;286.7014;2.090499;0.1455822;-0.2035632;-0.05786447;-0.5561614;-0.02155274;0.01704769;0;295343.7129599061;2693.34629205629;-0.001;1;0;2;
1510740125.900382;1510740125.900382;1510740125.900506;57.77268277186891;12.77173838652586;234.0709158388899;0.6080862;-2.022554;0.02803864;-1.459332210169059;-1.999003680824406;106.4752094196407;73.98264455803691;286.7336;2.111989;-0.06523056;-0.06552694;0.05677229;-0.522978;-0.1031714;-0.02942137;0;295343.7529599008;2693.38629205102;-0.001;1;0;2;
1510740125.906867;1510740125.906867;1510740125.906973;57.77268298844483;12.77173703985222;234.0697203151483;0.6146691;-2.043954;0.02568844;-1.456017821035127;-2.00145402650243;106.4789328327298;73.98237388410917;286.7374;2.134377;-0.04888964;-0.1576925;0.05851391;-0.6175936;-0.03425512;0.09118637;0;295343.7929598955;2693.426292045749;-0.001;1;0;2;
1510740125.912471;1510740125.912471;1510740125.912564;57.77268320707775;12.77173567903105;234.0685327071227;0.6218171;-2.063535;0.02745444;-1.45588835454609;-2.000929651650148;106.4829145101274;73.98210322224779;286.7694;2.155187;0.1325769;0.05331512;0.1800034;-0.5139508;-0.009161818;0.05711728;0;295343.8329608903;2693.466293040478;-0.001;1;0;2;
1510740125.919576;1510740125.919576;1510740125.919636;57.77268342773275;12.77173430479716;234.0673132309893;0.6270994;-2.083946;0.02752322;-1.455781188035672;-1.997247179239869;106.4859462837674;73.98183257183076;286.7476;2.176254;-0.09660534;-0.007051556;0.1380287;-0.536347;-0.008605418;0.1365436;0;295343.872960885;2693.506293035208;-0.001;1;0;2;
1510740125.986594;1510740125.986594;1510740125.98669;57.77268365042933;12.77173291769361;234.0660469060706;0.6335891;-2.100573;0.03053009;-1.460398088345329;-1.993433940895252;106.487443995954;73.98156193216481;286.7847;2.194047;0.1271106;0.158532;0.1208746;-0.3753807;-0.0382548;0.009834997;0;295343.9129608797;2693.546293029937;-0.001;1;0;2;
1510740126.056985;1510740126.056985;1510740126.05712;57.772683875357;12.7717315199547;234.0646985147288;0.636714;-2.115944;0.0316189;-1.466312653308513;-1.98737310510775;106.4889468299042;73.98129130157803;286.7472;2.209666;-0.301804;0.1065874;-0.03789108;-0.3515504;-0.02398705;0.0880256;0;295343.9529608744;2693.586293024667;-0.001;1;0;2;
1510740126.103466;1510740126.103466;1510740126.103557;57.7726839886212;12.77173081784013;234.0639739354605;0.6412206;-2.120683;0.03393731;-1.465350590110393;-1.982514926954331;106.4891629820845;73.98115598914607;286.8235;2.215504;0.05147993;0.2379546;0.04317068;-0.2501201;-0.07529297;0.02574968;0;295343.9729618718;2693.606294022031;-0.001;1;0;2;
1510740126.293156;1510740126.293156;1510740126.293259;57.77268433243985;12.77172870260094;234.0616996704573;0.6431489;-2.130556;0.03643569;-1.460132383817536;-1.963672555148444;106.4899353452477;73.98034554336486;286.7974;2.225513;0.26781;0.4122172;-0.04339118;-0.062402;-0.05289209;-0.07972171;0;295344.0329609957;2693.666294014113;-0.001;1;0;2;
1510740126.3218;1510740126.3218;1510740126.321916;57.77268456066964;12.77172728833195;234.0601812490077;0.6421356;-2.130729;0.03618679;-1.463839877370615;-1.947172456708512;106.492821239641;73.97967041030229;286.7712;2.225387;-0.02889007;0.5539776;0.1302948;0.05075555;-0.01276777;-0.08712133;0;295344.0729609904;2693.706294008828;-0.001;1;0;2;
1510740126.336218;1510740126.336218;1510740126.336319;57.77268478829938;12.77172587470662;234.0587141769447;0.6413406;-2.129181;0.03445326;-1.472300248356228;-1.926908564904356;106.4972682625532;73.97899527686762;286.7631;2.223675;-0.08453659;0.549485;0.1998177;0.07367034;0.05993324;-0.01280295;0;295344.1129609851;2693.746294003543;-0.001;1;0;2;
1510740126.353779;1510740126.353779;1510740126.353879;57.77268501588264;12.77172446230836;234.0573002388805;0.6414438;-2.126141;0.03292032;-1.479660362832917;-1.90796088986555;106.5022943509722;73.97832014237986;286.7882;2.220794;0.002494323;0.5029949;0.1389246;0.1469603;-0.03568328;-0.01035869;0;295344.1529619798;2693.786294998257;-0.001;1;0;2;
1510740126.376749;1510740126.376749;1510740126.377156;57.77268524360098;12.77172305311616;234.055945555618;0.641582;-2.120121;0.02998644;-1.482327197933709;-1.890454963800163;106.5070816876586;73.97764500517468;286.8366;2.215072;0.1013167;0.3532013;0.1434054;0.1562035;0.005073119;-0.01720233;0;295344.1929619745;2693.826294992972;-0.001;1;0;2;
1510740126.397604;1510740126.397604;1510740126.397705;57.77268558436126;12.77172094830163;234.0540162482321;0.6390074;-2.107035;0.02843099;-1.476729990017605;-1.866897180213058;106.5121964003616;73.97663229170237;286.8712;2.201801;0.1492603;0.3270635;0.2081724;0.2869608;0.04118413;0.04308336;0;295344.2529619666;2693.886294985045;-0.001;1;0;2;
1510740126.413471;1510740126.413471;1510740126.413563;57.77268580983161;12.77171955342206;234.0527843054134;0.6296892;-2.097077;0.02700558;-1.473847656624129;-1.851683965080028;106.5139474242995;73.97595714222956;286.7134;2.189575;0.1325292;0.2872892;-0.207942;0.3094487;0.01726941;0.01424262;0;295344.2929619613;2693.926294979759;-0.001;1;0;2;
1510740126.447225;1510740126.447225;1510740126.447437;57.77268603393136;12.77171816697442;234.0515976893193;0.628419;-2.083186;0.02757962;-1.473193668608028;-1.837621411420052;106.5197715984623;73.97528198572788;286.7866;2.175908;-0.009988448;0.330135;0.1461445;0.3163692;0.03367673;0.02967307;0;295344.332962956;2693.966295974474;-0.001;1;0;2;
1510740126.583165;1510740126.583165;1510740126.583671;57.77268636644369;12.77171610388131;234.0498207603651;0.6223867;-2.061624;0.02676591;-1.46753012274177;-1.820482657427903;106.5258047129267;73.97426923671664;286.7986;2.153523;0.03465528;0.1441772;0.2346661;0.2973378;-0.05905026;0.0548352;0;295344.3929629481;2694.026295966547;-0.001;1;0;2;
1510740126.703552;1510740126.703552;1510740126.703722;57.77268669535827;12.77171406336665;234.0479172703805;0.6132786;-2.038188;0.02887724;-1.4581053414789;-1.805773576503882;106.5307172881975;73.97325646849981;286.7462;2.128456;0.02653006;0.1640709;-0.001024942;0.4283337;-0.05273095;-0.009970241;0;295344.4529629402;2694.086295958619;-0.001;1;0;2;
1510740126.783198;1510740126.783198;1510740126.783374;57.77268691293707;12.77171271624307;234.0465846543916;0.6103718;-2.022505;0.0316583;-1.453331544788698;-1.797647203479573;106.5349586706824;73.97258127845181;286.7933;2.1126;0.1107541;0.1565426;0.1121566;0.416173;-0.02322448;0.0786527;0;295344.4929639349;2694.126296953334;-0.001;1;0;2;
1510740126.796034;1510740126.796034;1510740126.796153;57.77268712862707;12.77171138072829;234.0452030811291;0.6057566;-2.004795;0.03238142;-1.448111597935309;-1.788909366056242;106.5374757420979;73.97190607853807;286.8124;2.094312;0.309065;0.1658478;0.06142715;0.403322;0.004378417;0.03809945;0;295344.5329639296;2694.166296948049;-0.001;1;0;2;
1510740126.804438;1510740126.804438;1510740126.804532;57.77268734238462;12.77171005664676;234.0437761333292;0.5998536;-1.98684;0.03474467;-1.444647826352411;-1.778830288726556;106.5393983609773;73.97123086896001;286.7998;2.075418;0.09743762;0.3306187;0.1001932;0.5350866;-0.02976839;-0.07428908;0;295344.5729639243;2694.206296942763;-0.001;1;0;2;
1510740126.810495;1510740126.810495;1510740126.810604;57.77268755440148;12.77170874503494;234.0423654721568;0.5944008;-1.96824;0.0328064;-1.445743512288196;-1.770022144838662;106.5424132375748;73.97055564875785;286.8041;2.056036;-0.07038143;0.1985871;0.05066711;0.5270635;-0.02274526;-0.0455137;0;295344.612963919;2694.246296937478;-0.001;1;0;2;
1510740126.823356;1510740126.823356;1510740126.823457;57.77268776456722;12.77170744616368;234.0409657560325;0.5911174;-1.948093;0.03160419;-1.444154705467573;-1.761421348266253;106.5453772416788;73.96988041780665;286.8796;2.035801;-0.08948426;0.1556042;0.2453918;0.5307341;-0.03666252;-0.01993502;0;295344.6529649138;2694.286297932193;-0.001;1;0;2;
1510740126.839261;1510740126.839261;1510740126.83937;57.77268797281907;12.77170616011255;234.0396240473152;0.5837237;-1.929244;0.03043141;-1.44471117124271;-1.756490448054303;106.5481546195716;73.96920517580199;286.834;2.015618;0.1419436;0.06091765;0.01637022;0.500115;0.02282022;-0.008789973;0;295344.6929649084;2694.326297926908;-0.001;1;0;2;
1510740126.851037;1510740126.851037;1510740126.851239;57.77268817889096;12.77170488778898;234.0382957165743;0.5778604;-1.908404;0.02963691;-1.444650297148212;-1.749478050118097;106.5509456850183;73.9685299222898;286.8462;1.993973;-0.07971013;0.1378887;0.07682849;0.469228;-0.007861484;0.01800451;0;295344.7329649032;2694.366297921623;-0.001;1;0;2;
1510740126.859052;1510740126.859052;1510740126.859157;57.77268838299258;12.77170362970396;234.0370153259628;0.5718803;-1.88781;0.03047936;-1.444905288562257;-1.741869878371457;106.5558441681676;73.96785465685339;286.8533;1.97253;0.0934137;0.2159826;0.06614874;0.4789691;-4.830322e-05;0.03944453;0;295344.7729648979;2694.406297916338;-0.001;1;0;2;
1510740126.903136;1510740126.903136;1510740126.903199;57.77268858467264;12.77170238556404;234.0357460037611;0.564063;-1.865442;0.02967282;-1.440488145549384;-1.733836730794122;106.5584966587915;73.96717937960547;286.824;1.948857;0.02214914;0.2705284;-0.01121177;0.6552886;-0.04073915;-0.07163595;0;295344.8129658926;2694.446298911053;-0.001;1;0;2;
1510740126.983209;1510740126.983209;1510740126.983319;57.77268878388098;12.77170115633042;234.03450981835;0.5574634;-1.84341;0.02927433;-1.440054717272902;-1.725946011016725;106.5628972391104;73.96650408976312;286.8258;1.925857;0.07479188;0.2729121;0.08593863;0.6765233;-0.00756937;-0.08115701;0;295344.8529658873;2694.486298905767;-0.001;1;0;2;
1510740127.053202;1510740127.053202;1510740127.053308;57.77268898032129;12.77169994176496;234.0333043538473;0.5495746;-1.821389;0.02557886;-1.438585294182142;-1.718384211597614;106.5656885656749;73.96582878743811;286.7903;1.902495;-0.0545704;0.06140023;0.02729098;0.6131443;-0.02038927;-0.03242566;0;295344.892965882;2694.526298900482;-0.001;1;0;2;
1510740127.133172;1510740127.133172;1510740127.133236;57.77268917410716;12.77169874173469;234.032128804714;0.541496;-1.800513;0.02643833;-1.436960458113434;-1.712209875029811;106.5671906711153;73.96515347269612;286.7384;1.880177;0.1706924;0.05679389;-0.1272579;0.5584009;-0.00929919;0.08390681;0;295344.9329658768;2694.566298895197;-0.001;1;0;2;
1510740127.209838;1510740127.209838;1510740127.209937;57.77268946080657;12.77169697025241;234.030294297292;0.5355079;-1.764503;0.02831614;-1.433780255464522;-1.703559340168961;106.572683434031;73.96414047655455;286.8825;1.843974;0.1814521;0.07359343;0.1700142;0.6288195;0.01325058;-0.0410258;0;295344.9929668688;2694.626299887269;-0.001;1;0;2;
1510740127.218593;1510740127.218593;1510740127.218709;57.772689554093;12.77169638746063;234.029669475369;0.5313222;-1.752922;0.03204764;-1.430971808003522;-1.70152006066664;106.5726673540735;73.96422488376015;286.8624;1.831677;0.07417321;0.2933408;0.07329998;0.647146;-0.04058561;0.03015783;0;295345.0129669983;2694.646299884628;-0.001;1;0;2;
1510740127.23226;1510740127.23226;1510740127.232755;57.77268964732246;12.77169580921657;234.0290388411385;0.5297229;-1.740338;0.02843057;-1.431026228667911;-1.699564352179277;106.5741073256491;73.96430928733501;286.9292;1.819171;-0.009753447;0.00985413;0.2226695;0.5828244;-0.0529139;0.004499155;0;295345.0329669957;2694.666299881987;-0.001;1;0;2;
1510740127.244655;1510740127.244655;1510740127.245188;57.77268983173087;12.77169466477302;234.0277550932724;0.5205251;-1.717376;0.02841613;-1.432744126877721;-1.694982013722608;106.5748465428202;73.96447808420268;286.8617;1.794527;-0.08999033;-0.01040541;0.03305577;0.5036521;-0.0104112;0.02904656;0;295345.0729669904;2694.706299876706;-0.001;1;0;2;
1510740127.255474;1510740127.255474;1510740127.255576;57.77269001424204;12.77169353628358;234.0264663425542;0.5154784;-1.693801;0.03004077;-1.438613631041254;-1.690287562575203;106.5795216237963;73.96464686770018;286.9267;1.770503;-0.5041912;0.1053085;0.1939074;0.5318255;0.02094152;-0.001124053;0;295345.1129669851;2694.746299871425;-0.001;1;0;2;
1510740127.266497;1510740127.266497;1510740127.266601;57.7726901940751;12.7716924232764;234.0251785791238;0.5086083;-1.670399;0.03055937;-1.442724729233492;-1.685672940663384;106.5809052635111;73.96481563797026;286.9346;1.746114;-0.2100133;0.144911;0.1303784;0.5849933;-0.03779332;-0.07430942;0;295345.1529679798;2694.786300866143;-0.001;1;0;2;
1510740127.282677;1510740127.282677;1510740127.282756;57.77269037178922;12.7716913260362;234.0239477809297;0.5008752;-1.646749;0.02846521;-1.452295471349605;-1.682568166685852;106.5839856372764;73.9649843948301;286.9177;1.721238;-0.2542226;0.08397108;0.06628802;0.6220707;0.1022282;-0.02512605;0;295345.1929679745;2694.826300860861;-0.001;1;0;2;
1510740127.396886;1510740127.396886;1510740127.396984;57.77269063318315;12.77168971116982;234.0221648343846;0.4892369;-1.60809;0.0266387;-1.459091499518997;-1.674548781211361;106.5852892537083;73.96523750401452;286.9216;1.680865;-0.2853001;0.1585354;0.02659403;0.6544346;0.00152704;-0.03298349;0;295345.2529679666;2694.886300852939;-0.001;1;0;2;
1510740127.476626;1510740127.476626;1510740127.476689;57.77269080358597;12.77168865650085;234.020997942212;0.4809074;-1.581006;0.02796995;-1.462512597798277;-1.66791201187598;106.585897872127;73.96540622500142;286.9186;1.652529;-0.08750486;0.2578171;0.09816782;0.7290638;0.01726714;-0.06073682;0;295345.2929679613;2694.926300847658;-0.001;1;0;2;
1510740127.556686;1510740127.556686;1510740127.556805;57.77269097085889;12.77168761994849;234.0198326090326;0.4678986;-1.555766;0.02752861;-1.468571680858141;-1.661273800511553;106.5876793345665;73.96557493067793;286.7387;1.624604;-0.3112557;0.1401091;-0.1304067;0.738396;0.1522217;0.09616406;0;295345.332968956;2694.966301842376;-0.001;1;0;2;
1510740127.669039;1510740127.669039;1510740127.669182;57.77269121566227;12.77168609976227;234.018006810535;0.4587513;-1.512677;0.02691932;-1.469285809715994;-1.649622971503423;106.5931170431342;73.96582796022025;286.871;1.58071;-0.3191974;0.09202697;0.2492336;0.6755441;0.05738422;-0.01180193;0;295345.3929689481;2695.026301834454;-0.001;1;0;2;
1510740127.680097;1510740127.680097;1510740127.680221;57.77269145319206;12.77168462190621;234.0162903363703;0.4445102;-1.47129;0.02253498;-1.464935393347004;-1.642345815161302;106.595786386739;73.96608095370021;286.8108;1.536973;-0.2330023;-0.1026053;0.04520426;0.6135128;-0.01282815;-0.01138019;0;295345.4529689402;2695.086301826532;-0.001;1;0;2;
1510740127.68959;1510740127.68959;1510740127.689649;57.77269160821788;12.7716836593493;234.015222715354;0.4375837;-1.443971;0.02546587;-1.457438199852888;-1.639736970959613;106.5986838749748;73.96624959685195;286.859;1.508818;0.1561947;0.1828645;0.07590299;0.6969464;-0.03189455;-0.02410267;0;295345.4929699349;2695.12630282125;-0.001;1;0;2;
1510740127.699224;1510740127.699224;1510740127.699324;57.77269176077922;12.77168271446398;234.0142541524191;0.4316894;-1.418781;0.02211553;-1.451531664502987;-1.641651496505526;106.6031232019379;73.96641822489441;286.9233;1.483002;0.3319547;-0.08375404;0.1424;0.6265185;0.1219679;0.07685398;0;295345.5329699296;2695.166302815969;-0.001;1;0;2;
1510740127.707596;1510740127.707596;1510740127.707697;57.77269191020041;12.7716817857587;234.0132501450561;0.4224948;-1.394313;0.02324183;-1.441994929390767;-1.643524784169029;106.6045768691533;73.96658683916689;286.8575;1.456918;0.1406909;-0.0556096;0.0707802;0.7236965;0.02995789;-0.0002578299;0;295345.5729699244;2695.206302810687;-0.001;1;0;2;
1510740127.720117;1510740127.720117;1510740127.720235;57.77269205703133;12.77168087312141;234.0122653051783;0.4135449;-1.371712;0.02387575;-1.439378030323539;-1.649872257117962;106.6080902914868;73.96675543963286;286.7771;1.432694;0.3335596;-0.103875;-0.08380327;0.6585455;0.0122091;-0.04821425;0;295345.6129699191;2695.246302805406;-0.001;1;0;2;
1510740127.74675;1510740127.74675;1510740127.746861;57.77269220124081;12.77167997578434;234.0111999104352;0.407031;-1.348572;0.02411631;-1.43323053187036;-1.652766358831281;106.6096155471867;73.96692402727524;286.795;1.408659;0.09926703;-0.08668578;-0.04530095;0.660837;-0.02873344;-0.08123593;0;295345.6529709138;2695.286303800124;-0.001;1;0;2;
1510740127.826816;1510740127.826816;1510740127.826878;57.77269234321425;12.77167909334054;234.0101255168217;0.4010177;-1.328004;0.02356941;-1.429646849065335;-1.656021720770623;106.611136555652;73.96709260226355;286.8028;1.387231;0.1931632;-0.167472;-0.1121306;0.5344184;-0.08683735;-0.03513256;0;295345.6929709085;2695.326303794843;-0.001;1;0;2;
1510740127.873205;1510740127.873205;1510740127.873304;57.77269248305767;12.77167822506765;234.0090410165988;0.3960335;-1.306878;0.02408869;-1.427554961435935;-1.657945819830009;106.6116890556734;73.96726116525754;286.8588;1.365566;-0.06281014;-0.1022006;0.05409503;0.4189122;0.02978492;0.08230179;0;295345.7329709032;2695.366303789561;-0.001;1;0;2;
1510740127.953227;1510740127.953227;1510740127.953386;57.77269262074127;12.7716773706991;234.0079406873324;0.3913334;-1.285255;0.02577816;-1.423103456981559;-1.657960345087438;106.6113757767987;73.96742971657244;286.9344;1.343512;0.1261849;0.0378759;0.1147479;0.4611959;-0.01621372;0.04487303;0;295345.772970898;2695.40630378428;-0.001;1;0;2;
1510740128.030933;1510740128.030933;1510740128.031042;57.77269275646099;12.77167653021852;234.0068677004168;0.3839297;-1.265808;0.02502034;-1.422966789605169;-1.65729401628319;106.6127650892148;73.96759825618463;286.873;1.322752;0.004248613;0.06866672;-0.00047338;0.5108885;0.04063392;-0.03931282;0;295345.8129718927;2695.446304778998;-0.001;1;0;2;
1510740128.087552;1510740128.087552;1510740128.087613;57.77269288990838;12.77167570347532;234.005820459656;0.3777818;-1.245828;0.02385797;-1.421111251383508;-1.654832381239169;106.6151014573987;73.96776678432857;286.8693;1.301848;0.003996436;0.04950733;0.01625691;0.5031345;0.0006155955;-0.06058451;0;295345.8529718874;2695.486304773717;-0.001;1;0;2;
1510740128.098379;1510740128.098379;1510740128.098483;57.7726930211546;12.77167489007234;234.0048301560811;0.3718072;-1.224785;0.02390864;-1.418275805037352;-1.653227319930181;106.6182209366234;73.96793530119955;286.8867;1.279976;0.1223461;0.1789268;0.05474795;0.5419305;-0.02793683;-0.06909474;0;295345.8929718821;2695.526304768435;-0.001;1;0;2;
1510740128.115284;1510740128.115284;1510740128.115347;57.77269315041862;12.77167408872264;234.0038948332238;0.3658004;-1.207416;0.02303503;-1.416101040177879;-1.655916249033707;106.6209815033272;73.96810380764995;286.8548;1.261611;0.1804325;0.07103959;0.02915967;0.5680988;0.04812078;-0.07176792;0;295345.9329718768;2695.566304763154;-0.001;1;0;2;
1510740128.130434;1510740128.130434;1510740128.130495;57.77269334046478;12.77167290811799;234.0024749773486;0.3582255;-1.181892;0.02247801;-1.412743410851509;-1.661402134403002;106.6230205112452;73.9683565490421;286.8618;1.234987;-0.05098366;-0.02819577;0.04654291;0.4424299;-0.05831101;0.0004784918;0;295345.9929728689;2695.626305755231;-0.001;1;0;2;
1510740128.13373;1510740128.13373;1510740128.133835;57.77269340205639;12.77167251949797;234.0019920558972;0.3556741;-1.174589;0.02135425;-1.410999867009586;-1.662665268294107;106.6233322632305;73.96847762880496;286.8467;1.227259;0.003394329;-0.1180507;0.007319029;0.3377063;-0.03990972;0.009816194;0;295346.0129729983;2695.646305752592;-0.001;1;0;2;
1510740128.147773;1510740128.147773;1510740128.147874;57.77269352529377;12.77167175088462;234.0010260749661;0.3516057;-1.157206;0.02193284;-1.410713245846584;-1.664829793515693;106.624816202422;73.96871978160588;286.9009;1.209443;-0.03505074;0.0002418309;0.1014097;0.3652999;0.007615339;0.005028215;0;295346.052972993;2695.686305747314;-0.001;1;0;2;
1510740128.183731;1510740128.183731;1510740128.183839;57.7726936467416;12.77167099248752;234.0000714839502;0.3495618;-1.14266;0.02199456;-1.410206282355676;-1.666435395360127;106.624212317747;73.96896192569594;287.0099;1.194934;-0.2242062;-0.02155314;0.2971655;0.4063025;-0.01901293;0.05089177;0;295346.0929729877;2695.726305742036;-0.001;1;0;2;
1510740128.256765;1510740128.256765;1510740128.256831;57.77269376684832;12.7716702449982;233.9991479010603;0.3448136;-1.127601;0.02114189;-1.409731994636659;-1.667263865999308;106.6250440788083;73.96920406066099;287.0033;1.179144;0.02477742;-0.01169826;0.1363026;0.338519;-0.01882427;6.88642e-05;0;295346.1329729824;2695.766305736759;-0.001;1;0;2;
1510740128.336776;1510740128.336776;1510740128.336887;57.77269388557333;12.77166950726809;233.9982541729682;0.3389779;-1.111805;0.02196958;-1.410394986179017;-1.667640411984423;106.6263923822331;73.96944618739808;286.9559;1.162332;0.07351312;0.1612426;0.03730746;0.4791965;-0.0221337;-0.05821732;0;295346.1729739772;2695.806306731481;-0.001;1;0;2;
1510740128.416643;1510740128.416643;1510740128.416852;57.77269400272202;12.77166878002684;233.9973942302575;0.3344635;-1.096255;0.01935418;-1.410594377429222;-1.667842017719636;106.6280666604795;73.96968830529251;286.9668;1.146142;0.1221341;0.06898545;0.04287659;0.462413;-0.001487422;-0.1162446;0;295346.2129739719;2695.846306726203;-0.001;1;0;2;
1510740128.473409;1510740128.473409;1510740128.473525;57.77269406056964;12.77166842014084;233.9969758031679;0.3317153;-1.09018;0.02023169;-1.411885474414236;-1.667736415177318;106.6285949709643;73.96980936105757;286.9237;1.139529;0.06966294;0.05570429;0.001188437;0.3069987;0.01020419;0.05812734;0;295346.2329739693;2695.866306723564;-0.001;1;0;2;
1510740128.547438;1510740128.547438;1510740128.547533;57.77269417539767;12.77166770740416;233.9961376126104;0.327635;-1.075813;0.02109687;-1.4106040462606;-1.667631812870374;106.6314007414682;73.9700514667713;286.9379;1.124597;0.3113356;0.1504941;-0.01013319;0.414222;0.002504741;-0.05358072;0;295346.272973964;2695.906306718286;-0.001;1;0;2;
1510740128.552401;1510740128.552401;1510740128.552506;57.77269428852026;12.7716670033977;233.9952990431891;0.3220712;-1.062919;0.01898597;-1.408860396536338;-1.668656486939044;106.6324066265769;73.97029356497073;286.8571;1.110642;0.1646362;-0.01456254;-0.07661901;0.4760692;0.02379351;-0.1013943;0;295346.3129739587;2695.946306713008;-0.001;1;0;2;
1510740128.564995;1510740128.564995;1510740128.565099;57.77269440016833;12.77166630804459;233.9944543937172;0.3193997;-1.050563;0.01831434;-1.406585368536121;-1.670734187343499;106.6345548741194;73.97053565586309;286.9107;1.098043;-0.03312487;-0.08089896;0.0970665;0.3088385;0.03709158;-0.07233588;0;295346.3529749534;2695.98630770773;-0.001;1;0;2;
1510740128.573282;1510740128.573282;1510740128.573385;57.77269445544019;12.77166596318131;233.994035373463;0.3189791;-1.044671;0.02086184;-1.404471478360441;-1.672852912916194;106.6350362917036;73.97065669886678;286.9795;1.092284;0.1662294;0.01597643;0.1667492;0.3551056;-0.02393123;-0.03375142;0;295346.3729749508;2696.006307705091;-0.001;1;0;2;
1510740128.585527;1510740128.585527;1510740128.585637;57.77269456494005;12.77166527979669;233.9931825352384;0.3132457;-1.032374;0.02048223;-1.401659289270813;-1.675431336223981;106.6355586161267;73.97089877954363;286.879;1.078851;0.2768672;0.05196972;-0.03934288;0.4622872;-0.01072421;-0.1216135;0;295346.4129749455;2696.046307699813;-0.001;1;0;2;
1510740128.589373;1510740128.589373;1510740128.589473;57.77269461911442;12.77166494112129;233.9927871385573;0.3099457;-1.027696;0.01837955;-1.401865527670876;-1.678279488944495;106.6353470542294;73.9710198172118;286.7829;1.073418;-0.144014;-0.1147601;-0.06262787;0.2042683;0.04119071;0.05923524;0;295346.4329749428;2696.066307697175;-0.001;1;0;2;
1510740128.602845;1510740128.602845;1510740128.602951;57.7726947267461;12.771664270237;233.9919486522302;0.310122;-1.013775;0.02038414;-1.397891845432;-1.678874736292714;106.6359572656537;73.97126188742688;287.0093;1.060148;0.2422151;0.08318472;0.1348353;0.2708591;-0.03654094;-0.007899637;0;295346.4729749376;2696.106307691897;-0.001;1;0;2;
1510740128.618283;1510740128.618283;1510740128.618345;57.77269483304083;12.77166360774035;233.9911258757974;0.3037778;-1.000748;0.01958239;-1.394710209845045;-1.678686124742309;106.6354881064438;73.97150395052013;286.8857;1.045838;0.06627204;0.1333989;-0.04485504;0.4368125;-0.02052113;-0.1403466;0;295346.5129759323;2696.146308686619;-0.001;1;0;2;
1510740128.663446;1510740128.663446;1510740128.663553;57.77269493807325;12.771662954262;233.9903222517919;0.2997448;-0.9867404;0.01768076;-1.390345929559483;-1.67787850589013;106.6363831979355;73.97174600609453;286.8973;1.031263;0.1468524;0.04741017;-0.05346096;0.5049205;-0.01539344;-0.1367255;0;295346.552975927;2696.186308681341;-0.001;1;0;2;
1510740128.74331;1510740128.74331;1510740128.74344;57.77269504151198;12.77166231139779;233.9895408638189;0.2970802;-0.969691;0.01534406;-1.388341712117817;-1.676622734616924;106.6389274687822;73.97198805275212;287.0333;1.014178;-0.1591516;-0.1033684;0.2440861;0.3686014;0.01152199;0.001079902;0;295346.5929759218;2696.226308676063;-0.001;1;0;2;
1510740128.823473;1510740128.823473;1510740128.823592;57.7726951432224;12.77166167850143;233.9887285327862;0.2923142;-0.9555498;0.01740471;-1.387494472041395;-1.675649444584087;106.6398959684671;73.97223009087335;287.0095;0.9992613;0.02686412;-0.083567;0.1018442;0.3769826;-0.02576997;0.08338719;0;295346.6329759165;2696.266308670785;-0.001;1;0;2;
1510740128.863396;1510740128.863396;1510740128.863498;57.77269524326085;12.77166105678204;233.9879151901355;0.2851324;-0.9404913;0.01872199;-1.386991175294304;-1.674520570261521;106.6395066350965;73.97247211947803;286.8659;0.9827636;0.1322879;-0.01203913;-0.167926;0.2755825;-0.005267495;0.09418935;0;295346.6729769112;2696.306309665507;-0.001;1;0;2;
1510740128.943433;1510740128.943433;1510740128.943497;57.77269534174064;12.77166044612621;233.9870935022655;0.282555;-0.9205002;0.02060248;-1.384949917653562;-1.672527508623597;106.6397548269716;73.97271413881636;287.0643;0.9628904;0.2083648;0.254775;0.04947609;0.5193959;-0.04968448;-0.1290775;0;295346.7129769059;2696.34630966023;-0.001;1;0;2;
1510740128.980215;1510740128.980215;1510740128.980317;57.77269543861782;12.77165984654967;233.9863404007448;0.2771211;-0.9051998;0.01751124;-1.387641144773487;-1.673662133009997;106.6403787403357;73.97295614858481;287.0216;0.9466693;0.02717347;0.05016121;-0.006547411;0.5925419;0.003240318;-0.1401694;0;295346.7529769007;2696.386309654952;-0.001;1;0;2;
1510740128.989703;1510740128.989703;1510740128.989817;57.77269553382951;12.771659258349;233.9856079894004;0.2731698;-0.8889133;0.01436321;-1.390071754819011;-1.674580408152604;106.6415777179464;73.97319814877066;287.0826;0.9299401;-0.006138077;-0.1517826;0.03823486;0.3606009;-0.01641788;-0.05376579;0;295346.7929768953;2696.426309649674;-0.001;1;0;2;
1510740128.999561;1510740128.999561;1510740128.999695;57.77269562722766;12.77165868093875;233.9848829880426;0.2683534;-0.8712363;0.01429291;-1.391579758675904;-1.675617008778809;106.6425894921441;73.97344013982818;287.1196;0.9116284;0.01385819;-0.1271455;0.1076885;0.3712131;-0.003359972;0.07090419;0;295346.8329778901;2696.466310644396;-0.001;1;0;2;
1510740129.010132;1510740129.010132;1510740129.010244;57.77269571883627;12.77165811462031;233.9841717308065;0.2620519;-0.8568718;0.01651231;-1.391288795857273;-1.677391032618851;106.6437435027075;73.9736821215027;287.0049;0.8960472;0.06338467;-0.04429604;-0.0004166908;0.3500917;0.05110287;0.09693535;0;295346.8729778848;2696.506310639118;-0.001;1;0;2;
1510740129.019855;1510740129.019855;1510740129.019959;57.77269580831325;12.77165755926045;233.983417741905;0.255633;-0.8408934;0.01769693;-1.390402526625129;-1.675637351469837;106.6448334436259;73.97392409407499;286.9094;0.8788914;0.1278535;0.05098656;-0.06865564;0.3925477;0.03799633;-0.0009547125;0;295346.9129778795;2696.54631063384;-0.001;1;0;2;
1510740129.02963;1510740129.02963;1510740129.029727;57.77269589582819;12.77165701473936;233.9826485313363;0.2523619;-0.8207323;0.01949983;-1.386234284992977;-1.673054566948993;106.6467037310781;73.97416605760249;287.0918;0.8586547;0.209087;0.3092065;0.2011488;0.6193637;-0.007923686;-0.1779917;0;295346.9529778743;2696.586310628562;-0.001;1;0;2;
1510740129.034994;1510740129.034994;1510740129.035091;57.7726959388047;12.7716567466145;233.9823336665036;0.2477586;-0.8170071;0.01385548;-1.387337889984879;-1.676378039238281;106.6476260408716;73.97428703560702;286.87;0.8537475;-0.009529601;-0.2629122;-0.002467995;0.2186186;0.04449818;0.1569884;0;295346.9729778716;2696.606310625923;-0.001;1;0;2;
1510740129.183671;1510740129.183671;1510740129.183735;57.77269606307482;12.77165595792589;233.981240946851;0.240756;-0.7925383;0.01225306;-1.381235225575627;-1.67697548576615;106.6461209772685;73.9748899332307;286.8976;0.8282997;0.1770571;-0.2886679;-0.06611313;0.3234847;-0.01911731;0.006846171;0;295347.0329789956;2696.666311618007;-0.001;1;0;2;
1510740129.256739;1510740129.256739;1510740129.256801;57.77269614447872;12.77165544583243;233.9805667186551;0.2374814;-0.7763281;0.01510805;-1.377820595295607;-1.679145470829116;106.644921537453;73.97537184602319;287.009;0.8118391;0.3776489;-0.04402721;0.02520437;0.2418708;0.002471113;0.1296524;0;295347.0729789904;2696.706311612729;-0.001;1;0;2;
1510740129.336904;1510740129.336904;1510740129.337039;57.77269622451957;12.77165494375484;233.9799387721176;0.2329942;-0.7623485;0.01400817;-1.373593893401921;-1.682701458591597;106.6438706875075;73.97585375029847;286.9946;0.7971584;0.2107357;-0.09581041;0.05007038;0.3579331;0.04107948;-0.006999637;0;295347.1129789851;2696.746311607451;-0.001;1;0;2;
1510740129.416794;1510740129.416794;1510740129.416954;57.77269630289059;12.77165445186299;233.9792873066749;0.2273098;-0.7469889;0.0161779;-1.367516725760585;-1.681940621860571;106.6434279285396;73.97633564621184;286.9251;0.7808087;0.4112013;0.1530245;-0.05577757;0.470991;0.01781279;-0.1504563;0;295347.1529789798;2696.786311602173;-0.001;1;0;2;
1510740129.434385;1510740129.434385;1510740129.434464;57.77269637962841;12.77165396997243;233.9786825411365;0.2233219;-0.7301006;0.01371301;-1.367149155639467;-1.683796766828311;106.6451206850348;73.97681753355826;287.0077;0.7634916;0.134361;0.03224577;0.09556278;0.4351061;0.02361662;-0.1097104;0;295347.1929799746;2696.826312596895;-0.001;1;0;2;
1510740129.448024;1510740129.448024;1510740129.44811;57.77269649220738;12.77165326530008;233.9777436217485;0.2163087;-0.7102532;0.01540542;-1.364487195641882;-1.686250397911514;106.6468669166358;73.97754034922278;286.9382;0.7424615;0.06543477;0.08820094;-0.07947521;0.4407299;-0.01176208;-0.07945593;0;295347.2529799666;2696.886312588978;-0.001;1;0;2;
1510740129.459333;1510740129.459333;1510740129.459436;57.77269656552904;12.77165280710888;233.977111862735;0.2125573;-0.6958206;0.0134706;-1.361698470925028;-1.689059045812793;106.6477252794055;73.97802221647487;286.9867;0.7275623;-0.08909108;-0.04659217;0.01122346;0.4915205;0.01202834;-0.1220272;0;295347.2929799613;2696.926312583701;-0.001;1;0;2;
1510740129.467945;1510740129.467945;1510740129.468048;57.77269663716102;12.77165235853925;233.9764794179193;0.2093828;-0.6830502;0.01258813;-1.363060583953162;-1.690486165816293;106.6474413917306;73.97850407553494;287.0424;0.7144219;-0.1318793;-0.1294644;0.04925627;0.300531;0.03533816;0.01430282;0;295347.3329799561;2696.966312578423;-0.001;1;0;2;
1510740129.481306;1510740129.481306;1510740129.481409;57.77269674193034;12.77165170251582;233.9755135908033;0.2048225;-0.6620846;0.01300236;-1.363178816088251;-1.691304282409143;106.6470045171811;73.97922684997643;287.19;0.6930428;0.1421881;-0.09925807;0.1396686;0.4345082;-0.0206938;-0.1199322;0;295347.3929809481;2697.026313570506;-0.001;1;0;2;
1510740129.586565;1510740129.586565;1510740129.586666;57.77269684324376;12.77165106796663;233.9745986469685;0.1968354;-0.6408445;0.01411663;-1.361165920676634;-1.691816832353742;106.646524817858;73.9799496062961;287.0743;0.6703924;0.2211071;0.06221246;-0.0283792;0.3699896;-0.03157596;-0.07884892;0;295347.4529809402;2697.086313562589;-0.001;1;0;2;
1510740129.667082;1510740129.667082;1510740129.667516;57.77269690877495;12.7716506566884;233.9740135004753;0.1890901;-0.6273037;0.01295191;-1.357794762462978;-1.691009897543396;106.6455529447007;73.98043143395178;286.7745;0.6551832;0.09764664;0.08573841;-0.1916028;0.3565027;-0.02588676;-0.130888;0;295347.492980935;2697.126313557311;-0.001;1;0;2;
1510740129.747729;1510740129.747729;1510740129.747967;57.77269697287704;12.77165025399108;233.973474056466;0.1889936;-0.6118433;0.0110384;-1.357016037715983;-1.693849826817888;106.6476616112296;73.98091325428632;287.1655;0.6403677;0.05473246;-0.05439481;0.242743;0.4302424;-0.02972854;-0.05465542;0;295347.5329819297;2697.166314552033;-0.001;1;0;2;
1510740129.823352;1510740129.823352;1510740129.82348;57.77269703535208;12.77164986098692;233.972937846602;0.1826895;-0.6011441;0.008675265;-1.357071530157693;-1.695972153050737;106.6490437089537;73.98139506640725;286.9042;0.6282911;-0.146409;-0.2886074;-0.04669107;0.295041;-0.003443432;0.07294982;0;295347.5729819244;2697.206314546755;-0.001;1;0;2;
1510740129.855863;1510740129.855863;1510740129.855935;57.77269709661505;12.77164947704281;233.9723974511507;0.1821678;-0.5865514;0.0127472;-1.354229970008066;-1.696809679462413;106.6502651803005;73.98187687095918;287.2534;0.6141887;0.1680978;0.02242739;0.1668607;0.1437789;-0.04722536;0.1029475;0;295347.6129819191;2697.246314541478;-0.001;1;0;2;
1510740129.869228;1510740129.869228;1510740129.8694;57.77269715657265;12.77164910085903;233.9718528563543;0.1768591;-0.574516;0.01373979;-1.350778848289191;-1.698178863751326;106.6487910298966;73.98235866880493;287.1105;0.6011221;0.2790793;0.128115;-0.02020929;0.3373998;-0.04577728;-0.0741739;0;295347.6529819138;2697.2863145362;-0.001;1;0;2;
1510740129.882255;1510740129.882255;1510740129.882389;57.77269721556365;12.77164873234227;233.9713124343105;0.1730487;-0.5644246;0.01032207;-1.346045071632047;-1.70027710942644;106.6477089616205;73.9828404601691;287.0452;0.5903566;0.0167002;-0.1212002;-0.06008723;0.3918395;-0.05556015;-0.1807407;0;295347.6929829086;2697.326315530922;-0.001;1;0;2;
1510740129.893816;1510740129.893816;1510740129.893941;57.77269727323117;12.77164837090166;233.9707948780704;0.1709042;-0.5537542;0.009743299;-1.347838351377452;-1.70312964773566;106.6465860998495;73.98332224541224;287.1517;0.5795274;-0.2348155;-0.1612039;0.1284494;0.2510018;0.03125074;0.006090232;0;295347.7329829033;2697.366315525644;-0.001;1;0;2;
1510740129.909456;1510740129.909456;1510740129.909612;57.77269732989669;12.77164801630081;233.9702985982549;0.1680991;-0.5436434;0.009755384;-1.349894754638932;-1.706972022727502;106.6469745665335;73.9838040248908;287.182;0.5690391;-0.1348002;-0.1477052;0.1443891;0.173439;0.04997065;0.1480681;0;295347.772982898;2697.406315520366;-0.001;1;0;2;
1510740129.926805;1510740129.926805;1510740129.926909;57.7726973856134;12.77164766847007;233.9698062283095;0.1687317;-0.5328403;0.01029809;-1.350471487913717;-1.70888563980872;106.6490817905968;73.98428579883367;287.5712;0.5589178;0.07923312;-0.06731963;0.4222151;0.1894847;0.03963688;0.04407762;0;295347.8129828927;2697.446315515088;-0.001;1;0;2;
1510740129.943455;1510740129.943455;1510740129.943518;57.77269744014325;12.77164732728624;233.9693348800494;0.1639155;-0.5228574;0.01153971;-1.348460409515401;-1.709474955147425;106.6502352549221;73.98476756720873;287.4062;0.547949;0.1351881;0.1149606;0.2697516;0.3260773;0.03071291;-0.05812065;0;295347.8529838875;2697.48631650981;-0.001;1;0;2;
1510740129.965805;1510740129.965805;1510740129.965911;57.77269749355685;12.77164699287701;233.9688730086744;0.1589087;-0.5131356;0.009866767;-1.346391809851445;-1.709348638468493;106.6518961037958;73.98524932991037;287.2068;0.537178;0.07791557;0.06346357;0.1172652;0.3080181;-0.01116808;-0.1490582;0;295347.8929838822;2697.526316504533;-0.001;1;0;2;
1510740130.033947;1510740130.033947;1510740130.034054;57.77269754592336;12.77164666480686;233.96841707967;0.1552164;-0.5041045;0.008852036;-1.346763811217119;-1.709572930537328;106.6539516821218;73.98573108721507;287.1139;0.5274594;-0.2015948;-0.04961476;0.1171965;0.2503324;-0.02039758;-0.01699304;0;295347.9329838769;2697.566316499255;-0.001;1;0;2;
1510740130.153207;1510740130.153207;1510740130.153318;57.77269762253762;12.77164618381453;233.9676891254768;0.1518069;-0.4905757;0.01043103;-1.342087229598303;-1.711221415466586;106.6526125801811;73.98645371358305;287.1945;0.5135269;0.09434808;-0.01452663;0.05138668;0.3258634;0.008041792;-0.07311999;0;295347.992983869;2697.626316491338;-0.001;1;0;2;
1510740130.186796;1510740130.186796;1510740130.186898;57.77269764772477;12.77164602712981;233.9674665140522;0.1501118;-0.4872895;0.01236868;-1.34326553345417;-1.713561861547334;106.6519531448222;73.98645499114569;287.1217;0.5098868;0.07605793;0.06001315;0.01071268;0.1278178;-0.004170313;0.0492214;0;295348.0129839983;2697.646317488695;-0.001;1;0;2;
1510740130.308362;1510740130.308362;1510740130.30847;57.77269769769068;12.77164571727393;233.9669641958336;0.1488804;-0.4833181;0.01226052;-1.340930756580925;-1.714702378763402;106.651041275491;73.98645754355641;287.1208;0.5057289;0.2740598;0.02164818;-0.05301145;0.04314048;-0.03711465;-0.02368985;0;295348.052983993;2697.686317483406;-0.001;1;0;2;
1510740130.317931;1510740130.317931;1510740130.318039;57.77269774758033;12.77164540818472;233.9664986147872;0.1486095;-0.4816707;0.01027281;-1.337795185522121;-1.722333748656958;106.6507657410675;73.98646009506305;287.1465;0.5040749;0.1924256;-0.1145315;0.036461;0.1225067;0.002270404;-0.1702005;0;295348.0929839877;2697.726317478117;-0.001;1;0;2;
1510740130.333169;1510740130.333169;1510740130.333275;57.77269779716037;12.77164509947347;233.9660793028906;0.1461357;-0.4833951;0.00726526;-1.337029293344963;-1.733528296596399;106.6504465910415;73.9864626460492;286.8206;0.5050014;0.02448161;-0.3661505;-0.1457733;-0.04221925;0.01845786;-0.008641419;0;295348.1329839824;2697.766317472829;-0.001;1;0;2;
1510740130.343672;1510740130.343672;1510740130.343834;57.77269784716104;12.77164478986817;233.9656672461046;0.1509186;-0.4851905;0.007492749;-1.335766276278495;-1.745387114052183;106.6528428745963;73.98646519789649;287.2783;0.5081202;0.08775953;-0.3946836;0.1559677;-0.1752395;0.005725389;0.103182;0;295348.1729839771;2697.80631746754;-0.001;1;0;2;
1510740130.35813;1510740130.35813;1510740130.358235;57.7726978974131;12.77164447843516;233.9652722053649;0.1494736;-0.4886324;0.009523517;-1.335553837672488;-1.757518824066693;106.6543530665567;73.9864677512204;287.009;0.5109834;0.173486;-0.2366168;-0.05074331;-0.198388;0.0006193498;0.07718308;0;295348.2129849718;2697.846318462251;-0.001;1;0;2;
1510740130.36775;1510740130.36775;1510740130.36781;57.77269792286973;12.77164432197696;233.9650502496622;0.1513304;-0.4904077;0.006394088;-1.333516273803577;-1.761385534387737;106.6562523670773;73.98646902869328;287.1492;0.5132257;-0.09466831;-0.3982931;0.08738456;-0.1474881;-0.01850834;-0.007762068;0;295348.2329849692;2697.866318459607;-0.001;1;0;2;
1510740130.375572;1510740130.375572;1510740130.375673;57.77269797402933;12.77164400564015;233.9646410247013;0.1523374;-0.4976829;0.008359143;-1.333292670411499;-1.771757383721102;106.6572352992461;73.98647158622184;287.019;0.5204757;-0.1563061;-0.293981;-0.01809665;-0.2831386;-0.007041923;0.1442206;0;295348.2729849639;2697.906318454318;-0.001;1;0;2;
1510740130.406953;1510740130.406953;1510740130.407053;57.77269802612426;12.7716436844126;233.9641880827811;0.1550629;-0.505951;0.01032546;-1.332056282931484;-1.77963027300135;106.6583568879745;73.98647414802385;287.0392;0.5291795;0.01938544;-0.2041989;-0.0402014;-0.3162853;-0.0261308;0.07276536;0;295348.3129849586;2697.946318449029;-0.001;1;0;2;
1510740130.486931;1510740130.486931;1510740130.486994;57.77269807913842;12.77164335687832;233.9637154076366;0.1603211;-0.5153233;0.01180275;-1.331950150468383;-1.787209379886334;106.6589113017817;73.98647671513089;287.2813;0.539686;0.07527196;-0.1012046;0.1441755;-0.2609014;0.007747396;-0.03670068;0;295348.3529859533;2697.98631944374;-0.001;1;0;2;
1510740130.548424;1510740130.548424;1510740130.548548;57.77269810597328;12.77164319016571;233.9634913963776;0.1563249;-0.5234088;0.009612397;-1.333024751729053;-1.792191034387621;106.6580608707118;73.98647800105182;286.6292;0.5462548;-0.3001738;-0.2913455;-0.2859192;-0.3811831;0.006044997;0.1735476;0;295348.3729859507;2698.006319441096;-0.001;1;0;2;
1510740130.626792;1510740130.626792;1510740130.626891;57.77269816106057;12.77164285023524;233.9629943252338;0.1656226;-0.5357339;0.01217415;-1.333411530145839;-1.801083727025698;106.6590511739381;73.98648057859864;287.179;0.560751;-0.03874525;-0.1753223;0.1071166;-0.4496211;0.0004797598;0.08862841;0;295348.4129859454;2698.046319435807;-0.001;1;0;2;
1510740130.666908;1510740130.666908;1510740130.667061;57.77269818899291;12.77164267660138;233.9627335523075;0.1653602;-0.5434197;0.009436032;-1.332698577112209;-1.804768309473384;106.6574905774372;73.98648187042755;286.9248;0.568022;-0.1744095;-0.2974305;-0.07881892;-0.4043685;0.02516369;0.006348567;0;295348.4329859428;2698.066319433163;-0.001;1;0;2;
1510740130.747002;1510740130.747002;1510740130.7471;57.77269824656908;12.77164232146309;233.9622316950871;0.1710033;-0.5604331;0.01032463;-1.332797406368504;-1.814015996546531;106.6591393012801;73.98648446085869;286.9684;0.5859415;-0.1563149;-0.3091075;-0.03045015;-0.5377163;0.01355381;0.1623111;0;295348.4729859375;2698.106319427874;-0.001;1;0;2;
1510740130.773608;1510740130.773608;1510740130.773704;57.77269830607163;12.77164195426075;233.9617200944951;0.1786134;-0.5784243;0.01192557;-1.331464048811401;-1.823263873490245;106.6606348805163;73.98648706150995;287.1603;0.6053737;0.1289143;-0.2023776;0.07783826;-0.5601903;-0.00237511;0.1092374;0;295348.5129859322;2698.146319422585;-0.001;1;0;2;
1510740130.787723;1510740130.787723;1510740130.787828;57.77269836773669;12.77164157420115;233.9611968853145;0.1833748;-0.5982163;0.0133772;-1.329812535435071;-1.832031631108621;106.6631207600781;73.98648967311108;287.0422;0.6256909;0.08602356;-0.09913117;0.006986404;-0.5010294;0.01318805;-0.02915465;0;295348.5529869269;2698.186320417296;-0.001;1;0;2;
1510740130.805394;1510740130.805394;1510740130.805644;57.77269843146901;12.77164118027805;233.9606471794613;0.1882867;-0.6193849;0.01282823;-1.328511517574981;-1.839784445772026;106.664606018585;73.98649229643409;286.9087;0.6473713;0.01320149;-0.1182336;-0.1120968;-0.4612167;-0.02237855;-0.09286506;0;295348.5929869216;2698.226320412008;-0.001;1;0;2;
1510740130.823437;1510740130.823437;1510740130.823499;57.77269849772242;12.77164077143155;233.9600982526324;0.195751;-0.6422784;0.01134845;-1.327413091293043;-1.848771518845032;106.6667013687786;73.98649493235092;286.95;0.6714462;-0.1884896;-0.2429202;-0.01268925;-0.5773981;-0.01596371;-0.03080059;0;295348.6329869163;2698.266320406719;-0.001;1;0;2;
1510740130.835804;1510740130.835804;1510740130.835909;57.77269856636266;12.77164034671949;233.9595296711925;0.2039301;-0.666845;0.01270716;-1.327404020251972;-1.856899456338776;106.6669626586322;73.9864975816258;287.0043;0.6973304;-0.07486064;-0.2156822;0.02846032;-0.7284161;0.03381607;0.1544491;0;295348.672986911;2698.30632040143;-0.001;1;0;2;
1510740130.849265;1510740130.849265;1510740130.849377;57.77269863785158;12.77163990492122;233.9589361863781;0.2109891;-0.6936054;0.01360489;-1.326912824041844;-1.864733379159528;106.6674731544365;73.98650024538711;286.9193;0.7249861;-0.3239467;-0.2051629;0.02033564;-0.7848756;0.05892689;0.1388443;0;295348.7129879057;2698.346321396141;-0.001;1;0;2;
1510740130.863;1510740130.863;1510740130.8631;57.7726987122437;12.77163944517342;233.9583216333275;0.2197197;-0.7205991;0.01550719;-1.32333920392117;-1.871378806119814;106.6668968191353;73.98650292438224;286.9571;0.7533523;0.01767255;-0.05973552;-0.06901117;-0.7537884;-0.003985799;0.02102221;0;295348.7529879005;2698.386321390853;-0.001;1;0;2;
1510740130.896762;1510740130.896762;1510740130.89685;57.77269878979213;12.77163896652548;233.9576835043906;0.2306404;-0.7478359;0.01511564;-1.319354115922822;-1.877055121345449;106.6675019470999;73.98650561947152;287.1403;0.7825941;0.2372064;-0.07372715;0.09029312;-0.6534324;-0.004172175;-0.06889574;0;295348.7929878951;2698.426321385564;-0.001;1;0;2;
1510740130.97682;1510740130.97682;1510740130.97693;57.77269887031028;12.77163846845067;233.9570388386509;0.2365324;-0.777694;0.01400522;-1.317231336955947;-1.882922553798134;106.6676118754375;73.98650833093481;286.9169;0.8128687;0.06573277;-0.1392963;-0.1044889;-0.7278957;0.02974149;-0.03237832;0;295348.8329878899;2698.466321380275;-0.001;1;0;2;
1510740131.046922;1510740131.046922;1510740131.047073;57.77269895409778;12.77163795088436;233.9563800573604;0.2459591;-0.8069412;0.01378122;-1.314725869816322;-1.888480116280648;106.6691007458931;73.98651105897143;286.9514;0.8435935;-0.04537437;-0.2364008;-0.006765859;-0.789676;0.02226428;0.1287677;0;295348.8729888846;2698.506322374986;-0.001;1;0;2;
1510740131.126858;1510740131.126858;1510740131.126957;57.77269904104246;12.77163741414719;233.9556771262781;0.2521367;-0.8359817;0.01604413;-1.312757320087841;-1.8918915966061;106.6709965352618;73.98651380333386;286.7836;0.8731771;-0.2492887;-0.1017679;-0.1627817;-0.8228729;0.04945756;0.1758927;0;295348.9129888793;2698.546322369697;-0.001;1;0;2;
1510740131.197022;1510740131.197022;1510740131.197124;57.77269913123629;12.77163685860268;233.9549363422043;0.2649261;-0.8618984;0.01870939;-1.308999750674593;-1.892481154901276;106.6729736079734;73.98651656376489;287.0861;0.9016954;0.1869939;0.1177425;0.06870354;-0.7371839;-0.01216861;0.01819814;0;295348.952988874;2698.586322364409;-0.001;1;0;2;
1510740131.203271;1510740131.203271;1510740131.203428;57.77269917735943;12.77163657399448;233.9545668048382;0.2673078;-0.8758357;0.01485624;-1.307260989579509;-1.892085615869627;106.6723012694099;73.9865179497143;286.9724;0.9157192;-0.06791402;-0.1069819;-0.06933293;-0.7163688;-0.03294992;0.03990084;0;295348.9729888713;2698.606322361764;-0.001;1;0;2;
1510740131.217293;1510740131.217293;1510740131.217392;57.77269936559959;12.77163539100513;233.9531050161774;0.2836011;-0.9296872;0.01664909;-1.304031538118287;-1.889515658525047;106.6721920427646;73.98758064647902;286.9643;0.9719814;-0.05934847;-0.03038194;-0.07371018;-0.8103989;0.004172547;0.1370659;0;295349.052989993;2698.686323351187;-0.001;1;0;2;
1510740131.224631;1510740131.224631;1510740131.224737;57.7726994646166;12.77163477351565;233.952341823116;0.2938241;-0.9546429;0.01944205;-1.302313418409193;-1.887752470723245;106.6724203774211;73.98828820330243;287.1075;0.9988371;0.2792795;0.1328184;0.02354323;-0.6294253;-0.03947645;0.00366293;0;295349.0929899877;2698.726323345898;-0.001;1;0;2;
1510740131.234736;1510740131.234736;1510740131.234869;57.77269956660398;12.77163413834663;233.9515662995199;0.3023011;-0.9801512;0.01893244;-1.299309327502679;-1.88778837260794;106.6727962697875;73.98899577502647;287.141;1.025711;0.3495811;0.0622188;0.07671337;-0.5715678;-0.04037491;-0.07726927;0;295349.1329899824;2698.766323340609;-0.001;1;0;2;
1510740131.241248;1510740131.241248;1510740131.241416;57.77269967125433;12.77163348544253;233.9507820884302;0.3097115;-1.006673;0.01694203;-1.296100312062764;-1.889719472200472;106.6722291549868;73.98970336162614;287.101;1.053238;0.2029161;-0.1079604;0.1015222;-0.6813005;-0.0218055;-0.04365389;0;295349.1729899771;2698.80632333532;-0.001;1;0;2;
1510740131.296815;1510740131.296815;1510740131.296879;57.77269977875579;12.77163281459534;233.9500052636248;0.3172077;-1.034367;0.01692371;-1.297344552916895;-1.894453545249506;106.673406838924;73.99041096329231;287.0491;1.081913;-0.1730453;-0.2407258;0.17635;-0.7698129;0.03921075;0.1775315;0;295349.2129909718;2698.846324330032;-0.001;1;0;2;
1510740131.357226;1510740131.357226;1510740131.357329;57.77269983370147;12.77163247270987;233.9495702661248;0.3207445;-1.046124;0.01896558;-1.294927146402644;-1.893404542605185;106.6747501213753;73.9907647698279;287.0457;1.09419;-0.0289585;0.0123256;0.1027252;-0.5931398;-0.05572961;-0.1198196;0;295349.2329909691;2698.866324327387;-0.001;1;0;2;
1510740131.436967;1510740131.436967;1510740131.437041;57.77269994548168;12.77163177510298;233.9487879395223;0.3285532;-1.074235;0.01489768;-1.29359659263813;-1.89699296153317;106.674576626765;73.99147239415845;287.0062;1.123356;-0.2044774;-0.2759741;0.08134241;-0.7129328;0.004181183;-0.03926999;0;295349.2729909639;2698.906324322098;-0.001;1;0;2;
1510740131.516735;1510740131.516735;1510740131.516797;57.77270006035232;12.77163105951911;233.9480003665942;0.3355875;-1.101869;0.01713116;-1.289782127053422;-1.899778098763199;106.6746185512587;73.99218003378057;286.9388;1.151839;-0.236746;-0.1931707;0.0008993197;-0.7936156;0.06236988;0.2078398;0;295349.3129909586;2698.94632431681;-0.001;1;0;2;
1510740131.596785;1510740131.596785;1510740131.596979;57.77270017825885;12.77163032567453;233.9471611551736;0.3433545;-1.129017;0.0220564;-1.282690766827874;-1.901309645089323;106.674348474786;73.99288768894182;286.9155;1.180073;0.3405295;0.06646968;-0.181335;-0.7703695;0.00741433;0.1231476;0;295349.3529909533;2698.986324311521;-0.001;1;0;2;
1510740131.653344;1510740131.653344;1510740131.65345;57.77270023824672;12.77162995207429;233.9467355794202;0.3465246;-1.142235;0.01563366;-1.281049640719997;-1.90158527664259;106.6741150869548;73.99324152216037;286.8764;1.193642;-0.3626356;-0.3005079;-0.1059343;-0.7773926;-0.008407368;0.0436198;0;295349.3729919507;2699.006325308877;-0.001;1;0;2;
1510740131.672489;1510740131.672489;1510740131.672595;57.77270036034137;12.77162919096215;233.945894111843;0.355057;-1.169309;0.01940443;-1.281447972980375;-1.904477028830657;106.6739747943183;73.99394920021955;286.8907;1.222027;-0.1827503;-0.1563643;-0.08325668;-0.830181;0.1171733;0.2926238;0;295349.4129919454;2699.046325303588;-0.001;1;0;2;
1510740131.676471;1510740131.676471;1510740131.676578;57.77270042267421;12.7716288038367;233.9454118001771;0.3618405;-1.180467;0.02069986;-1.27765628707554;-1.901885171356525;106.6747254014186;73.99430304508827;287.0415;1.234678;0.01935374;0.07163768;0.06268635;-0.6225994;-0.09652773;-0.1644062;0;295349.4329919427;2699.066325300943;-0.001;1;0;2;
1510740131.683419;1510740131.683419;1510740131.683521;57.77270054938477;12.77162801497576;233.9445694698774;0.3677009;-1.211574;0.01850283;-1.279597535906766;-1.90597968687064;106.6743352509443;73.99501074653183;286.8825;1.266142;-0.2229716;-0.2209709;-0.1616715;-0.8629212;0.03775597;0.2303398;0;295349.4729919374;2699.106325295655;-0.001;1;0;2;
1510740131.688916;1510740131.688916;1510740131.689082;57.77270067965276;12.77162720664491;233.943680812361;0.3798711;-1.240876;0.02344035;-1.278549026532336;-1.909130500241438;106.6752235926526;73.99571846459379;287.021;1.297719;0.02495784;0.03025818;0.03132271;-0.9314725;0.03819952;0.1355819;0;295349.5129919322;2699.146325290366;-0.001;1;0;2;
