SampleTimeStamp;SentTimeStamp;ReceivedTimeStamp;lat;lon;alt;vel_north;vel_east;vel_down;roll;pitch;heading;wander;track;speed;arate_lon;arate_trans;arate_down;accel_lon;accel_trans;accel_down;alignment;timeDistance.time1;timeDistance.time2;timeDistance.distanceTag;timeDistance.time1Type;timeDistance.time2Type;timeDistance.distanceType;
1510749433.721938;1510749433.721938;1510749433.722161;57.77322152952517;12.77116557874656;232.5938816237999;2.296314;0.2287681;0.01158704;0.794446846495622;-2.501953463567824;190.6905342431112;72.80968728066121;5.689265;2.307681;-0.3905573;-0.8312594;-9.628343;-0.5704636;0.4774405;-0.06261814;0;304651.6348328383;12001.2686312344;-0.001;1;0;2;
1510749433.801872;1510749433.801872;1510749433.801936;57.7732223923901;12.77116585339161;232.5933879467312;2.319079;0.2142581;0.007807894;0.7917871132769509;-2.524992121966427;190.3050337682805;72.81015133279736;5.278533;2.328955;-0.7311631;-0.7513063;-9.5874;-0.5295939;0.4456793;-0.06236273;0;304651.6748328281;12001.3086312242;-0.001;1;0;2;
1510749433.881846;1510749433.881846;1510749433.881908;57.77322326352306;12.77116611665016;232.5929334878948;2.342479;0.2009314;0.009994494;0.7750045635184344;-2.539142829960767;189.9182266913432;72.81061539345048;4.902673;2.351081;-0.8167131;-0.3151255;-9.482127;-0.5519547;0.4413416;-0.03296904;0;304651.7148328178;12001.34863121401;-0.001;1;0;2;
1510749433.961909;1510749433.961909;1510749433.962012;57.77322414286535;12.77116636929069;232.5924884988104;2.364861;0.1860129;0.009000041;0.7464944848678636;-2.542055734476011;189.5277900990085;72.81107946169955;4.497454;2.372165;-1.012684;-0.05933427;-9.704262;-0.5696405;0.4003639;-0.1203179;0;304651.7548338076;12001.38863220382;-0.001;1;0;2;
1510749434.041984;1510749434.041984;1510749434.042089;57.77322503014297;12.77116661266813;232.5920465902905;2.388301;0.1703303;0.009203898;0.7238507226065698;-2.534931267655494;189.128785049044;72.81154353651374;4.07935;2.394367;-0.9201608;0.0820272;-10.21819;-0.4727659;0.3382294;0.001983114;0;304651.7948337975;12001.42863219363;-0.001;1;0;2;
1510749434.100837;1510749434.100837;1510749434.100935;57.77322592545747;12.77116684661856;232.5915881500337;2.410307;0.1590091;0.01124242;0.712098692946586;-2.523955106041197;188.7200926630685;72.81200761815929;3.77436;2.415546;-0.5813482;0.2496196;-10.2706;-0.5101345;0.4526045;0.002917066;0;304651.8348337873;12001.46863218343;-0.001;1;0;2;
1510749434.158886;1510749434.158886;1510749434.158991;57.77322682900443;12.77116706786605;232.5910314898702;2.433977;0.138093;0.01293298;0.6901138263179503;-2.508070630792522;188.3003349607039;72.81247170807032;3.247226;2.437891;-1.377914;0.2776289;-10.58611;-0.4811466;0.5130568;0.09590725;0;304651.8748347771;12001.50863317324;-0.001;1;0;2;
1510749434.238909;1510749434.238909;1510749434.239009;57.77322774097272;12.7711672762638;232.5904198159672;2.457655;0.1220987;0.01314008;0.6566483549668567;-2.492940814036534;187.8723060827176;72.81293580680784;2.844172;2.460686;-1.426075;0.1457033;-10.70304;-0.4658359;0.503446;0.1039184;0;304651.9148347669;12001.54863316305;-0.001;1;0;2;
1510749434.309048;1510749434.309048;1510749434.309167;57.77322866131174;12.77116747263811;232.5898082903652;2.481489;0.1048354;0.013602;0.6315856363164615;-2.487083751760279;187.4366286113712;72.81339991486621;2.419135;2.483702;-0.8097231;-0.1250257;-10.97337;-0.5292751;0.4392644;0.1400454;0;304651.9548347567;12001.58863315286;-0.001;1;0;2;
1510749434.389072;1510749434.389072;1510749434.389196;57.77322959044589;12.77116765570173;232.5892219470225;2.506922;0.08425774;0.01310892;0.6166060650753706;-2.498858804269986;186.9971153040346;72.81386403409799;1.924989;2.508337;-0.8535284;-0.6004816;-10.87656;-0.5153111;0.6894745;0.1234894;0;304651.9948347465;12001.62863314266;-0.001;1;0;2;
1510749434.431906;1510749434.431906;1510749434.432011;57.77323006048693;12.77116775481704;232.5890788494737;2.518928;0.07071538;0.01247282;0.6045919348245482;-2.508241946628308;186.7773025107668;72.81388528684232;1.608076;2.519921;-0.6170325;-0.8272249;-11.19874;-0.4474607;0.5674066;0.08928043;0;304652.0148359963;12001.64863413757;-0.001;1;0;2;
1510749434.541873;1510749434.541873;1510749434.541953;57.77323053288493;12.77116785206056;232.5890025779107;2.531169;0.06094046;0.01197634;0.6016296926289767;-2.526873223109842;186.5580807066029;72.81390654194915;1.379188;2.531902;-0.644051;-1.119996;-10.9462;-0.5114571;0.7024225;0.2162069;0;304652.0348359912;12001.66863413247;-0.001;1;0;2;
1510749434.589244;1510749434.589244;1510749434.589338;57.77323100742169;12.77116794469111;232.5889074862171;2.543357;0.04715637;0.01347927;0.6012194302020848;-2.54933431893011;186.3367288902531;72.8139278007317;1.062199;2.543795;-0.7037277;-1.277436;-11.08735;-0.5542696;0.7450114;0.2347978;0;304652.0548359861;12001.68863412737;-0.001;1;0;2;
1510749434.597209;1510749434.597209;1510749434.597319;57.77323196286871;12.77116811621265;232.588612618054;2.566015;0.02296961;0.01700975;0.5851089141049862;-2.602208036964175;185.8897874949181;72.81397032837069;0.5128677;2.566118;-1.140612;-1.504298;-11.23328;-0.4381779;0.5276421;0.2376614;0;304652.0948359758;12001.72863411718;-0.001;1;0;2;
1510749434.603001;1510749434.603001;1510749434.603113;57.77323292577908;12.7711682729238;232.5881831888447;2.586703;0.005901483;0.01858856;0.5673187851389151;-2.658560843342338;185.434801219843;72.81401286701443;0.1307184;2.586709;-0.8202107;-1.515936;-11.40786;-0.4582831;0.4180278;0.0201523;0;304652.1348359656;12001.76863410699;-0.001;1;0;2;
1510749434.609796;1510749434.609796;1510749434.609986;57.77323389613762;12.77116841682553;232.5876515155473;2.607464;-0.01378459;0.02029967;0.5606652960673051;-2.706930906801501;184.9661170517177;72.81405541464791;359.6971;2.607501;-0.6681669;-1.257138;-11.99321;-0.4174869;0.3864501;-0.07880422;0;304652.1748369555;12001.8086350968;-0.001;1;0;2;
1510749434.615924;1510749434.615924;1510749434.616034;57.77323487359963;12.77116854848882;232.587030708049;2.62844;-0.03057388;0.02395561;0.5598794859823627;-2.742450239620474;184.4833590941516;72.81409797043941;359.3336;2.628618;-0.6993203;-0.8306922;-12.22941;-0.5383483;0.4529861;-0.01704559;0;304652.2148369453;12001.8486350866;-0.001;1;0;2;
1510749434.62121;1510749434.62121;1510749434.621343;57.77323536520939;12.77116860970423;232.5866728258971;2.638753;-0.0372239;0.02580444;0.5589896642387623;-2.754591270490701;184.2396509595777;72.81411925177254;359.1918;2.639016;-0.6187271;-0.610382;-12.07345;-0.4505457;0.5386007;-0.02954941;0;304652.2348369402;12001.86863508151;-0.001;1;0;2;
1510749434.636166;1510749434.636166;1510749434.636272;57.77323635426664;12.77116872000812;232.585902053056;2.66166;-0.06165473;0.02767575;0.5456040103659938;-2.767681595369906;183.7465405232121;72.81416182304143;358.673;2.662374;-0.748522;-0.2194144;-12.3474;-0.5099249;0.6447775;-0.1056969;0;304652.27483793;12001.90863607132;-0.001;1;0;2;
1510749434.653921;1510749434.653921;1510749434.654026;57.77323735121546;12.77116881379793;232.5850544199198;2.683668;-0.08656523;0.02812416;0.516595692956439;-2.764703059450825;183.2530095946548;72.81420440728476;358.1525;2.685064;-1.455455;0.05847437;-12.38983;-0.547855;0.5735542;-0.04517503;0;304652.3148379198;12001.94863606112;-0.001;1;0;2;
1510749434.732126;1510749434.732126;1510749434.732195;57.77323835642134;12.77116889269161;232.584212013192;2.708577;-0.1059518;0.03031998;0.4865291485017982;-2.757406857726117;182.7637908193219;72.8142470047484;357.7599;2.710649;-1.322162;0.2312142;-12.19726;-0.6812624;0.5498046;0.01662158;0;304652.3548379096;12001.98863605093;-0.001;1;0;2;
1510749434.872008;1510749434.872008;1510749434.872186;57.77323988137598;12.77116898031;232.5826446222967;2.747176;-0.1392548;0.0394327;0.4389295574009279;-2.741732556949035;182.03003873938;72.81431092674897;357.0981;2.750703;-1.372341;0.3407196;-12.03761;-0.6643604;0.517776;0.1513802;0;304652.4148388943;12002.04863703564;-0.001;1;0;2;
1510749434.912086;1510749434.912086;1510749434.912157;57.7732403943043;12.77116900118749;232.5820059754907;2.761193;-0.1566314;0.04042293;0.4186966165181222;-2.737224907597508;181.7843304234817;72.81433224069821;356.7533;2.765631;-1.686882;0.06688995;-12.54402;-0.6126772;0.6223083;0.2979817;0;304652.4348388892;12002.06863703054;-0.001;1;0;2;
1510749434.992115;1510749434.992115;1510749434.992184;57.77324142681824;12.77116903122583;232.5805170121541;2.784556;-0.1772679;0.04673642;0.3758116624005316;-2.729220341399273;181.2935296613153;72.81437487847252;356.3574;2.790192;-1.623055;0.1070245;-12.4812;-0.5448796;0.5891941;0.1788823;0;304652.474838879;12002.10863702035;-0.001;1;0;2;
1510749435.060351;1510749435.060351;1510749435.060811;57.77324246681587;12.77116904590633;232.5788473069064;2.803698;-0.1968892;0.04689936;0.3388777954566128;-2.716565605372643;180.7976086024864;72.81441752867508;355.983;2.810603;-1.470603;0.1408457;-12.43225;-0.4542393;0.5831898;-0.02129677;0;304652.5148388688;12002.14863701016;-0.001;1;0;2;
1510749435.071003;1510749435.071003;1510749435.072215;57.77324351321969;12.77116904481206;232.5772169403959;2.821139;-0.2220304;0.04572741;0.3190245714992297;-2.701131793028862;180.297695172816;72.81446019244935;355.5;2.829863;-1.249375;0.2803094;-12.51395;-0.4505626;0.7466529;0.05314094;0;304652.5548398587;12002.18863799997;-0.001;1;0;2;
1510749435.079757;1510749435.079757;1510749435.079854;57.77324456604723;12.77116902544529;232.5757442689668;2.839706;-0.2483924;0.04238174;0.3146442413453358;-2.688849337029148;179.7981696902328;72.81450287257046;355.001;2.850549;-0.5595387;0.213327;-12.39311;-0.3876366;0.8222562;-0.02738462;0;304652.5948398485;12002.22863798977;-0.001;1;0;2;
1510749435.090043;1510749435.090043;1510749435.09015;57.7732456251432;12.77116898502092;232.5743935913431;2.85662;-0.2797504;0.03898925;0.3186272404064857;-2.677658106261895;179.2983382766519;72.81454557090601;354.4068;2.870285;-0.3869428;0.2837052;-12.52937;-0.4195828;0.6972382;-0.1675795;0;304652.6348398383;12002.26863797958;-0.001;1;0;2;
1510749435.100557;1510749435.100557;1510749435.100663;57.77324669011205;12.77116892503852;232.5732556218927;2.873225;-0.3071376;0.03426185;0.3387914858839327;-2.664843837575594;178.8015918421635;72.81458828717915;353.8985;2.889595;0.2455976;0.4633237;-12.52619;-0.4223171;0.6455766;-0.105745;0;304652.674839828;12002.30863796939;-0.001;1;0;2;
1510749435.111207;1510749435.111207;1510749435.111316;57.77324776070363;12.77116884563863;232.572277984788;2.888745;-0.3339524;0.02980463;0.38412325765571;-2.638194776093359;178.299169946737;72.81463102029389;353.4056;2.907984;0.6410944;0.8163658;-12.64952;-0.3942509;0.6382234;-0.1951669;0;304652.7148408178;12002.3486389592;-0.001;1;0;2;
1510749435.117528;1510749435.117528;1510749435.117635;57.7732488371694;12.77116874806238;232.5715056365337;2.907108;-0.3595466;0.02372553;0.4390899639521277;-2.602484091828282;177.792822681663;72.81467376868899;352.9496;2.929258;0.506539;0.8207545;-12.67506;-0.5374289;0.6522219;-0.03279308;0;304652.7548408077;12002.388638949;-0.001;1;0;2;
1510749435.124102;1510749435.124102;1510749435.124197;57.77324992006347;12.77116863312829;232.5708717199035;2.925224;-0.3833767;0.02038245;0.488585476915659;-2.5614226446986;177.2859087864584;72.81471653144908;352.5334;2.95024;0.3479306;0.8963153;-12.68305;-0.4692494;0.6158327;-0.01347626;0;304652.7948407975;12002.42863893881;-0.001;1;0;2;
1510749435.201927;1510749435.201927;1510749435.202028;57.7732510094782;12.77116850163994;232.5703953988389;2.945614;-0.4056383;0.0161022;0.5300648441922711;-2.521554858136468;176.7789035201756;72.8147593078365;352.1591;2.973413;0.2037261;0.6657347;-12.65088;-0.5844094;0.5960962;0.08268677;0;304652.8348417873;12002.46863992862;-0.001;1;0;2;
1510749435.28202;1510749435.28202;1510749435.282136;57.77325210636974;12.77116835447712;232.5699353999423;2.965551;-0.425009;0.0205484;0.5518944074479534;-2.48871744571608;176.2749458760305;72.81480209700909;351.8442;2.995852;-0.01289956;0.7043267;-12.4501;-0.4939909;0.4425671;0.1490494;0;304652.8748417771;12002.50863991843;-0.001;1;0;2;
1510749435.352084;1510749435.352084;1510749435.352188;57.773253209869;12.77116819227002;232.569405723844;2.983115;-0.4473357;0.02006555;0.5495191561810366;-2.462207825674414;175.7756701800118;72.81484489846898;351.4717;3.016469;-0.6482285;0.4852596;-12.35374;-0.4409589;0.552182;0.03062831;0;304652.9148417669;12002.54863990823;-0.001;1;0;2;
1510749435.43207;1510749435.43207;1510749435.432173;57.77325431869634;12.77116801612626;232.5688587629594;2.997624;-0.4655833;0.02136548;0.5457287349534815;-2.436665063015015;175.28415193949;72.8148877130151;351.1715;3.033565;-0.366189;0.7101055;-12.08652;-0.5201952;0.6202134;-0.1141572;0;304652.9548427567;12002.58864089804;-0.001;1;0;2;
1510749435.471973;1510749435.471973;1510749435.472071;57.77325543241292;12.77116782336189;232.5683016014022;3.009748;-0.4945952;0.02074346;0.5455691155427447;-2.401792935276152;174.7965799000553;72.81493054258939;350.6679;3.050116;-0.42688;0.9104405;-12.19484;-0.382584;0.7245185;-0.1088181;0;304652.9948427465;12002.62864088785;-0.001;1;0;2;
1510749435.479816;1510749435.479816;1510749435.479908;57.77325599955159;12.77116774411238;232.5678318583408;3.015373;-0.5077484;0.0217244;0.5314021067915309;-2.377180862954408;174.5564820158943;72.81501329337338;350.4418;3.057823;-0.6621111;1.142577;-12.12892;-0.4070109;0.6679822;-0.01648018;0;304653.0148429962;12002.64864088275;-0.001;1;0;2;
1510749435.490651;1510749435.490651;1510749435.490752;57.7732565682833;12.7711676623035;232.5674064258746;3.022097;-0.5233222;0.02110283;0.5269874383813032;-2.355179873039386;174.314065003302;72.81509604715365;350.1758;3.067073;-0.5453683;1.073705;-12.14101;-0.3661082;0.7918315;0.04399269;0;304653.0348429911;12002.66864087765;-0.001;1;0;2;
1510749435.50172;1510749435.50172;1510749435.50182;57.77325713808157;12.7711675749929;232.5669525436531;3.028352;-0.5404204;0.02216339;0.5213301259820764;-2.330680545023017;174.0713198867951;72.81517880550514;349.8819;3.076194;-0.8332229;1.137954;-12.217;-0.3746846;0.7980404;0.1358293;0;304653.054842986;12002.68864087256;-0.001;1;0;2;
1510749435.509773;1510749435.509773;1510749435.509878;57.77325828121185;12.77116738364977;232.5659435626458;3.042439;-0.572295;0.02919118;0.4990819034969363;-2.283286628469644;173.5809707466632;72.8153443350419;349.3469;3.095796;-0.8448129;1.277279;-12.55788;-0.4080938;0.6404318;0.07334778;0;304653.0948439758;12002.72864186237;-0.001;1;0;2;
1510749435.516177;1510749435.516177;1510749435.516328;57.77325942891455;12.77116717262287;232.5648438915473;3.054585;-0.5934994;0.02654083;0.4808637658436478;-2.241451869747378;173.081246496232;72.81550987996194;349.0045;3.111708;-0.7066211;0.93757;-12.45525;-0.234808;0.5417021;-0.05496399;0;304653.1348439656;12002.76864185217;-0.001;1;0;2;
1510749435.521952;1510749435.521952;1510749435.522053;57.77326058080367;12.77116694272507;232.5638744932826;3.067912;-0.6251165;0.02247184;0.4634411953198062;-2.210490018752442;172.571102387109;72.8156754392068;348.4831;3.130951;-1.080959;0.6653435;-13.0345;-0.4625376;0.5136718;-0.008070198;0;304653.1748439554;12002.80864184198;-0.001;1;0;2;
1510749435.559055;1510749435.559055;1510749435.559177;57.7732617374411;12.77116669317322;232.5629053137551;3.082258;-0.6508321;0.02183671;0.4249527730811203;-2.17980254186679;172.0529090366753;72.8158410127575;348.0769;3.150221;-1.775934;0.5572332;-13.04602;-0.4599842;0.6463453;0.1043582;0;304653.2148439452;12002.84864183179;-0.001;1;0;2;
1510749435.619006;1510749435.619006;1510749435.619162;57.77326231762058;12.7711665621165;232.5623451269596;3.089766;-0.6603743;0.02769313;0.4038544766623933;-2.161214421163752;171.7932590187937;72.81592380472986;347.9357;3.159549;-1.611109;0.8663392;-12.94954;-0.4858381;0.4973317;0.03807172;0;304653.2348449401;12002.86864282669;-0.001;1;0;2;
1510749435.692126;1510749435.692126;1510749435.692208;57.7732634820479;12.77116628599869;232.5610926437436;3.104906;-0.6888534;0.03248636;0.350335869894901;-2.12651495126528;171.269688429618;72.81608939931519;347.491;3.180403;-1.880781;0.7784304;-13.12291;-0.5118963;0.7751213;0.235804;0;304653.2748449299;12002.9086428165;-0.001;1;0;2;
1510749435.772312;1510749435.772312;1510749435.772398;57.77326465149594;12.77116599181591;232.5595623114024;3.119105;-0.7137383;0.03982741;0.3098782012618546;-2.088387859479699;170.7500802635199;72.81625501070501;347.111;3.199725;-1.410322;0.8171794;-12.87219;-0.3971222;0.8897055;0.1928671;0;304653.3148449198;12002.94864280631;-0.001;1;0;2;
1510749435.852162;1510749435.852162;1510749435.852229;57.77326582521975;12.77116567715906;232.5577881475405;3.131044;-0.7462953;0.04394228;0.2861843289306014;-2.051254331158276;170.2382667093636;72.81642064173565;346.5935;3.218756;-0.9711012;0.7553183;-12.70624;-0.4566314;0.9436678;0.05917395;0;304653.3548459096;12002.98864379611;-0.001;1;0;2;
1510749435.930225;1510749435.930225;1510749435.930303;57.7732670026526;12.77116533769703;232.5559363582931;3.139986;-0.7861184;0.04611996;0.2595004244383193;-2.025598832770009;169.736674865873;72.81658629535271;345.9445;3.236896;-1.55631;0.3533855;-12.57978;-0.4416003;1.021366;0.4107271;0;304653.3948458994;12003.02864378592;-0.001;1;0;2;
1510749435.938085;1510749435.938085;1510749435.93819;57.77326818352635;12.77116497225852;232.5538594761805;3.151195;-0.8167492;0.05509404;0.2125337011693618;-2.010079418136244;169.2407228101002;72.81675197088919;345.4694;3.25532;-1.871898;0.3156554;-12.20353;-0.3579206;0.7724029;0.2232701;0;304653.4348458892;12003.06864377573;-0.001;1;0;2;
1510749435.951367;1510749435.951367;1510749435.951474;57.77326936724661;12.77116458435948;232.5514970082034;3.158158;-0.8465399;0.06058515;0.1478060636344566;-1.997209181250593;168.7419932984446;72.81691766417769;344.9947;3.269647;-1.756498;0.2891769;-12.57293;-0.2817255;0.5518606;0.09542212;0;304653.474845879;12003.10864376554;-0.001;1;0;2;
1510749435.96112;1510749435.96112;1510749435.96128;57.77327055371898;12.77116417988818;232.5489933782833;3.165405;-0.8705009;0.06261116;0.1191926957076246;-1.991530651323514;168.2371965645775;72.8170833724509;344.6235;3.28292;-0.7304901;0.137407;-12.8342;-0.3385205;0.6888205;0.0731132;0;304653.5148468688;12003.14864475534;-0.001;1;0;2;
1510749435.972782;1510749435.972782;1510749435.972886;57.77327174204456;12.77116375428559;232.5463321200659;3.170189;-0.9040887;0.06731138;0.127150652932021;-1.983395376286738;167.7160208736457;72.8172490979865;344.0827;3.296585;0.0683295;0.3107916;-13.23824;-0.2119415;0.7313776;-0.1019768;0;304653.5548468586;12003.18864474515;-0.001;1;0;2;
1510749435.990391;1510749435.990391;1510749435.990493;57.77327352484065;12.77116307236777;232.5424922918627;3.170767;-0.9562725;0.05650561;0.1458939864416546;-1.961228129129894;166.9338398134848;72.81749772381681;343.2172;3.311831;-0.2633274;0.228168;-12.99269;-0.2889237;1.093402;-0.08449207;0;304653.6148468433;12003.24864472986;-0.001;1;0;2;
1510749436.009088;1510749436.009088;1510749436.009197;57.77327471387645;12.77116258491472;232.5402180328548;3.17411;-0.9905034;0.05378363;0.1620833101271567;-1.946719391592;166.4104403444867;72.81766350225645;342.6691;3.325067;-0.01451048;0.2435094;-12.85784;-0.29112;0.9378831;0.07721634;0;304653.6548478331;12003.28864571967;-0.001;1;0;2;
1510749436.089048;1510749436.089048;1510749436.089149;57.77327590416141;12.77116207525053;232.5380912268373;3.177817;-1.021622;0.04929971;0.1874549026586621;-1.943107146238287;165.893535635482;72.81782930108518;342.1782;3.337998;0.1795555;-0.1854749;-12.82565;-0.2374242;0.8769977;0.0801837;0;304653.6948478229;12003.32864570948;-0.001;1;0;2;
1510749436.129036;1510749436.129036;1510749436.129141;57.77327709563819;12.77116154554625;232.5361156087049;3.18143;-1.049412;0.04337117;0.2284074387754575;-1.947488910685435;165.3819559672756;72.81799511862086;341.7446;3.350039;0.5771008;-0.3582334;-12.77949;-0.1749655;0.7543391;-0.1442321;0;304653.7348478127;12003.36864569928;-0.001;1;0;2;
1510749436.209315;1510749436.209315;1510749436.209424;57.77327828788417;12.77116099596373;232.5343717261451;3.183792;-1.076814;0.03593051;0.2581357968013097;-1.959159332310171;164.8751844425917;72.81816095326926;341.3136;3.360961;-0.2603564;-0.6586583;-12.70821;-0.2929496;0.5911373;-0.1023532;0;304653.7748488025;12003.40864668909;-0.001;1;0;2;
1510749436.288964;1510749436.288964;1510749436.289077;57.77327948165307;12.77116042760896;232.5327518726379;3.191021;-1.104518;0.03674294;0.2708565562811331;-1.976478809111145;164.3725571213733;72.81832680370992;340.9076;3.37677;-0.3633318;-0.6325694;-12.7111;-0.401696;0.5759678;-0.0008511523;0;304653.8148487923;12003.4486466789;-0.001;1;0;2;
1510749436.350304;1510749436.350304;1510749436.350403;57.77328067780554;12.77115984014234;232.5311051178397;3.197921;-1.130317;0.04085854;0.2708213448404275;-1.993674415351013;163.8706217197107;72.81849266996555;340.5339;3.391801;-0.6239843;-0.3836594;-12.65272;-0.3560371;0.6540661;0.04387145;0;304653.8548487822;12003.48864666871;-0.001;1;0;2;
1510749436.35638;1510749436.35638;1510749436.356483;57.77328187605869;12.77115923354653;232.5293704201159;3.20478;-1.160772;0.04029875;0.2601707274798201;-2.006890318331223;163.3648281226977;72.81865855148862;340.0896;3.40852;-1.230037;-0.5387858;-12.89367;-0.5202467;0.6495575;0.08672886;0;304653.894849772;12003.52864765851;-0.001;1;0;2;
1510749436.362961;1510749436.362961;1510749436.363062;57.77328307688235;12.7711586066476;232.5276058238243;3.211457;-1.186487;0.04372136;0.2215551758375577;-2.018727972939871;162.8596630278861;72.81882444910092;339.723;3.423625;-1.383617;-0.2197142;-12.67123;-0.3151647;0.6922339;-0.01801151;0;304653.9348497618;12003.56864764832;-0.001;1;0;2;
1510749436.370778;1510749436.370778;1510749436.370878;57.77328427998552;12.77115795985019;232.5258345141319;3.22105;-1.215694;0.04479168;0.169090218135235;-2.028017760300717;162.3546091364179;72.81899036312362;339.3224;3.44283;-1.561203;-0.1180681;-12.72178;-0.5254665;0.7181134;-0.0549539;0;304653.9748497516;12003.60864763813;-0.001;1;0;2;
1510749436.381379;1510749436.381379;1510749436.381486;57.77328610865285;12.77115696608095;232.5229549671802;3.233888;-1.263557;0.04232031;0.1006649408157613;-2.039618751098404;161.5940601369652;72.81909264310015;338.6582;3.471975;-1.310749;-0.355471;-12.73748;-0.5360426;0.8959751;0.05018975;0;304654.0348509911;12003.66864862284;-0.001;1;0;2;
1510749436.385425;1510749436.385425;1510749436.385553;57.77328672295646;12.77115662635977;232.5219166303386;3.237395;-1.282233;0.04794588;0.0852159766694217;-2.042703356132568;161.3385394028374;72.81910230855374;338.393;3.482075;-1.308002;-0.06015052;-12.86028;-0.5634536;0.7201045;0.1690172;0;304654.0548509861;12003.68864861774;-0.001;1;0;2;
1510749436.452279;1510749436.452279;1510749436.452386;57.7732879534255;12.77115592663577;232.5196821505061;3.246151;-1.319483;0.05048234;0.03416259925900626;-2.050370746611057;160.8282902782216;72.81912165590236;337.8794;3.504074;-1.970698;-0.3911534;-12.64636;-0.6110599;0.7255782;0.1816812;0;304654.0948509758;12003.72864860755;-0.001;1;0;2;
1510749436.528974;1510749436.528974;1510749436.529108;57.77328918677726;12.77115520033198;232.5171546948932;3.254826;-1.356885;0.06174424;-0.02432319644772669;-2.061443596733756;160.317294366413;72.81914102545481;337.3695;3.526333;-1.469071;-0.2209712;-12.78645;-0.4367696;0.7029096;0.1529117;0;304654.1348509656;12003.76864859736;-0.001;1;0;2;
1510749436.608986;1510749436.608986;1510749436.609147;57.77329042233151;12.77115444864831;232.5144390174549;3.259228;-1.393936;0.06134267;-0.059272567450336;-2.071834429019671;159.7995241082856;72.81916041685535;336.8441;3.544803;-1.072662;-0.2331699;-13.0415;-0.3628685;0.7368425;-0.03692983;0;304654.1748519554;12003.80864958716;-0.001;1;0;2;
1510749436.688811;1510749436.688811;1510749436.688884;57.77329165928062;12.77115367096486;232.5116706669021;3.263759;-1.432755;0.06463242;-0.06556672351367608;-2.077203811725608;159.2736516043726;72.81917983075161;336.299;3.564395;-0.2862199;0.131912;-13.24087;-0.4951161;0.9239876;-0.05143484;0;304654.2148519452;12003.84864957697;-0.001;1;0;2;
1510749436.742012;1510749436.742012;1510749436.742077;57.7732922782015;12.77115327172;232.5102473479554;3.265933;-1.451795;0.06435562;-0.06334390396833361;-2.074570219947121;159.0094564309611;72.81918954676337;336.0336;3.574077;-0.1282144;0.1737244;-13.12389;-0.3931032;0.8974466;-0.08390236;0;304654.2348519402;12003.86864957188;-0.001;1;0;2;
1510749436.810465;1510749436.810465;1510749436.811113;57.77329351649171;12.77115245244475;232.5074150193397;3.267413;-1.498146;0.06422712;-0.0580109099770831;-2.069008272514096;158.4823261700058;72.81920899683894;335.368;3.5945;-0.6614479;0.02643723;-13.43269;-0.6263929;0.9583112;0.1672319;0;304654.27485193;12003.90864956168;-0.001;1;0;2;
1510749436.820826;1510749436.820826;1510749436.820925;57.7732947565874;12.77115160281854;232.5044844359086;3.274861;-1.536695;0.06628188;-0.06487876061063415;-2.069420561494086;157.9534331754402;72.81922847191437;334.8622;3.617478;-0.6910543;-0.1439523;-13.19228;-0.3682455;0.9885455;0.0499738;0;304654.3148529198;12003.94865055149;-0.001;1;0;2;
1510749436.830538;1510749436.830538;1510749436.830605;57.77329599727791;12.77115072890273;232.5016107849789;3.276023;-1.572419;0.06408151;-0.06660308177513054;-2.071979528695554;157.4277796846429;72.81924796856283;334.36;3.633845;-0.5575292;9.549965e-05;-13.30105;-0.6018501;0.9598414;-0.04174243;0;304654.3548529096;12003.9886505413;-0.001;1;0;2;
1510749436.84986;1510749436.84986;1510749436.849958;57.77329785903255;12.77114937333901;232.4975120335534;3.279375;-1.613617;0.05780406;-0.0633554176977475;-2.066040415720349;156.6351192393351;72.81927725174377;333.8005;3.654868;-0.315686;0.1856695;-12.93471;-0.3575695;0.5590646;-0.1558567;0;304654.4148528943;12004.04865052601;-0.001;1;0;2;
1510749436.855562;1510749436.855562;1510749436.855664;57.77329847961156;12.77114891088742;232.4962495482673;3.278291;-1.630947;0.05610173;-0.0612581993592111;-2.063227933711164;156.3695703571084;72.81928702179134;333.5497;3.661582;-0.2602627;0.200931;-13.19038;-0.2406877;0.8522701;-0.0943909;0;304654.4348538892;12004.06865152091;-0.001;1;0;2;
1510749436.865166;1510749436.865166;1510749436.865287;57.77329971967796;12.77114796974337;232.4937845519698;3.273932;-1.666692;0.05449893;-0.03876156344814714;-2.050396134024568;155.8383096909257;72.81930657687295;333.0203;3.673757;0.003184113;0.3759313;-13.37238;-0.3715021;0.9375623;-0.01556;0;304654.474853879;12004.10865151072;-0.001;1;0;2;
1510749436.875918;1510749436.875918;1510749436.876017;57.77330095814178;12.77114700067487;232.4912642061301;3.269552;-1.70834;0.05799332;-0.02341796640802186;-2.036996992063084;155.3050754438743;72.81932615528379;332.413;3.688956;-0.3253115;0.2183657;-13.31331;-0.2986359;0.9971973;0.3005036;0;304654.5148538688;12004.14865150053;-0.001;1;0;2;
1510749436.932055;1510749436.932055;1510749436.932118;57.77330219419026;12.77114600399549;232.4884666135119;3.262672;-1.747322;0.06654;-0.02095890090378234;-2.016305558323791;154.7759180769286;72.8193457575545;331.8287;3.701103;-0.5027195;0.7180808;-13.28234;-0.2597755;0.9923793;0.04130225;0;304654.5548538586;12004.18865149033;-0.001;1;0;2;
1510749437.012054;1510749437.012054;1510749437.012117;57.77330342714797;12.77114498148219;232.485495213258;3.25477;-1.784077;0.06660899;-0.02367263409744892;-1.978986848181702;154.2430296610922;72.81936538157419;331.271;3.711665;-0.7463393;0.9754359;-13.48525;-0.2690043;0.8908556;-0.06339763;0;304654.5948548484;12004.22865248014;-0.001;1;0;2;
1510749437.092067;1510749437.092067;1510749437.092132;57.77330465745474;12.77114393484313;232.4826007917156;3.249285;-1.814853;0.06524939;-0.03522556564959833;-1.936599966772726;153.7042262524198;72.81938502519378;330.8149;3.721766;-0.6849876;1.124399;-13.67219;-0.3120734;0.6019498;-0.0516005;0;304654.6348548383;12004.26865246995;-0.001;1;0;2;
1510749437.132051;1510749437.132051;1510749437.132159;57.77330588654825;12.77114286740572;232.479853232932;3.249484;-1.842463;0.06036199;-0.05349217425088579;-1.900959479519884;153.1613659167623;72.81940468575756;330.4467;3.73548;-1.027832;0.7251938;-13.48642;-0.3560948;0.7116268;-1.073725e-05;0;304654.674854828;12004.30865245976;-0.001;1;0;2;
1510749437.212022;1510749437.212022;1510749437.212096;57.77330711453642;12.77114177831501;232.4769813558549;3.247123;-1.875875;0.0649315;-0.07354566787788092;-1.865195616592867;152.6122661959977;72.81942436405645;329.9848;3.750029;-1.120456;0.6559642;-13.77592;-0.3445538;0.7045127;0.1081522;0;304654.7148558178;12004.34865344956;-0.001;1;0;2;
1510749437.237881;1510749437.237881;1510749437.238024;57.77330834056333;12.77114066536889;232.4740485644404;3.242223;-1.906394;0.0711549;-0.1011465936868505;-1.838118566765773;152.0606224559845;72.81944406205923;329.5449;3.761163;-0.8362023;0.8482649;-13.39646;-0.2739871;0.8232129;0.1434219;0;304654.7548558076;12004.38865343937;-0.001;1;0;2;
1510749437.256262;1510749437.256262;1510749437.257606;57.77330956324424;12.77113952511788;232.4709335452167;3.227611;-1.952876;0.07231178;-0.1479377883442759;-1.808880729476922;151.5091544423142;72.81946378279844;328.8239;3.772426;-1.62107;0.9278757;-13.90859;-0.08201445;0.8941294;-0.252303;0;304654.7948557975;12004.42865342918;-0.001;1;0;2;
1510749437.267538;1510749437.267538;1510749437.269347;57.77331078149917;12.77113835937658;232.4678349134804;3.21753;-1.986705;0.0706308;-0.2013391779419952;-1.77154307276455;150.9593499093111;72.81948352569994;328.3062;3.781468;-1.749894;1.219605;-13.75905;-0.2703145;0.8194795;-0.1839225;0;304654.8348567873;12004.46865441899;-0.001;1;0;2;
1510749437.278374;1510749437.278374;1510749437.278472;57.77331199549944;12.77113716893387;232.4648230619114;3.207282;-2.022529;0.06682184;-0.2548063756004103;-1.719966869516774;150.4047575944882;72.81950328962149;327.7643;3.791738;-1.653708;1.455895;-14.05896;-0.2150235;0.8133105;-0.04843165;0;304654.8748567771;12004.50865440879;-0.001;1;0;2;
1510749437.288045;1510749437.288045;1510749437.288145;57.77331320604766;12.77113595497152;232.4619804821226;3.197577;-2.055277;0.06505129;-0.3046604514877829;-1.666512251676744;149.8476767787527;72.81952307380743;327.2687;3.80114;-1.504812;1.518168;-14.06337;-0.1570908;0.8760485;-0.04046639;0;304654.9148567669;12004.5486543986;-0.001;1;0;2;
1510749437.298566;1510749437.298566;1510749437.298697;57.77331441291634;12.77113471432623;232.4591061474774;3.188997;-2.096979;0.06676519;-0.36078849841698;-1.618938752441078;149.2860521920294;72.81954288001256;326.6724;3.816677;-2.214728;1.086256;-14.08322;-0.197115;0.9210017;0.1492331;0;304654.9548567567;12004.58865438841;-0.001;1;0;2;
1510749437.308863;1510749437.308863;1510749437.30904;57.77331561644468;12.7711334469235;232.4560326304137;3.182294;-2.130344;0.07406721;-0.4262594728370961;-1.58241082530762;148.7299270493337;72.81956270948592;326.2002;3.829538;-1.409534;0.9979096;-13.74205;-0.1832013;0.8276033;0.05541146;0;304654.9948577465;12004.62865537822;-0.001;1;0;2;
1510749437.342192;1510749437.342192;1510749437.342321;57.77331622187702;12.77113279733636;232.4546305608802;3.173565;-2.155504;0.07039909;-0.4688963000639005;-1.570991659018744;148.4500134266131;72.81941688482807;325.8154;3.836368;-2.070929;0.5608081;-14.07724;-0.2687008;1.156141;0.07029672;0;304655.0148569962;12004.64865537312;-0.001;1;0;2;
1510749437.459107;1510749437.459107;1510749437.459562;57.77331682628687;12.77113214229326;232.4531456689126;3.166132;-2.169881;0.07435369;-0.4857800814731982;-1.55318481455436;148.1700214482534;72.8192710651831;325.5756;3.83833;-1.115821;1.022079;-14.05873;-0.06119309;0.9073296;-0.09160062;0;304655.0348569911;12004.66865536802;-0.001;1;0;2;
1510749437.492232;1510749437.492232;1510749437.492348;57.7733174291653;12.77113148046212;232.451759993796;3.158956;-2.19171;0.07023565;-0.5049046849285027;-1.542326436514426;147.8880337717612;72.81912525085265;325.2468;3.844814;-1.395704;0.6361907;-14.11936;-0.3522839;1.220252;0.03079001;0;304655.054856986;12004.68865536293;-0.001;1;0;2;
1510749437.572153;1510749437.572153;1510749437.572254;57.77331863064203;12.77113013611179;232.4489819871442;3.1455;-2.231515;0.07123736;-0.53365443435343;-1.519035215110516;147.3215541944211;72.81883364020736;324.6469;3.856661;-1.187288;0.537453;-14.02861;-0.3646279;1.231943;0.3466148;0;304655.0948569758;12004.72865535273;-0.001;1;0;2;
1510749437.652041;1510749437.652041;1510749437.652148;57.77331982672075;12.77112876279169;232.4460520674493;3.128471;-2.273917;0.07725951;-0.5543435024776807;-1.506889450558443;146.7533220875002;72.81854205442917;323.9886;3.867561;-0.825549;0.3812713;-14.3192;-0.1471254;1.146677;0.2449501;0;304655.1348579656;12004.76865634254;-0.001;1;0;2;
1510749437.693893;1510749437.693893;1510749437.694002;57.77332101644627;12.7711273614872;232.4429241916107;3.112605;-2.31215;0.08160698;-0.5526255116272665;-1.501670214442136;146.1796955555617;72.818250492914;323.3938;3.877415;-0.06880371;0.2970427;-14.30391;-0.1323876;1.07994;0.004235565;0;304655.1748579555;12004.80865633235;-0.001;1;0;2;
1510749437.70426;1510749437.70426;1510749437.704322;57.77332219884889;12.77112593252908;232.4397760564977;3.091851;-2.349898;0.0793414;-0.5480959688057958;-1.496878161346991;145.5986718759414;72.81795895442433;322.7641;3.883499;0.06540363;0.4237417;-14.3669;-0.05939651;1.066592;-0.1893274;0;304655.2148579453;12004.84865632216;-0.001;1;0;2;
1510749437.709858;1510749437.709858;1510749437.70992;57.77332278709719;12.77112520840795;232.4383056468186;3.079198;-2.370113;0.07096611;-0.5443488843174937;-1.497328292807541;145.3059203699843;72.81781319322435;322.4139;3.88573;-0.5805974;-0.06581502;-14.64402;0.09516323;1.035514;-0.08517727;0;304655.2348589402;12004.86865731706;-0.001;1;0;2;
1510749437.719335;1510749437.719335;1510749437.7195;57.77332395657666;12.77112374109339;232.4354522371249;3.054029;-2.406645;0.07211409;-0.5502905887439608;-1.499655671206793;144.7133590677911;72.81752168580269;321.7611;3.88832;-0.7469734;-0.01828717;-14.95567;0.05262927;0.9902928;0.1897918;0;304655.27485893;12004.90865730687;-0.001;1;0;2;
1510749437.726562;1510749437.726562;1510749437.726664;57.77332511686073;12.77112224980526;232.4324381863893;3.028162;-2.439271;0.0783796;-0.5567795094818704;-1.504703043538259;144.1063784513411;72.81723019720543;321.1476;3.88842;-0.8517572;-0.05302377;-15.26714;0.0954901;1.030888;0.1548956;0;304655.3148589198;12004.94865729667;-0.001;1;0;2;
1510749437.733249;1510749437.733249;1510749437.733399;57.77332626658539;12.77112073548633;232.4291804804961;2.998878;-2.472233;0.08221691;-0.5700108846463395;-1.509363052508909;143.4843815378214;72.81693872643295;320.4983;3.886541;-0.772119;-0.01428482;-15.65051;0.1220129;1.076609;-0.01298817;0;304655.3548589096;12004.98865728648;-0.001;1;0;2;
1510749437.745312;1510749437.745312;1510749437.74577;57.77332740518522;12.77111919914788;232.4258636054982;2.967169;-2.504112;0.08283377;-0.5746569647568477;-1.516634230737477;142.8539126982749;72.81664727412583;319.8376;3.882611;-0.4865958;-0.05229821;-15.75219;0.2116412;1.284134;-0.06241956;0;304655.3948598994;12005.02865827629;-0.001;1;0;2;
1510749437.809137;1510749437.809137;1510749437.809244;57.77332853049144;12.77111763786967;232.422637503178;2.928558;-2.544302;0.07767335;-0.5748287272150375;-1.524900443422909;142.2124436351196;72.81635584232292;319.0162;3.879424;-0.6358422;-0.2474724;-16.14681;0.05090597;1.328099;-0.07729302;0;304655.4348598892;12005.0686582661;-0.001;1;0;2;
1510749437.888982;1510749437.888982;1510749437.889056;57.77332964255786;12.77111605151551;232.419564180352;2.894075;-2.580338;0.07665578;-0.5840999899058608;-1.534799626562847;141.5662772437138;72.81606443142628;318.28;3.877346;-1.051478;-0.2200086;-16.26539;-0.08978423;1.32118;0.311771;0;304655.474859879;12005.1086582559;-0.001;1;0;2;
1510749437.968977;1510749437.968977;1510749437.969041;57.77333074278495;12.77111444203178;232.4165660466419;2.861983;-2.608372;0.07162198;-0.5877447016250528;-1.554992820592132;140.9135372248059;72.81577303992162;317.6544;3.87228;-0.7579111;-0.6580583;-16.2519;0.2222226;1.27545;0.1284749;0;304655.5148608688;12005.14865924571;-0.001;1;0;2;
1510749438.049031;1510749438.049031;1510749438.049095;57.77333182992789;12.77111281060588;232.4136473447186;2.82871;-2.640395;0.07206656;-0.582111227305926;-1.580694630145792;140.2503453344972;72.81548166661811;316.972;3.869533;-0.253222;-0.6674002;-16.48651;0.129141;1.304243;0.1393664;0;304655.5548608587;12005.18865923552;-0.001;1;0;2;
1510749438.092112;1510749438.092112;1510749438.092216;57.7733323686369;12.77111198601667;232.4121806233744;2.807141;-2.659091;0.07558517;-0.5742186620909341;-1.594581153352643;139.9137408755568;72.81533598730729;316.5515;3.866627;0.004038499;-0.3424674;-16.98832;0.2393747;1.161661;-0.1151866;0;304655.5748608536;12005.20865923042;-0.001;1;0;2;
1510749438.1214;1510749438.1214;1510749438.121503;57.77333343574181;12.77111032045966;232.409230341874;2.76926;-2.69296;0.07587336;-0.5581853723719455;-1.619707339264335;139.2394979369296;72.81504464312158;315.8003;3.862749;-0.1020882;-0.4385193;-16.97075;0.1757168;1.384544;0.09055919;0;304655.6148608433;12005.24865922023;-0.001;1;0;2;
1510749438.129026;1510749438.129026;1510749438.129619;57.77333448808554;12.7711086295096;232.4062478826214;2.729194;-2.729028;0.07772796;-0.5596659989133822;-1.650886244074016;138.5592159351174;72.81475331961263;315.0017;3.859546;-0.541617;-0.6777079;-17.14144;0.1305998;1.194941;0.2400183;0;304655.6548618331;12005.28866021004;-0.001;1;0;2;
1510749438.140509;1510749438.140509;1510749438.140611;57.77333552631903;12.77110691625287;232.4030988455314;2.689666;-2.759352;0.07805662;-0.5643926467332985;-1.687537015094161;137.8766236714931;72.81446201526096;314.2673;3.853353;-0.7514025;-0.9159799;-17.27859;0.2749766;1.225978;-0.07060952;0;304655.6948618229;12005.32866019984;-0.001;1;0;2;
1510749438.150932;1510749438.150932;1510749438.151031;57.77333654948288;12.77110518155212;232.399926113912;2.648755;-2.788354;0.07948333;-0.5788234855790277;-1.726664450928032;137.186619139551;72.81417072857784;313.5292;3.845884;-0.8359633;-0.758387;-17.39106;0.3596418;1.129446;-0.08207877;0;304655.7348618128;12005.36866018965;-0.001;1;0;2;
1510749438.161989;1510749438.161989;1510749438.162091;57.77333755741304;12.77110342706971;232.3968575650446;2.607803;-2.817571;0.07482687;-0.6039181645496756;-1.765479572335777;136.4867663284178;72.81387945796972;312.7858;3.839185;-1.383403;-0.8760877;-17.74031;0.1728829;1.020998;0.02182653;0;304655.7748628026;12005.40866117946;-0.001;1;0;2;
1510749438.170946;1510749438.170946;1510749438.171053;57.77333855027247;12.77110165245142;232.3938527763387;2.56604;-2.845102;0.0750901;-0.6378012291475024;-1.802730815438517;135.7744303830453;72.81358820360269;312.0478;3.83134;-1.487308;-0.6248751;-17.95084;0.3416656;1.142698;-0.131273;0;304655.8148627924;12005.44866116927;-0.001;1;0;2;
1510749438.180784;1510749438.180784;1510749438.18092;57.77333952704277;12.77109985799581;232.3909751972261;2.521652;-2.873071;0.07214077;-0.6708579540966911;-1.837740706533646;135.0468822338029;72.81329696536611;311.2729;3.82273;-1.054562;-0.4073979;-18.37545;0.3671121;1.038946;-0.3397927;0;304655.8548627822;12005.48866115907;-0.001;1;0;2;
1510749438.228955;1510749438.228955;1510749438.229018;57.77334048767354;12.77109804401348;232.3883940592871;2.477901;-2.90009;0.06232869;-0.6964398656832015;-1.875266478060613;134.3123247785035;72.81300574412428;310.5113;3.814514;-0.7959254;-0.629697;-18.35794;0.2929932;1.193137;-0.3163485;0;304655.894862772;12005.52866114888;-0.001;1;0;2;
1510749438.299153;1510749438.299153;1510749438.299224;57.77334143092549;12.77109620949861;232.3860191420712;2.427032;-2.931618;0.05846671;-0.7173954953932029;-1.909345806073638;133.5712288220716;72.812714540917;309.6207;3.8059;-0.9896599;-0.5416036;-18.57458;0.3497851;1.406607;-0.1132223;0;304655.9348637618;12005.56866213869;-0.001;1;0;2;
1510749438.379084;1510749438.379084;1510749438.379147;57.77334235549902;12.77109435419572;232.3837045266363;2.373562;-2.962102;0.05632094;-0.7322556932691173;-1.933105582288017;132.8249028358136;72.81242335644274;308.7055;3.795766;-1.18029;-0.2312037;-18.66343;0.3815244;1.504565;-0.1684579;0;304655.9748637516;12005.6086621285;-0.001;1;0;2;
1510749438.576574;1510749438.576574;1510749438.576679;57.77334460818391;12.77108960526027;232.3779209723342;2.248205;-3.029416;0.05863045;-0.7897369326822155;-1.947838034311531;130.9288051009206;72.81225415949189;306.58;3.772504;-0.3396777;0.4384711;-19.19242;0.3221477;1.212142;-0.05375568;0;304656.0748649809;12005.70866310301;-0.001;1;0;2;
1510749438.586618;1510749438.586618;1510749438.58668;57.77334548122315;12.77108767412346;232.3755888393708;2.200862;-3.053767;0.05667046;-0.775908348342272;-1.938229509024829;130.1510108464538;72.81224237615521;305.7805;3.764211;-0.2308055;0.6444345;-19.42963;0.3514334;1.27914;-0.08872642;0;304656.1148649707;12005.74866309282;-0.001;1;0;2;
1510749438.598494;1510749438.598494;1510749438.598598;57.77334633602968;12.7710857258177;232.3733397197385;2.149813;-3.078434;0.05514795;-0.7609383017209543;-1.921821452845447;129.3639240972839;72.81223060799759;304.9284;3.754791;-0.2855814;0.8022122;-19.62007;0.3189489;1.399706;0.009894969;0;304656.1548649605;12005.78866308263;-0.001;1;0;2;
1510749438.603515;1510749438.603515;1510749438.603619;57.77334717271929;12.77108375990763;232.3711345438807;2.101023;-3.104078;0.05461146;-0.7504310688440734;-1.907996113985605;128.5725170139156;72.81221885544559;304.0925;3.748279;-0.2738607;0.5822178;-19.65956;0.3428735;1.453642;0.05678846;0;304656.1948659503;12005.82866407244;-0.001;1;0;2;
1510749438.617505;1510749438.617505;1510749438.61761;57.77334839345522;12.77108077692852;232.3677419898542;2.023922;-3.145375;0.05609056;-0.7229002586288743;-1.901963369413688;127.3841652817715;72.81220125787843;302.7596;3.740273;-0.3529309;0.08517591;-19.73052;0.2762342;1.507837;0.249012;0;304656.254865935;12005.88866405715;-0.001;1;0;2;
1510749438.639207;1510749438.639207;1510749438.639318;57.77334918355869;12.77107876511108;232.3652770029403;1.971608;-3.170514;0.06092583;-0.7054686579910837;-1.905176562980427;126.5935884448065;72.81218954743096;301.8757;3.73355;-0.5028745;0.08883961;-19.72522;0.3507071;1.391589;0.04639871;0;304656.2948659249;12005.92866404695;-0.001;1;0;2;
1510749438.719219;1510749438.719219;1510749438.71932;57.77334995486701;12.77107673624248;232.3628000076399;1.920655;-3.194909;0.06037017;-0.7021412188873051;-1.914269825658344;125.8040556376634;72.81217785230048;301.0127;3.727782;-0.4969285;0.03403764;-19.85702;0.2911067;1.30563;-0.01976631;0;304656.3348669147;12005.96866503676;-0.001;1;0;2;
1510749438.799108;1510749438.799108;1510749438.799199;57.7733507077092;12.77107469232249;232.3603422528464;1.871647;-3.214372;0.05709225;-0.7039168005594709;-1.918803165583137;125.0085691805829;72.81216617082913;300.2112;3.719577;-0.7036409;0.03078975;-20.00286;0.2841064;1.232204;-0.05954652;0;304656.3748669045;12006.00866502657;-0.001;1;0;2;
1510749438.859193;1510749438.859193;1510749438.859317;57.77335107752274;12.77107366566453;232.359147379644;1.847566;-3.222533;0.05677442;-0.7035707096366752;-1.920659761856815;124.6072630826872;72.8121603343525;299.8268;3.714595;-0.6621259;0.08388864;-20.16046;0.3610898;1.241326;-0.03251316;0;304656.3948668994;12006.02866502147;-0.001;1;0;2;
1510749438.979141;1510749438.979141;1510749438.97921;57.77335216111383;12.77107056727912;232.3556148776411;1.773712;-3.24988;0.05707143;-0.7050125012039207;-1.923899671924443;123.3978509676241;72.81214284235175;298.6247;3.702401;-0.8615641;0.2683948;-20.39068;0.3476731;1.259098;-0.06115562;0;304656.4548678841;12006.08866600618;-0.001;1;0;2;
1510749439.043259;1510749439.043259;1510749439.043359;57.77335285991344;12.77106848592663;232.3533011282064;1.723388;-3.265062;0.05486386;-0.7226079835608373;-1.917935565882736;122.5865142047414;72.81213119573687;297.8263;3.691978;-1.172063;0.4701025;-20.20807;0.344212;1.267267;-0.1738812;0;304656.4948678739;12006.12866599599;-0.001;1;0;2;
1510749439.055961;1510749439.055961;1510749439.05624;57.77335353972398;12.77106639329188;232.3510921646667;1.671566;-3.281623;0.05411125;-0.7368745368015565;-1.906442312722892;121.7733198739149;72.81211956047399;296.993;3.682823;-0.9902694;0.6706868;-20.23951;0.327172;1.364099;-0.113881;0;304656.5348678637;12006.1686659858;-0.001;1;0;2;
1510749439.069835;1510749439.069835;1510749439.069897;57.77335452252516;12.77106323113806;232.34777682065;1.591;-3.306991;0.05462281;-0.746740227277897;-1.885945265059417;120.5505334138413;72.81210213054666;295.6923;3.669806;-0.5846713;0.5969145;-20.19561;0.3845179;1.321353;-0.004061233;0;304656.5948688484;12006.22866697051;-0.001;1;0;2;
1510749439.078736;1510749439.078736;1510749439.078801;57.77335515264134;12.77106110928266;232.3455733186123;1.534485;-3.321018;0.05400909;-0.7509844697402939;-1.871441954686282;119.7365368608592;72.81209052454481;294.7994;3.658388;-0.47868;0.7667423;-20.2204;0.3238484;1.350635;-0.08172198;0;304656.6348688382;12006.26866696032;-0.001;1;0;2;
1510749439.088145;1510749439.088145;1510749439.088208;57.7733557620972;12.77105897601461;232.3434296828657;1.477971;-3.33732;0.05417851;-0.7711793921856052;-1.856193266132115;118.9199165870027;72.81207892931516;293.8867;3.649945;-1.07489;0.8971726;-20.33928;0.3860436;1.337838;0.002437693;0;304656.674868828;12006.30866695012;-0.001;1;0;2;
1510749439.097522;1510749439.097522;1510749439.09764;57.77335635246049;12.77105683319761;232.3412397197953;1.427954;-3.350429;0.0553772;-0.7942246707895564;-1.835194295053984;118.1011753580855;72.8120673439184;293.0837;3.642036;-0.9286788;0.92643;-20.59053;0.320164;1.106005;-0.0044174;0;304656.7148698178;12006.34866793993;-0.001;1;0;2;
1510749439.107571;1510749439.107571;1510749439.107633;57.77335692473814;12.77105468188559;232.3389983232168;1.377748;-3.361803;0.05554099;-0.8080353823304726;-1.815487219388019;117.2784837874323;72.81205576735714;292.285;3.633168;-0.7722346;0.7711048;-20.58919;0.3927385;1.32635;0.03193484;0;304656.7548698076;12006.38866792974;-0.001;1;0;2;
1510749439.139038;1510749439.139038;1510749439.13915;57.77335747795551;12.77105252179388;232.336814442357;1.326607;-3.372726;0.05210534;-0.8231389505284493;-1.80367776981181;116.4527642383146;72.81204419942971;291.4714;3.624248;-0.9034934;0.5779871;-20.49826;0.2482275;1.266956;-0.0331678;0;304656.7948697974;12006.42866791955;-0.001;1;0;2;
1510749439.219031;1510749439.219031;1510749439.219132;57.77335801176127;12.77105035278937;232.3346409604908;1.271837;-3.385978;0.053363;-0.8502297669398223;-1.796506222574067;115.6281735984198;72.81203264047063;290.5871;3.616961;-1.407195;0.4490391;-20.47822;0.3983459;1.443744;0.02897015;0;304656.8348697872;12006.46866790935;-0.001;1;0;2;
1510749439.295565;1510749439.295565;1510749439.295676;57.77335852545603;12.77104817601787;232.3324594446853;1.215132;-3.396706;0.05373786;-0.8792055702028966;-1.793916679809563;114.8014232259852;72.81202108953283;289.6841;3.607514;-1.430097;0.3025238;-20.61016;0.402721;1.485289;0.1749029;0;304656.8748707771;12006.50866889916;-0.001;1;0;2;
1510749439.369066;1510749439.369066;1510749439.369175;57.77335901874566;12.77104599113402;232.3301854952757;1.15735;-3.40835;0.05621884;-0.897284483273894;-1.795041813935049;113.9717523694972;72.81200954719584;288.7556;3.599487;-1.11436;0.2686859;-20.90895;0.3437974;1.368553;0.1362047;0;304656.9148707669;12006.54866888897;-0.001;1;0;2;
1510749439.449128;1510749439.449128;1510749439.449193;57.77335949043871;12.77104379780647;232.3277408246272;1.096692;-3.420552;0.0612765;-0.9208661429418865;-1.797353251680365;113.1374815244934;72.81199801340686;287.7768;3.592062;-1.453349;0.2286824;-20.99339;0.2922416;1.464159;0.09497162;0;304656.9548707567;12006.58866887878;-0.001;1;0;2;
1510749439.469491;1510749439.469491;1510749439.469597;57.77335994107564;12.77104159785532;232.3251800973483;1.042716;-3.428663;0.06039541;-0.935059118315457;-1.801524421161321;112.3023584318366;72.81198648718433;286.9154;3.583711;-0.958988;0.158003;-20.8166;0.1785381;1.529032;-0.04710723;0;304656.9948717465;12006.62866986858;-0.001;1;0;2;
1510749439.476891;1510749439.476891;1510749439.477006;57.77336018270419;12.77104049893543;232.3239046078779;1.013448;-3.435875;0.05921172;-0.9573898710183438;-1.805895412971277;111.883799879529;72.81197941823487;286.434;3.582222;-0.86708;0.157044;-21.03365;0.1917632;1.377056;-0.1162708;0;304657.0148719962;12006.64866986349;-0.001;1;0;2;
1510749439.493628;1510749439.493628;1510749439.493688;57.77336088123001;12.77103719226977;232.3202145056157;0.9335741;-3.453851;0.05690313;-0.9659367355454608;-1.81701341972447;110.6174967582987;72.81195822320707;285.1256;3.577799;-0.8888631;0.2414919;-21.09491;0.2013279;1.3059;0.0002623129;0;304657.0748719809;12006.7086698482;-0.001;1;0;2;
1510749439.502851;1510749439.502851;1510749439.502912;57.7733613220903;12.77103497619544;232.3178134191693;0.8797895;-3.467004;0.05587728;-0.9777567855148518;-1.825887909475015;109.7679855896024;72.81194410500666;284.2389;3.57689;-1.031869;0.1824769;-21.31536;0.2440429;1.305336;-0.06266421;0;304657.1148719707;12006.74866983801;-0.001;1;0;2;
1510749439.51202;1510749439.51202;1510749439.51208;57.77336174392927;12.77103275066981;232.3153490493644;0.8286352;-3.480174;0.05786163;-0.9854813065946704;-1.832690757146248;108.9144239372587;72.81192999675443;283.3929;3.577464;-0.7660372;0.2760508;-21.52518;0.2933317;1.161304;-0.1111058;0;304657.1548729605;12006.78867082781;-0.001;1;0;2;
1510749439.539034;1510749439.539034;1510749439.539096;57.77336214676678;12.77103051686858;232.3128768726695;0.7768283;-3.492904;0.05563318;-0.9952988799489653;-1.837370923499733;108.0600218330099;72.81191589755265;282.5386;3.578246;-1.06059;0.1939909;-21.39772;0.07420482;1.339238;-0.03032597;0;304657.1948729503;12006.82867081762;-0.001;1;0;2;
1510749439.672501;1510749439.672501;1510749439.672565;57.77336271394166;12.771027147386;232.3091840311797;0.698296;-3.514391;0.05532546;-1.026644150847475;-1.840920023426757;106.7748833576973;72.81189476822017;281.2381;3.583093;-1.266935;0.2060359;-21.36004;-0.048629;1.368708;0.07813819;0;304657.2548739351;12006.88867180233;-0.001;1;0;2;
1510749439.752276;1510749439.752276;1510749439.752356;57.77336306769216;12.77102488756765;232.3067057346996;0.6449203;-3.52982;0.05861767;-1.051738115643884;-1.841824537842761;105.9162777736346;72.81188069595296;280.3541;3.588252;-1.299064;0.4411268;-21.45375;-0.005924079;1.339205;0.02625551;0;304657.2948739249;12006.92867179214;-0.001;1;0;2;
1510749439.832205;1510749439.832205;1510749439.83227;57.77336340232948;12.77102261713081;232.3042256386404;0.5959361;-3.544666;0.05986053;-1.075964467064576;-1.845015718826333;105.0559209270754;72.81186663461902;279.5434;3.594412;-1.325876;0.4531319;-21.31693;-0.0953976;1.330144;0.07342693;0;304657.3348739147;12006.96867178195;-0.001;1;0;2;
1510749439.912351;1510749439.912351;1510749439.912456;57.77336371745692;12.77102033487339;232.3016025356341;0.542483;-3.561669;0.06352222;-1.105212284851527;-1.846139482311937;104.1908040424679;72.81185258525701;278.6602;3.602745;-1.243357;0.4728939;-21.58827;-0.01097823;1.292899;0.0622502;0;304657.3748739045;12007.00867177175;-0.001;1;0;2;
1510749439.936963;1510749439.936963;1510749439.93707;57.77336401362617;12.77101804205718;232.2990164056166;0.4877501;-3.577049;0.05728711;-1.133768216558072;-1.85420812285351;103.3258660060477;72.81183854669555;277.7647;3.61015;-1.646875;0.06417754;-21.61164;-0.09176894;1.549873;-0.003570674;0;304657.4148748943;12007.04867276156;-0.001;1;0;2;
1510749439.942283;1510749439.942283;1510749439.942386;57.77336428957133;12.77101573897502;232.2966227770308;0.4343753;-3.59147;0.05244921;-1.162776771362107;-1.868246018209682;102.4598574894844;72.81182451867718;276.8962;3.617643;-1.266133;-0.01842546;-21.55408;-0.1816009;1.597393;0.02320595;0;304657.4548748841;12007.08867275137;-0.001;1;0;2;
1510749439.949333;1510749439.949333;1510749439.949428;57.77336454524955;12.77101342474499;232.2943290008232;0.3793294;-3.606474;0.05447177;-1.181034497255821;-1.884019461827116;101.5950224998918;72.81181050235112;276.0043;3.626368;-0.9026945;0.1267325;-21.54019;-0.04949079;1.489011;-0.01767668;0;304657.4948748739;12007.12867274118;-0.001;1;0;2;
1510749439.954685;1510749439.954685;1510749439.954792;57.77336477943263;12.77101109990235;232.2919593890018;0.3213387;-3.62147;0.05548962;-1.203572129266582;-1.899963448952951;100.7294296340191;72.8117964971045;275.0706;3.635699;-1.203551;0.004045218;-21.5373;-0.07977474;1.36365;0.06049432;0;304657.5348758637;12007.16867373098;-0.001;1;0;2;
1510749439.960945;1510749439.960945;1510749439.961046;57.77336499238881;12.77100876485762;232.289509830994;0.2622315;-3.634861;0.05946191;-1.226437030781734;-1.91498883825237;99.86264190744112;72.81178250268677;274.1264;3.644308;-1.215145;0.2999692;-21.73831;0.01527336;1.432147;0.1563945;0;304657.5748758535;12007.20867372079;-0.001;1;0;2;
1510749439.966362;1510749439.966362;1510749439.966462;57.77336509096433;12.7710075938504;232.2882684726762;0.2354193;-3.641126;0.05749718;-1.234132790626263;-1.921254060767187;99.42710090377079;72.81177550928599;273.6993;3.648729;-0.9990888;0.1888412;-21.6614;-0.110973;1.467736;-0.03995753;0;304657.5948758484;12007.22867371569;-0.001;1;0;2;
1510749439.973993;1510749439.973993;1510749439.974096;57.77336527213236;12.77100524629746;232.2857224832272;0.1771963;-3.651675;0.05711318;-1.247031893993169;-1.919959143855699;98.55119465557715;72.811761529384;272.7781;3.655972;-1.20911;0.4922937;-21.84136;-0.1169114;1.473958;-0.01653251;0;304657.6348758382;12007.2686737055;-0.001;1;0;2;
1510749440.052358;1510749440.052358;1510749440.052938;57.77336543254301;12.77100289001564;232.2832295287338;0.1195405;-3.663963;0.05866694;-1.266256771223178;-1.914759478372979;97.67259725138399;72.81174755919409;271.8687;3.665913;-1.452065;0.7054478;-22.076;-0.08976232;1.385627;0.07887737;0;304657.674876828;12007.30867469531;-0.001;1;0;2;
1510749440.103874;1510749440.103874;1510749440.103971;57.77336557218435;12.77100052517595;232.2806861386125;0.06732146;-3.67438;0.05774929;-1.288643037925165;-1.909124429928789;96.79177391541906;72.8117335984788;271.0497;3.674997;-0.9724913;0.5527467;-21.93596;-0.01114266;1.340217;0.01869502;0;304657.7148768178;12007.34867468512;-0.001;1;0;2;
1510749440.172243;1510749440.172243;1510749440.17235;57.77336569035766;12.77099815293456;232.2781482303324;0.004965176;-3.685436;0.05516343;-1.318390242337956;-1.901362330438124;95.90690185287995;72.81171964631702;270.0772;3.68544;-1.780861;0.5713698;-22.14441;-0.07735312;1.368535;-0.1158643;0;304657.7548768076;12007.38867467492;-0.001;1;0;2;
1510749440.252603;1510749440.252603;1510749440.252679;57.7733657872339;12.77099577334586;232.2757093982246;-0.05333133;-3.69481;0.0546011;-1.364492720899734;-1.890907223929763;95.02353444196602;72.81170570277642;269.173;3.695194;-2.180039;0.8152883;-22.16984;-0.1170651;1.430044;-0.04448633;0;304657.7948777974;12007.42867566473;-0.001;1;0;2;
1510749440.322313;1510749440.322313;1510749440.322428;57.77336586301927;12.7709933866199;232.2733953543183;-0.1073804;-3.70469;0.05697459;-1.423673084370566;-1.886521033163366;94.13743100969116;72.81169176726399;268.3398;3.706245;-1.800663;0.8738315;-22.25652;-0.1819291;1.210465;0.07956729;0;304657.8348777873;12007.46867565454;-0.001;1;0;2;
1510749440.353256;1510749440.353256;1510749440.353326;57.77336591867394;12.77099099341677;232.2709627245437;-0.1618166;-3.71264;0.05750556;-1.476616887925761;-1.88190279264747;93.24858579045649;72.81167783963093;267.5043;3.716165;-1.842569;0.7176889;-22.235;-0.09015282;1.484252;-0.03565937;0;304657.8748777771;12007.50867564435;-0.001;1;0;2;
1510749440.362185;1510749440.362185;1510749440.362246;57.77336595306141;12.77098859376451;232.2683816088493;-0.224484;-3.72202;0.06419609;-1.52725042412917;-1.88043211030444;92.35553815657849;72.8116639196858;266.5485;3.728783;-2.022122;0.713608;-22.48668;-0.2089797;1.563169;0.2504723;0;304657.9148777669;12007.54867563415;-0.001;1;0;2;
1510749440.368704;1510749440.368704;1510749440.368836;57.77336596404814;12.77098618827595;232.265479986848;-0.2856855;-3.728693;0.07207723;-1.588148644640168;-1.87878967722303;91.45830822213594;72.81165000708002;265.6187;3.739621;-2.37936;0.6411609;-22.28923;-0.1372812;1.560183;0.3076784;0;304657.9548787567;12007.58867662396;-0.001;1;0;2;
1510749440.374625;1510749440.374625;1510749440.374755;57.77336595207711;12.77098377892861;232.2623250381358;-0.347964;-3.732255;0.07515585;-1.649199345746287;-1.875883818937226;90.5593272354549;72.81163610025745;264.6736;3.748441;-1.904141;0.7114246;-22.53145;-0.05805159;1.560014;0.07175863;0;304657.9948787465;12007.62867661377;-0.001;1;0;2;
1510749440.378631;1510749440.378631;1510749440.378791;57.77336595332089;12.77098255231364;232.2606701455116;-0.3781759;-3.735396;0.07668727;-1.693474846106489;-1.879098335172988;90.10945796637684;72.81225240124809;264.219;3.754491;-1.684735;0.7946891;-22.49112;-0.1763192;1.642784;0.03130636;0;304658.0148779962;12007.64867660867;-0.001;1;0;2;
1510749440.387785;1510749440.387785;1510749440.387915;57.77336595357487;12.77098132576427;232.2589715923257;-0.412768;-3.735711;0.07413589;-1.711494741470622;-1.87775496747221;89.65621562914335;72.81286870302883;263.6948;3.758445;-1.712426;0.7318807;-22.65481;-0.04321888;1.713261;0.003596213;0;304658.0348779911;12007.66867660357;-0.001;1;0;2;
1510749440.391724;1510749440.391724;1510749440.391797;57.77336594777854;12.77098009896735;232.2573095989201;-0.4462094;-3.736487;0.07354704;-1.725397688620632;-1.877473366383225;89.20285626330465;72.81348500558117;263.19;3.763036;-1.265402;0.7523454;-22.73021;-0.100709;1.768304;0.07190377;0;304658.054877986;12007.68867659848;-0.001;1;0;2;
1510749440.459102;1510749440.459102;1510749440.459207;57.77336591753245;12.77097764429486;232.254064703037;-0.5110352;-3.737387;0.06631671;-1.749138479092436;-1.875630085583938;88.2953112039589;72.81471761349368;262.2139;3.772164;-1.384119;0.5957547;-22.49928;-0.0537894;1.816375;-0.1250459;0;304658.0948789758;12007.72867758829;-0.001;1;0;2;
1510749440.529151;1510749440.529151;1510749440.529226;57.77336586267419;12.77097518949574;232.2511379622666;-0.579706;-3.738182;0.05818941;-1.769704563096395;-1.875326642113429;87.38990652042726;72.815950223857;261.185;3.782864;-1.196008;0.5960269;-22.67348;-0.1153659;1.789535;-0.09513183;0;304658.1348789656;12007.76867757809;-0.001;1;0;2;
1510749440.609143;1510749440.609143;1510749440.609206;57.77336578366208;12.77097273440372;232.2485298432609;-0.639119;-3.736417;0.05113009;-1.785964580667913;-1.878372528283661;86.48264314849185;72.8171828367438;260.2934;3.790684;-1.175027;0.5583924;-22.51271;-0.1483528;1.52166;-0.03158206;0;304658.1748789555;12007.8086775679;-0.001;1;0;2;
1510749440.689152;1510749440.689152;1510749440.689227;57.77336568215748;12.77097027955807;232.2461906070219;-0.7018796;-3.736625;0.04598494;-1.781915813556827;-1.888164657725594;85.5672102813805;72.81841545156585;259.3616;3.801973;-0.4881468;0.320717;-22.87575;-0.196311;1.688174;0.08045319;0;304658.2148799453;12007.84867855771;-0.001;1;0;2;
1510749440.749099;1510749440.749099;1510749440.749214;57.77336562253509;12.77096905214284;232.245042634888;-0.7346073;-3.735306;0.0478328;-1.772618467825657;-1.894672402112523;85.10613777045208;72.81903175982798;258.8739;3.806857;-0.3079243;0.3939511;-22.95932;-0.01315927;1.750623;0.1347195;0;304658.2348799402;12007.86867855261;-0.001;1;0;2;
1510749440.810754;1510749440.810754;1510749440.810819;57.77336548422671;12.77096659948776;232.2426983548907;-0.8046294;-3.729167;0.05028713;-1.759206495797401;-1.906683132399124;84.17802971838491;72.82026437653188;257.8242;3.814985;-0.45357;0.5872175;-23.27108;-0.03316803;1.547852;-0.007539789;0;304658.27487993;12007.90867854242;-0.001;1;0;2;
