SampleTimeStamp;SentTimeStamp;ReceivedTimeStamp;lat;lon;alt;vel_north;vel_east;vel_down;roll;pitch;heading;wander;track;speed;arate_lon;arate_trans;arate_down;accel_lon;accel_trans;accel_down;alignment;timeDistance.time1;timeDistance.time2;timeDistance.distanceTag;timeDistance.time1Type;timeDistance.time2Type;timeDistance.distanceType;
1510749557.922193;1510749557.922193;1510749557.922318;57.77331233690289;12.7701236657899;231.7051849630712;0.3909067;-1.373831;0.01933907;-0.6022025257909365;-2.146645317415377;106.6822787591864;72.8696773155071;285.8831;1.428362;-0.04275795;-0.2005504;0.2275514;-1.165402;-0.01119446;-0.0580083;0;304775.7957207969;12125.42952257948;-0.001;1;0;2;
1510749558.002204;1510749558.002204;1510749558.002307;57.77331251504041;12.77012261136461;231.7044169249469;0.4008695;-1.421798;0.01993642;-0.6101223455394132;-2.152847733226252;106.682564507826;72.87053932152465;285.7456;1.477229;-0.3014692;-0.1967927;-0.05720672;-1.229476;-0.01133861;0.120613;0;304775.8357207867;12125.46952256928;-0.001;1;0;2;
1510749558.079265;1510749558.079265;1510749558.079328;57.77331269818344;12.77012152640762;231.7036204794691;0.4154396;-1.467507;0.02206778;-0.6161297879612595;-2.157374546569751;106.682493945194;72.87140135345712;285.8064;1.525178;-0.1064352;0.01150971;-0.1015991;-1.219912;-0.02768513;-0.001519299;0;304775.8757207765;12125.50952255907;-0.001;1;0;2;
1510749558.11926;1510749558.11926;1510749558.119336;57.77331288664386;12.77012041090093;231.7028215355294;0.4334851;-1.512889;0.02102115;-0.6233135494356244;-2.160934832605114;106.6849375961058;72.87226341137824;285.9885;1.573767;-0.2383405;-0.04729915;0.2552027;-1.182648;0.01782166;-0.004468002;0;304775.9157217663;12125.54952354886;-0.001;1;0;2;
1510749558.199351;1510749558.199351;1510749558.199457;57.77331308018083;12.77011926457935;231.7019932827019;0.4478907;-1.559852;0.02213512;-0.6262013877990962;-2.162552027628538;106.686078616805;72.87312549545662;286.0207;1.622882;0.1651456;-0.006837906;0.05565429;-1.197428;-0.02053907;0.07210537;0;304775.9557217561;12125.58952353866;-0.001;1;0;2;
1510749558.279264;1510749558.279264;1510749558.279326;57.77331327676642;12.77011808770946;231.7010978399011;0.4620909;-1.608183;0.02228258;-0.6349752517797788;-2.16116721027491;106.6872821946312;72.8739567522377;286.0313;1.673254;-0.08528399;-0.07827957;0.04303857;-1.193629;-0.002561741;-0.01400386;0;304775.9957217459;12125.62952352845;-0.001;1;0;2;
1510749558.312433;1510749558.312433;1510749558.31254;57.77331337708084;12.77011749061854;231.7006386675184;0.4688212;-1.632294;0.02252675;-0.6388994945514338;-2.163643893698911;106.6888939952908;72.87426440464071;286.0249;1.698286;-0.2397072;-0.1560529;0.04530771;-1.243743;0.01705195;0.02785339;0;304776.015721996;12125.64952352335;-0.001;1;0;2;
1510749558.432234;1510749558.432234;1510749558.432395;57.77331347856867;12.77011688567565;231.7001493230835;0.47361;-1.656066;0.02427572;-0.6449881000209629;-2.164958201170857;106.6897595807547;72.87457206366949;285.9597;1.722458;-0.5321314;-0.04617229;-0.1381979;-1.215154;-0.02726253;0.05505461;0;304776.0357229909;12125.66952451824;-0.001;1;0;2;
1510749558.466999;1510749558.466999;1510749558.46706;57.77331358144706;12.77011627289393;231.6996827139852;0.4837412;-1.678853;0.02376826;-0.6507805018646413;-2.169005646152473;106.6908383904768;72.87487972922236;286.0737;1.747156;-0.2273424;-0.1602711;-0.02380169;-1.178241;-0.06197624;0.1118122;0;304776.0557229858;12125.68952451314;-0.001;1;0;2;
1510749558.542285;1510749558.542285;1510749558.542356;57.77331379152557;12.77011502433138;231.6987594594204;0.4993897;-1.725436;0.02258603;-0.6632714183585042;-2.179660800295319;106.6943356374723;72.87549507972037;286.1419;1.796252;-0.2058902;-0.2592673;-0.06194869;-1.211063;-0.06726851;0.04939723;0;304776.0957229756;12125.72952450293;-0.001;1;0;2;
1510749558.622387;1510749558.622387;1510749558.622462;57.77331400701052;12.77011374496993;231.6978549885234;0.5156186;-1.770863;0.02040611;-0.6733747711536193;-2.191771582572964;106.6965453303964;72.8761104561829;286.2339;1.844402;-0.371943;-0.3867507;0.1044374;-1.116553;0.05867571;0.009275164;0;304776.1357229654;12125.76952449272;-0.001;1;0;2;
1510749558.702268;1510749558.702268;1510749558.702331;57.77331422737073;12.7701124355823;231.6969692555452;0.5279664;-1.816794;0.02094029;-0.6799983154057961;-2.203603226557758;106.6983165491026;72.87672585809054;286.204;1.891954;-0.4325264;-0.3132873;0.008066548;-1.207541;0.008489216;0.03875682;0;304776.1757239552;12125.80952548252;-0.001;1;0;2;
1510749558.72346;1510749558.72346;1510749558.723543;57.77331445256425;12.77011109623784;231.6960987607385;0.5442991;-1.860724;0.02117588;-0.6866816692504499;-2.214075690090725;106.702040448945;72.87734128549295;286.3053;1.938699;-0.03666;-0.2432848;0.2060339;-1.147662;0.06400624;0.08909306;0;304776.2157239449;12125.84952547231;-0.001;1;0;2;
1510749558.735092;1510749558.735092;1510749558.735249;57.77331456668273;12.77011041532976;231.6956400506754;0.5478411;-1.8837;0.02111367;-0.6903368601531105;-2.216559951019466;106.7022177731439;72.87764900873638;286.2162;1.961748;-0.1841153;-0.1644123;-0.0045382;-1.09664;0.07340556;-0.05266564;0;304776.2357239398;12125.86952546721;-0.001;1;0;2;
1510749558.744365;1510749558.744365;1510749558.744462;57.77331479828501;12.77010903170127;231.6947602186721;0.5601968;-1.928227;0.01904089;-0.697722320041372;-2.220335367313057;106.7045293679717;72.87826447382041;286.1999;2.007954;-0.2654401;-0.1973122;-0.04395727;-1.152825;-0.0218918;-0.01947959;0;304776.2757239296;12125.909525457;-0.001;1;0;2;
1510749558.760716;1510749558.760716;1510749558.76082;57.77331503465293;12.77010761913646;231.6939123406941;0.5765072;-1.970846;0.02046944;-0.7015737003057103;-2.220076864187207;106.7067028892172;72.87887996360911;286.3051;2.053434;-0.00528439;-0.0004343722;0.09405611;-1.149003;-0.0818506;0.0620551;0;304776.3157249194;12125.94952644679;-0.001;1;0;2;
1510749558.770098;1510749558.770098;1510749558.770204;57.77331527600584;12.77010617702432;231.6930803558771;0.5913394;-2.015433;0.01942736;-0.7019322925284858;-2.220490653682055;106.7081283679091;72.87949547838072;286.352;2.100393;0.02020068;-0.1142694;0.1381965;-1.095976;-0.03152886;0.07936393;0;304776.3557249092;12125.98952643658;-0.001;1;0;2;
1510749558.78665;1510749558.78665;1510749558.78675;57.77331564699879;12.77010395858299;231.6917708854116;0.6123473;-2.080876;0.0212087;-0.7017227716623262;-2.223880008905831;106.70896792159;72.88041879712247;286.3978;2.169105;0.1023053;-0.07080574;0.1532996;-1.055036;-0.001963599;-0.05046;0;304776.4157248939;12126.04952642127;-0.001;1;0;2;
1510749558.79584;1510749558.79584;1510749558.795941;57.77331577321878;12.77010320464955;231.6913573315353;0.6191568;-2.103274;0.02133409;-0.7045690648490542;-2.227608097335891;106.7111286840968;72.88072658219298;286.4033;2.192513;-0.1167462;-0.1208135;0.2413511;-1.145422;-0.03426187;0.03604275;0;304776.4357258888;12126.06952741617;-0.001;1;0;2;
1510749558.872297;1510749558.872297;1510749558.872386;57.77331602915675;12.77010167496008;231.6905283270164;0.6331449;-2.147604;0.02031851;-0.7079964696468486;-2.233508069910379;106.7132328066806;72.88134217079252;286.4263;2.23899;0.01505664;-0.11976;0.1530131;-1.223441;-0.1185316;0.0276109;0;304776.4757258786;12126.10952740596;-0.001;1;0;2;
1510749558.952334;1510749558.952334;1510749558.952399;57.77331628993508;12.77010011601578;231.6897407695444;0.6442698;-2.191221;0.01953966;-0.709062794818443;-2.240215881888438;106.7144561716012;72.88195778409813;286.3846;2.283973;-0.04058814;-0.1118078;-0.06189064;-1.141356;-0.07740152;0.04840562;0;304776.5157258684;12126.14952739576;-0.001;1;0;2;
1510749559.032325;1510749559.032325;1510749559.0324;57.77331655573098;12.770098528301;231.6889752013553;0.6626706;-2.235183;0.01779869;-0.7117648488133715;-2.248023623318677;106.7173282645758;72.88257342174728;286.5136;2.331346;0.03381617;-0.3298061;0.3128214;-1.240347;0.009770002;0.1740847;0;304776.5557258582;12126.18952738555;-0.001;1;0;2;
1510749559.103021;1510749559.103021;1510749559.103089;57.77331682602586;12.77009691086218;231.6881299129191;0.6706623;-2.280898;0.02124601;-0.7120677714119921;-2.254303999290901;106.716654355408;72.8831890844762;286.3851;2.377453;-0.164139;-0.190888;-0.1150494;-1.223395;0.0541318;0.1532733;0;304776.5957268479;12126.22952837534;-0.001;1;0;2;
1510749559.146226;1510749559.146226;1510749559.146288;57.77331710126098;12.77009526406155;231.6871565550296;0.6868017;-2.3242;0.02702636;-0.7042855628490271;-2.258644263822807;106.7172928766328;72.88380477231507;286.4624;2.423552;0.3763405;0.00554361;-0.02820134;-1.100127;-0.07156218;0.1656874;0;304776.6357268377;12126.26952836513;-0.001;1;0;2;
1510749559.15348;1510749559.15348;1510749559.153587;57.77331738122115;12.77009358700691;231.6860753465002;0.7043217;-2.368793;0.02820048;-0.6960107080637645;-2.26516272153487;106.7178734515433;72.88442048565543;286.559;2.471285;0.4079106;-0.170445;0.3269383;-1.07793;-0.02840838;0.03812263;0;304776.6757268275;12126.30952835493;-0.001;1;0;2;
1510749559.160549;1510749559.160549;1510749559.160647;57.77331766572824;12.7700918796784;231.684878748995;0.7132134;-2.416167;0.02883458;-0.6880782786898165;-2.273557682216789;106.7179218020091;72.88503622449234;286.4457;2.519233;-0.01645311;-0.3376214;0.06908546;-1.225404;0.03987653;0.1471201;0;304776.7157278173;12126.34952934472;-0.001;1;0;2;
1510749559.166823;1510749559.166823;1510749559.167134;57.77331795481439;12.77009014183207;231.6836032199016;0.7254927;-2.46315;0.0320687;-0.6783522475694356;-2.28190710716497;106.7166213997796;72.88565198911066;286.4117;2.56777;0.3098907;-0.2556202;-0.1725297;-1.244915;0.0335779;0.1814264;0;304776.7557278071;12126.38952933451;-0.001;1;0;2;
1510749559.174501;1510749559.174501;1510749559.174622;57.77331824916456;12.77008837409967;231.682301750394;0.7425088;-2.506731;0.0331681;-0.6683661743220968;-2.289344644310252;106.7185452542445;72.88626777920942;286.4996;2.614387;0.3331532;-0.08671299;0.05662853;-1.27241;-0.02400706;-0.06697652;0;304776.7957277969;12126.4295293243;-0.001;1;0;2;
1510749559.182904;1510749559.182904;1510749559.183074;57.7733185486379;12.77008657483391;231.6809769339505;0.75569;-2.555866;0.03470518;-0.6581249242272924;-2.296917480514447;106.7198044428148;72.88688359595007;286.4713;2.665243;0.1312218;-0.08461573;-0.03849387;-1.209348;-0.1319636;0.06030798;0;304776.8357287867;12126.4695303141;-0.001;1;0;2;
1510749559.191425;1510749559.191425;1510749559.191528;57.77331885326108;12.77008474376521;231.6795993737605;0.7731948;-2.603157;0.03607935;-0.6512274706336442;-2.305997419380885;106.7200032501502;72.88749943942635;286.5426;2.715558;0.3142124;-0.2098178;0.07210892;-1.267751;-0.1424101;0.159317;0;304776.8757287765;12126.50953030389;-0.001;1;0;2;
1510749559.242455;1510749559.242455;1510749559.242562;57.7733191638678;12.77008288000973;231.678106191614;0.7896746;-2.654867;0.03847538;-0.644764526130819;-2.31699086259997;106.7211011406965;72.88811531050607;286.5648;2.769821;0.008461863;-0.3053637;0.06668831;-1.372012;0.01276873;0.1129235;0;304776.9157287663;12126.54953029368;-0.001;1;0;2;
1510749559.3162;1510749559.3162;1510749559.316286;57.7733194802229;12.77008098158555;231.6765305898114;0.8061326;-2.705973;0.04168671;-0.642539401049113;-2.332621005903695;106.7198741765536;72.88873121053415;286.5892;2.823498;0.1022211;-0.2993481;-0.03841467;-1.309368;-0.06763879;0.09249982;0;304776.9557287561;12126.58953028348;-0.001;1;0;2;
1510749559.396025;1510749559.396025;1510749559.396099;57.77331980190048;12.77007905081899;231.6748752644708;0.8220024;-2.759082;0.04078683;-0.6430375955430848;-2.347801295386061;106.7182625350525;72.8892704069858;286.5902;2.878927;-0.1211039;-0.5289908;-0.2611539;-1.353153;-0.09355459;0.1220724;0;304776.9957297459;12126.62953127327;-0.001;1;0;2;
1510749559.436022;1510749559.436022;1510749559.436126;57.77331996309547;12.77007807593263;231.674129429921;0.8328929;-2.784504;0.04473978;-0.6435565500108258;-2.356674176769241;106.7179142152633;72.88927145507567;286.6528;2.906402;0.1210843;-0.2787822;-0.06260237;-1.421355;-0.1126225;0.1017883;0;304777.015729996;12126.64953126817;-0.001;1;0;2;
1510749559.60205;1510749559.60205;1510749559.602155;57.77332045573536;12.77007509836014;231.6718568598588;0.8600903;-2.863457;0.04251428;-0.6550492387762892;-2.383818850910693;106.7165925195527;72.88927464392135;286.7186;2.98984;-0.413893;-0.4710784;0.1409339;-1.334805;0.006843462;0.05807677;0;304777.0757299807;12126.70953125285;-0.001;1;0;2;
1510749559.610439;1510749559.610439;1510749559.610541;57.77332079179861;12.77007306963686;231.6703064003241;0.8749885;-2.917215;0.04386841;-0.6711306573370948;-2.39874896394747;106.7182116014601;72.88927680689703;286.6961;3.045612;-0.6284404;-0.3526617;0.01089653;-1.483475;-0.02658716;0.08122136;0;304777.1157309705;12126.74953224265;-0.001;1;0;2;
1510749559.623326;1510749559.623326;1510749559.62339;57.77332113387328;12.77007100506859;231.6686904740897;0.8919141;-2.970616;0.04597361;-0.6897671949062075;-2.40833257076235;106.7200355466657;72.88927900040171;286.7122;3.101624;-0.6226987;-0.1715984;-0.02322808;-1.434549;-0.06736618;0.04921912;0;304777.1557309603;12126.78953223244;-0.001;1;0;2;
1510749559.628394;1510749559.628394;1510749559.628497;57.77332148191554;12.77006890519202;231.6670222628307;0.9092986;-3.023863;0.04473864;-0.7120666082029066;-2.412124948108689;106.7225231489492;72.88928122400579;286.7364;3.157621;-0.7361892;-0.1745452;0.009969592;-1.431979;-0.05097174;0.02148967;0;304777.19573095;12126.82953222223;-0.001;1;0;2;
1510749559.635377;1510749559.635377;1510749559.635473;57.77332201617693;12.77006568839103;231.6645907776459;0.9380215;-3.102644;0.04498365;-0.7343465861254496;-2.417514492580282;106.7269878144317;72.88928461629591;286.8216;3.24134;-0.4229775;0.01253358;0.2170475;-1.323031;0.05225398;-0.05038807;0;304777.2557319347;12126.88953320692;-0.001;1;0;2;
1510749559.640905;1510749559.640905;1510749559.641009;57.77332237947978;12.77006349919757;231.6630597112073;0.9508711;-3.157872;0.04128468;-0.7428730971956;-2.418437031862558;106.7270720954415;72.88928691567702;286.7576;3.297925;-0.4981146;-0.03818536;-0.06278313;-1.349615;0.01521788;0.008416328;0;304777.2957319245;12126.92953319672;-0.001;1;0;2;
1510749559.696026;1510749559.696026;1510749559.696201;57.77332274816985;12.77006127407574;231.6616016000956;0.9661588;-3.212936;0.03948376;-0.7558446137896365;-2.414029968030779;106.7280670366952;72.8892892456614;286.7365;3.355059;-0.3810374;0.07457066;-0.06089182;-1.448581;0.03626224;0.005895191;0;304777.3357319143;12126.96953318651;-0.001;1;0;2;
1510749559.776014;1510749559.776014;1510749559.77612;57.77332312211283;12.77005901251279;231.6601729027553;0.9817769;-3.26611;0.04119254;-0.7728347760506901;-2.403595319194823;106.730262393064;72.88929160673376;286.7305;3.410478;-0.4646549;0.3538385;0.03655696;-1.339413;0.030902;0.05107908;0;304777.3757329041;12127.0095341763;-0.001;1;0;2;
1510749559.832271;1510749559.832271;1510749559.832374;57.77332331117325;12.77005786822825;231.6594408186529;0.9888583;-3.293966;0.040635;-0.7790686273741044;-2.395591030445483;106.7306141970011;72.88929279881395;286.7099;3.439193;-0.3914661;0.4029515;-0.1154246;-1.466486;-0.02141667;-0.1106778;0;304777.395732899;12127.0295341712;-0.001;1;0;2;
1510749559.95243;1510749559.95243;1510749559.95253;57.77332388864566;12.77005438026439;231.6572658870478;1.020399;-3.375214;0.04272261;-0.7885671504878907;-2.369361967632713;106.7349881144831;72.88929642207147;286.8212;3.526086;0.1197795;0.5119488;0.07342189;-1.328332;-0.09587581;0.05746148;0;304777.4557328837;12127.08953415589;-0.001;1;0;2;
1510749560.032513;1510749560.032513;1510749560.032708;57.77332428145792;12.77005200927468;231.6558133742186;1.034662;-3.430452;0.04134175;-0.7919919001208077;-2.354607003803658;106.7375438959981;72.8892988761274;286.7839;3.583089;-0.2674353;0.4340951;0.003636319;-1.324013;-0.02927007;-0.131862;0;304777.4957328735;12127.12953414568;-0.001;1;0;2;
1510749560.06838;1510749560.06838;1510749560.068549;57.77332467978126;12.77004960333188;231.6544138260074;1.052523;-3.480706;0.03843682;-0.8020268532727235;-2.341306643414853;106.7410096257008;72.8893013596313;286.8247;3.636361;-0.2667714;0.286478;0.1537738;-1.293316;-0.0347364;0.09434494;0;304777.5357338632;12127.16953513547;-0.001;1;0;2;
1510749560.077522;1510749560.077522;1510749560.077709;57.77332508403114;12.77004716437454;231.6530533963503;1.068133;-3.528952;0.03979839;-0.8055606955064153;-2.328300125816355;106.74477048346;72.88930387116407;286.8399;3.68706;0.0891243;0.4054111;0.135474;-1.217024;0.04209461;0.01406373;0;304777.575733853;12127.20953512526;-0.001;1;0;2;
1510749560.085333;1510749560.085333;1510749560.085516;57.77332549298468;12.7700446947627;231.6517341704674;1.080589;-3.574096;0.03855715;-0.7998943963061889;-2.315213792795949;106.745817986069;72.88930640864305;286.8221;3.733877;0.2686874;0.3673897;0.07008843;-1.204946;0.08006434;0.04387828;0;304777.6157338428;12127.24953511506;-0.001;1;0;2;
1510749560.093476;1510749560.093476;1510749560.093539;57.7733259063201;12.77004219508014;231.6503399811759;1.094521;-3.618005;0.04050328;-0.7936862231300612;-2.299449301132286;106.7484606793466;72.88930897176341;286.8316;3.779938;0.1721322;0.3684897;0.3231967;-1.075875;0.1374384;0.1362924;0;304777.6557348326;12127.28953610485;-0.001;1;0;2;
1510749560.100938;1510749560.100938;1510749560.101044;57.77332632368556;12.77003966684226;231.6488316831303;1.104619;-3.660777;0.04506453;-0.7869172022197065;-2.278113735289905;106.7514812336398;72.88931155931377;286.7909;3.823803;0.2239376;0.6305132;0.1434953;-1.061447;-0.03600939;0.1291268;0;304777.6957348224;12127.32953609464;-0.001;1;0;2;
1510749560.107778;1510749560.107778;1510749560.107931;57.77332674541464;12.77003710993789;231.6472370026899;1.118192;-3.703393;0.04536668;-0.7762181092070348;-2.257108521575281;106.7549140189254;72.88931417118043;286.801;3.868523;0.4525795;0.4850517;0.1877732;-1.055644;-0.0442817;0.1358359;0;304777.7357348122;12127.36953608444;-0.001;1;0;2;
1510749560.114553;1510749560.114553;1510749560.114657;57.77332717189259;12.77003452444797;231.6455538797418;1.132001;-3.747466;0.04708688;-0.7564995004341918;-2.239352744146202;106.7570952495748;72.8893168071636;286.808;3.914707;0.4817762;0.2853207;0.1936627;-1.132328;0.09516771;0.1408589;0;304777.775735802;12127.40953707423;-0.001;1;0;2;
1510749560.16608;1510749560.16608;1510749560.166142;57.77332760316775;12.77003190946967;231.6437809807825;1.14309;-3.792258;0.04967967;-0.7371043434420667;-2.22907768005603;106.7604789771844;72.88931946781388;286.7743;3.960792;0.2251724;0.1471249;0.05784899;-1.129003;0.05907958;0.105861;0;304777.8157357918;12127.44953706402;-0.001;1;0;2;
1510749560.246008;1510749560.246008;1510749560.246136;57.7733280387166;12.77002926621159;231.6419421533949;1.15596;-3.833873;0.04856705;-0.7162929687702444;-2.223940864390989;106.7615479640248;72.88932215207046;286.7787;4.004351;0.3381472;-0.1186677;-0.014596;-1.171954;-0.03641493;0.06650472;0;304777.8557357816;12127.48953705381;-0.001;1;0;2;
1510749560.31656;1510749560.31656;1510749560.316929;57.77332847973718;12.77002659295024;231.6400282890397;1.175144;-3.884336;0.05233632;-0.6981752865717983;-2.221010363185647;106.7645278130253;72.88932486166082;286.8324;4.058205;0.1780981;-0.1099696;0.2153299;-1.466408;0.05957192;0.3211093;0;304777.8957357714;12127.52953704361;-0.001;1;0;2;
1510749560.396087;1510749560.396087;1510749560.396223;57.7733289269843;12.77002388372237;231.6379953442627;1.190974;-3.936661;0.05606199;-0.6897225784789989;-2.225371149767002;106.7676596696847;72.88932760121352;286.8323;4.112872;-0.2248258;-0.243846;0.09842391;-1.285872;-0.0008354618;0.3632177;0;304777.9357367612;12127.5695380334;-0.001;1;0;2;
1510749560.469671;1510749560.469671;1510749560.469761;57.77332938064699;12.77002114075367;231.6359104800432;1.210636;-3.989261;0.05837956;-0.6876822677205154;-2.234929852861562;106.771199999251;72.88933036900072;286.8817;4.168914;-0.1730185;-0.2146487;0.09885912;-1.479885;-0.1311247;0.1561348;0;304777.975736751;12127.60953802319;-0.001;1;0;2;
1510749560.489926;1510749560.489926;1510749560.49003;57.77333006703072;12.77001696994927;231.6330685698039;1.243585;-4.075823;0.06165645;-0.6895761815757371;-2.249387874005321;106.7742961337226;72.89020342851641;286.9676;4.261319;0.08623619;-0.3569127;0.1122416;-1.500582;-0.0800886;0.07542484;0;304778.0357359909;12127.66953800788;-0.001;1;0;2;
1510749560.496398;1510749560.496398;1510749560.496504;57.77333029976618;12.77001556284232;231.6321457523368;1.251935;-4.103361;0.06419776;-0.6857162080609632;-2.252972812634326;106.7762425233306;72.8905910032169;286.9669;4.290094;0.1288071;-0.1724788;0.0313173;-1.380616;-0.003541565;0.1229152;0;304778.0557369858;12127.68953900278;-0.001;1;0;2;
1510749560.503554;1510749560.503554;1510749560.503656;57.77333076967676;12.77001272008254;231.6303458442639;1.267685;-4.162403;0.06335776;-0.677137936129633;-2.265274214022651;106.7788850892599;72.89136617649233;286.9384;4.351163;0.1488728;-0.2851905;-0.06607392;-1.593436;0.01017754;0.1666604;0;304778.0957369755;12127.72953899257;-0.001;1;0;2;
1510749560.521294;1510749560.521294;1510749560.521465;57.7733312455746;12.77000983627614;231.6284080020301;1.283851;-4.224776;0.06935571;-0.6785361194202763;-2.276980106568513;106.7830469493676;72.89214138443886;286.9033;4.415542;-0.1367554;-0.1823344;-0.08790364;-1.568104;-0.01190465;0.1129194;0;304778.1357369653;12127.76953898236;-0.001;1;0;2;
1510749560.534639;1510749560.534639;1510749560.534717;57.77333172779859;12.77000691313038;231.6262971057258;1.303834;-4.281348;0.0716804;-0.6922510511860345;-2.286877554910469;106.7924550821058;72.89291662580864;286.9375;4.475481;-0.4716921;-0.2563042;0.2087265;-1.544859;-0.05352546;0.2224103;0;304778.1757379551;12127.80953997216;-0.001;1;0;2;
1510749560.55948;1510749560.55948;1510749560.559692;57.77333221645;12.77000395424726;231.6241072096165;1.323988;-4.328786;0.07110758;-0.7019322268485153;-2.294438001940839;106.8001330135421;72.89369189749242;287.0066;4.526735;-0.1371433;-0.1203433;0.2896509;-1.260637;-0.1539489;-0.07212902;0;304778.2157379449;12127.84953996195;-0.001;1;0;2;
1510749560.616064;1510749560.616064;1510749560.616141;57.77333246323172;12.77000246294131;231.6230317153227;1.331548;-4.354863;0.06899206;-0.703708399449648;-2.294289616634633;106.8026578191465;72.89407954352829;287.0016;4.553883;-0.1673723;-0.09916734;0.08873876;-1.328279;-0.03175013;0.06448192;0;304778.2357379398;12127.86953995685;-0.001;1;0;2;
1510749560.696143;1510749560.696143;1510749560.696206;57.77333296206073;12.76999945691366;231.6208310049932;1.351294;-4.397748;0.07296095;-0.7000565511024395;-2.27959515677952;106.8093412725492;72.89485485623285;287.0806;4.600672;0.2839433;0.5599359;0.2607626;-1.208899;-0.004381432;0.09304457;0;304778.2757379296;12127.90953994664;-0.001;1;0;2;
1510749560.7762;1510749560.7762;1510749560.776313;57.77333346660681;12.76999642103963;231.6186816957897;1.363382;-4.44443;0.07153121;-0.6899135989420428;-2.256711067004092;106.8178217684265;72.89563019473452;287.054;4.648846;0.1876058;0.7667381;0.1434674;-1.276731;-0.06672376;-0.05530335;0;304778.3157389194;12127.94954093643;-0.001;1;0;2;
1510749560.856115;1510749560.856115;1510749560.856182;57.77333397581544;12.76999335382427;231.616602646971;1.381568;-4.493359;0.06659544;-0.6932403984473695;-2.229347243768831;106.8299257261458;72.89640555991822;287.091;4.700958;-0.1171385;0.4835834;0.5236115;-1.363674;-0.002853743;-0.0090927;0;304778.3557389092;12127.98954092622;-0.001;1;0;2;
1510749560.943604;1510749560.943604;1510749560.943705;57.77333475093953;12.76998868949129;231.6135113153564;1.404298;-4.56953;0.06877856;-0.7036144664436419;-2.202084665418202;106.8512376410217;72.89756866088092;287.0831;4.780446;0.08077062;0.2813632;0.1712912;-1.340548;-0.1013627;0.02934911;0;304778.4157388939;12128.04954091091;-0.001;1;0;2;
1510749560.947939;1510749560.947939;1510749560.948055;57.77333501278042;12.76998711819017;231.6125211298877;1.416086;-4.593667;0.065408;-0.7005174736453889;-2.198840125533477;106.8582871278869;72.89795637501834;287.1329;4.806982;0.07591199;0.06877425;0.3075281;-1.306187;-0.0695052;0.08776148;0;304778.4357388888;12128.06954090581;-0.001;1;0;2;
1510749560.953068;1510749560.953068;1510749560.953128;57.77333554181799;12.76998395023474;231.6105901531365;1.437125;-4.645775;0.06392186;-0.6872314291442835;-2.198126437307692;106.8735437644923;72.89873182464888;287.1889;4.862978;0.3114539;-0.1882987;0.5243336;-1.417684;-0.08244339;0.1485108;0;304778.4757398786;12128.1095418956;-0.001;1;0;2;
1510749560.964003;1510749560.964003;1510749560.964071;57.77333607737339;12.76998074667771;231.6086192781882;1.454564;-4.698247;0.06603983;-0.6733122949180161;-2.201781866672594;106.8927369774722;72.89950730440299;287.2024;4.918261;0.2890409;-0.1472636;0.619409;-1.334097;0.04251011;0.0848961;0;304778.5157398684;12128.1495418854;-0.001;1;0;2;
1510749560.973133;1510749560.973133;1510749560.973215;57.77333661920877;12.76997750785001;231.6065865156619;1.470525;-4.753315;0.06825361;-0.6613067842738252;-2.205994557002072;106.9144805909899;72.90028281406502;287.1904;4.975585;0.3216661;-0.2034819;0.4597949;-1.596071;0.05391017;0.08812404;0;304778.5557398582;12128.18954187519;-0.001;1;0;2;
1510749560.982709;1510749560.982709;1510749560.982815;57.77333716801371;12.76997423214791;231.6043602574335;1.494259;-4.807133;0.07607916;-0.6499455340063378;-2.2092377793463;106.9418230348701;72.90105835522678;287.2674;5.034018;0.2696086;-0.05687452;0.9436428;-1.276824;0.04532984;0.3008181;0;304778.595740848;12128.22954286498;-0.001;1;0;2;
1510749560.991678;1510749560.991678;1510749560.991784;57.77333772341633;12.76997091958055;231.6019427420864;1.51005;-4.864129;0.08052883;-0.6439309437437867;-2.209157501584721;106.968434337213;72.90183392760717;287.2468;5.093133;0.01337314;0.04858305;0.5697096;-1.502566;-0.158733;0.1008729;0;304778.6357408378;12128.26954285477;-0.001;1;0;2;
1510749561.046097;1510749561.046097;1510749561.046211;57.77333828639083;12.76996757058467;231.5993381846806;1.532016;-4.916996;0.08222494;-0.6437105655435941;-2.206478535687597;106.9964523258863;72.90260953090072;287.3058;5.150139;0.2027698;0.07734444;0.5361001;-1.438981;-0.1901014;0.07609361;0;304778.6757408276;12128.30954284457;-0.001;1;0;2;
1510749561.103696;1510749561.103696;1510749561.103767;57.77333885722771;12.76996418581846;231.5966988808577;1.556175;-4.970239;0.08055755;-0.6327930794749366;-2.201588869013973;107.0226485164954;72.9033851646311;287.3853;5.208162;0.3478425;-0.003912094;0.7959346;-1.487044;-0.08406093;0.0439478;0;304778.7157418173;12128.34954383436;-0.001;1;0;2;
1510749561.166368;1510749561.166368;1510749561.16647;57.77333943481324;12.76996076465496;231.5940412056893;1.571901;-5.025522;0.08160307;-0.6194775285618911;-2.191869920065798;107.0455471322853;72.90416082924513;287.3688;5.265619;0.4365018;0.2049298;0.521363;-1.408191;-0.05346364;-0.01516022;0;304778.7557418071;12128.38954382415;-0.001;1;0;2;
1510749561.246051;1510749561.246051;1510749561.246155;57.77334001864764;12.76995730655679;231.591471656776;1.590486;-5.080477;0.08184929;-0.6248965117575573;-2.186558492044359;107.069057354425;72.90493652464986;287.3832;5.323617;-0.3761187;0.1150666;0.7268131;-1.329343;0.03977317;0.1693204;0;304778.7957417969;12128.42954381395;-0.001;1;0;2;
1510749561.31626;1510749561.31626;1510749561.316364;57.77334060917421;12.7699538123518;231.5889055370826;1.612713;-5.135049;0.0803036;-0.6437548258647569;-2.183121139709879;107.0912426886849;72.90571225024416;287.4354;5.382339;-0.3734366;-0.02452992;0.6525704;-1.573883;-0.2439148;0.1919879;0;304778.8357417867;12128.46954380374;-0.001;1;0;2;
1510749561.364431;1510749561.364431;1510749561.367178;57.77334120826723;12.76995028231375;231.5863124297371;1.634487;-5.186441;0.08335444;-0.655592850301666;-2.187428143268646;107.1123481384607;72.90648800586425;287.492;5.437896;-0.04639314;-0.07002401;0.421991;-1.34654;-0.1848232;0.1743278;0;304778.8757427765;12128.50954479353;-0.001;1;0;2;
1510749561.376689;1510749561.376689;1510749561.376797;57.77334181584499;12.76994671808307;231.5836527829217;1.655425;-5.238861;0.08329073;-0.652557453655544;-2.19664095859219;107.132508502044;72.9072637903776;287.536;5.494187;-0.008129934;-0.2979458;0.4296454;-1.36395;-0.008014325;0.07560149;0;304778.9157427663;12128.54954478332;-0.001;1;0;2;
1510749561.389449;1510749561.389449;1510749561.389554;57.7733424295581;12.76994311978834;231.5809110174334;1.674567;-5.287705;0.0854051;-0.6595415494428134;-2.206343630743875;107.1562708931044;72.90803960370795;287.5725;5.54653;-0.0903933;-0.2418547;0.7636778;-1.242808;-0.08430436;-0.1160399;0;304778.9557427561;12128.58954477312;-0.001;1;0;2;
1510749561.397534;1510749561.397534;1510749561.397635;57.77334304977054;12.76993949134768;231.5781710611601;1.687382;-5.335601;0.08201305;-0.6782761600220907;-2.212542233512768;107.1837978905888;72.90866855691463;287.5495;5.596061;-0.5239609;-0.2627652;0.6731486;-1.278306;0.1016459;-0.1621103;0;304778.9957437459;12128.62954576291;-0.001;1;0;2;
1510749561.40323;1510749561.40323;1510749561.403334;57.77334336129775;12.76993766998051;231.5767955869977;1.696127;-5.357271;0.0880621;-0.6812819404181586;-2.212472174897786;107.1990039358686;72.90846893765631;287.5679;5.619359;0.1255754;0.2187905;0.6448562;-1.068584;-0.1063321;0.1558994;0;304779.015743996;12128.64954575781;-0.001;1;0;2;
1510749561.415814;1510749561.415814;1510749561.415917;57.77334430416691;12.76993216360925;231.5726139970317;1.719139;-5.418952;0.08834811;-0.6980196802911015;-2.200893359534936;107.2474420557886;72.90787011616456;287.6014;5.685111;-0.2484251;0.3505106;0.7655783;-1.046212;-0.1014708;-0.07645154;0;304779.0757439806;12128.70954574249;-0.001;1;0;2;
1510749561.482334;1510749561.482334;1510749561.482436;57.77334494008866;12.76992846033566;231.5697951173985;1.73862;-5.455561;0.08728275;-0.7023158746247888;-2.187542974299316;107.2796530148564;72.90747092956725;287.6765;5.725902;0.1048015;0.3520565;0.8272744;-0.9370081;-0.09610324;-0.03375652;0;304779.1157449704;12128.74954673229;-0.001;1;0;2;
1510749561.562485;1510749561.562485;1510749561.562552;57.77334558160178;12.76992473282305;231.5669309365034;1.750492;-5.490242;0.0894237;-0.6957795441261893;-2.169892353054434;107.3083929253045;72.9070717636672;287.6842;5.76255;0.1993848;0.5316086;0.628356;-0.9130424;-0.1266087;0.01330973;0;304779.1557449602;12128.78954672208;-0.001;1;0;2;
1510749561.642353;1510749561.642353;1510749561.642517;57.77334622749114;12.76992098260839;231.5640510389486;1.762973;-5.522717;0.08903623;-0.6979500271485889;-2.153914741067611;107.3348509035893;72.90667261665085;287.7042;5.797283;-0.06215737;0.4147711;0.5944374;-0.8313481;-0.17213;0.03653692;0;304779.19574495;12128.82954671187;-0.001;1;0;2;
1510749561.779265;1510749561.779265;1510749561.779946;57.77334720452774;12.76991532056585;231.5596858882527;1.781854;-5.563502;0.08952843;-0.7055397425685406;-2.132422200711149;107.3717328379908;72.90607392687662;287.759;5.841879;-0.1427147;0.3964697;0.7007897;-0.6647622;-0.06150758;0.002317744;0;304779.2557459347;12128.88954769656;-0.001;1;0;2;
1510749561.821297;1510749561.821297;1510749561.821402;57.7733478605473;12.76991152442296;231.5567379715419;1.789712;-5.587823;0.0868132;-0.7120430160473953;-2.11586918396688;107.3955183074847;72.90567481854303;287.7596;5.867439;-0.341106;0.2392043;0.4991675;-0.6652607;-0.09213922;-0.03677804;0;304779.2957459245;12128.92954768636;-0.001;1;0;2;
1510749561.83541;1510749561.83541;1510749561.837558;57.77334852040545;12.76990771292278;231.5538215016117;1.799598;-5.611402;0.08757944;-0.7251014220775235;-2.100118078834098;107.4226997777009;72.90527572323221;287.7812;5.892909;-0.3477751;0.2336797;0.5212842;-0.5926527;-0.0286305;0.1282561;0;304779.3357459143;12128.96954767615;-0.001;1;0;2;
1510749561.85011;1510749561.85011;1510749561.850259;57.77334918381655;12.76990388671405;231.5508789427772;1.808332;-5.632704;0.08984867;-0.7352566646038131;-2.081535226439727;107.4507346538848;72.90487664058057;287.7988;5.915862;-0.5556086;0.4920695;0.5066056;-0.5471101;-0.06406089;0.08018056;0;304779.3757459041;12129.00954766594;-0.001;1;0;2;
1510749561.858894;1510749561.858894;1510749561.859;57.77334951690887;12.76990196831293;231.5494230092036;1.816026;-5.642708;0.08920168;-0.7389677987692247;-2.073254809724963;107.4652428502976;72.90467710373741;287.84;5.92774;-0.1535667;0.4150065;0.6444243;-0.5931536;-0.0970383;0.09469952;0;304779.395746899;12129.02954866084;-0.001;1;0;2;
1510749561.871213;1510749561.871213;1510749561.871319;57.77335052103351;12.76989619148056;231.5450967155941;1.83009;-5.674976;0.08650091;-0.7520140866008582;-2.05372425338054;107.5061854991789;72.90407851111199;287.8737;5.962766;-0.6973;0.203734;0.8136985;-0.5243109;-0.01317072;0.1329627;0;304779.4557468837;12129.08954864553;-0.001;1;0;2;
1510749561.878464;1510749561.878464;1510749561.878566;57.77335119448234;12.76989232254542;231.542198471702;1.838901;-5.696426;0.08974291;-0.7645964473750767;-2.043098390983444;107.5323655195509;72.90367946412431;287.8909;5.985885;-0.2572478;0.2617155;0.474705;-0.5824986;-0.06898735;0.1447278;0;304779.4957468735;12129.12954863532;-0.001;1;0;2;
1510749561.886301;1510749561.886301;1510749561.886395;57.77335187181207;12.76988844056386;231.5391598800949;1.850527;-5.71417;0.08988724;-0.7715492258599163;-2.028160677185011;107.5584941169919;72.90328042845458;287.9445;6.006346;-0.1197617;0.2570278;0.6333679;-0.5047145;-0.04854407;-0.05936766;0;304779.5357478633;12129.16954962511;-0.001;1;0;2;
1510749561.966283;1510749561.966283;1510749561.966409;57.77335255185788;12.76988454544616;231.5361657107885;1.859145;-5.735288;0.09344579;-0.7807687679970802;-2.01892546865118;107.5802429428078;72.90288140338862;287.9606;6.029091;-0.1129662;0.2590206;0.5674099;-0.5275769;-0.07665646;0.1903167;0;304779.5757478531;12129.2095496149;-0.001;1;0;2;
1510749562.046237;1510749562.046237;1510749562.046306;57.77335323520342;12.76988063852816;231.5329837170437;1.867539;-5.749776;0.09558694;-0.7807297709240135;-2.002091271179236;107.6016215544686;72.90248238877568;287.9939;6.045463;0.292456;0.5246532;0.5001681;-0.380955;-0.1599504;-0.08702523;0;304779.6157478429;12129.2495496047;-0.001;1;0;2;
1510749562.104642;1510749562.104642;1510749562.104753;57.7733539210672;12.76987672009521;231.5298576556927;1.872043;-5.769196;0.09498807;-0.7896789909030856;-1.986390566824997;107.6239593762197;72.90208338375936;287.9777;6.065325;-0.4391151;0.4589804;0.4628005;-0.4101264;-0.1247129;-0.06975216;0;304779.6557488326;12129.28955059449;-0.001;1;0;2;
1510749562.166357;1510749562.166357;1510749562.166759;57.77335460930122;12.76987279033818;231.5267553279679;1.880858;-5.785678;0.09195715;-0.8060384920518672;-1.974821360322586;107.6463297300715;72.90168438802182;288.0088;6.083724;-0.438691;0.177624;0.4891227;-0.5626505;-0.1269422;0.1248079;0;304779.6957488224;12129.32955058428;-0.001;1;0;2;
1510749562.246312;1510749562.246312;1510749562.246468;57.77335530088592;12.76986885042345;231.5235922498879;1.890679;-5.798048;0.09461055;-0.8203202861904274;-1.958706507070134;107.6723097681217;72.901285401297;288.0606;6.098527;-0.5533736;0.5160439;0.7861429;-0.3131548;-0.0437804;-0.1165779;0;304779.7357488122;12129.36955057408;-0.001;1;0;2;
1510749562.2559;1510749562.2559;1510749562.256;57.77335599534693;12.76986490130754;231.5205413824787;1.899432;-5.813578;0.0910672;-0.8325560123319566;-1.942340851198635;107.6995572563462;72.90088642246539;288.0934;6.116006;-0.1218473;0.3864976;0.6375995;-0.3801885;-0.1343271;-0.06259356;0;304779.775748802;12129.40955056387;-0.001;1;0;2;
1510749562.26736;1510749562.26736;1510749562.267464;57.77335669256169;12.76986094297832;231.5175182600166;1.905871;-5.826611;0.08925331;-0.8469245125524286;-1.92802446601347;107.7273906486691;72.90048745133285;288.1128;6.130395;-0.4273809;0.1699311;0.7098725;-0.3500776;-0.06482392;-0.04237391;0;304779.8157497918;12129.44955155366;-0.001;1;0;2;
1510749562.275722;1510749562.275722;1510749562.275815;57.77335739239715;12.76985697632594;231.5144916500499;1.911347;-5.839399;0.09013577;-0.8618075319823342;-1.917756766728164;107.7563850432005;72.9000884871112;288.1243;6.144252;-0.7091135;0.101943;0.6158055;-0.2095727;-0.01659522;0.06073201;0;304779.8557497816;12129.48955154345;-0.001;1;0;2;
1510749562.282485;1510749562.282485;1510749562.28259;57.77335809476411;12.76985300255332;231.5114282852386;1.918873;-5.848695;0.09306362;-0.874903985618498;-1.909076756703888;107.7843699060847;72.8996895288209;288.1639;6.155429;-0.3456995;0.265142;0.5766618;-0.2996103;-0.02573047;0.05274428;0;304779.8957497714;12129.52955153325;-0.001;1;0;2;
1510749562.288663;1510749562.288663;1510749562.288763;57.77335879929208;12.76984902340628;231.5083583708852;1.926757;-5.854583;0.09295957;-0.8870841839396627;-1.896340647491356;107.8119233699406;72.89929057525428;288.2165;6.163484;-0.2470595;0.4810529;0.7514593;-0.1588391;-0.002094163;-0.09385172;0;304779.9357507612;12129.56955252304;-0.001;1;0;2;
1510749562.294384;1510749562.294384;1510749562.294444;57.77335950543901;12.76984503946447;231.5052804401377;1.928171;-5.863123;0.09430905;-0.9070705469109468;-1.879015868131675;107.8381109709964;72.8988916257571;288.2042;6.172039;-0.7090898;0.5446836;0.4429357;-0.2110856;-0.1626179;-0.009170831;0;304779.975750751;12129.60955251283;-0.001;1;0;2;
1510749562.452336;1510749562.452336;1510749562.452406;57.77336055864515;12.76983907068512;231.5008201706955;1.939564;-5.870675;0.09247708;-0.9507206027066606;-1.856984356340733;107.8784145493522;72.89878840471573;288.2826;6.182776;-0.8683239;0.2653599;0.6471648;-0.04311494;-0.08610609;-0.2567362;0;304780.0357509908;12129.66955249752;-0.001;1;0;2;
1510749562.469734;1510749562.469734;1510749562.469797;57.77336090956734;12.76983708135284;231.4994222379126;1.943858;-5.873363;0.09332963;-0.96236275361067;-1.851577666278567;107.8904417419855;72.89880902067856;288.3126;6.186677;-0.3005261;0.3472111;0.5502558;-0.2901248;-0.2424533;0.02360339;0;304780.0557509857;12129.68955249242;-0.001;1;0;2;
1510749562.542537;1510749562.542537;1510749562.542649;57.77336161365425;12.76983309976761;231.496580791708;1.950447;-5.878488;0.09431196;-0.9791225023185981;-1.842853763827567;107.9151682907239;72.8988502551211;288.3555;6.193614;0.1021695;0.1971873;0.5669753;-0.1363402;-0.2197505;-0.05590355;0;304780.0957519755;12129.72955348221;-0.001;1;0;2;
1510749562.622479;1510749562.622479;1510749562.622581;57.77336231900001;12.769829114569;231.493671832556;1.950344;-5.885396;0.09562957;-0.9935737535351077;-1.837143166977678;107.9390341885039;72.89889149247919;288.3345;6.20014;-0.3805898;0.1140735;0.4860976;-0.09966076;-0.01531352;0.0992907;0;304780.1357519653;12129.769553472;-0.001;1;0;2;
1510749562.679526;1510749562.679526;1510749562.679689;57.77336302492765;12.76982512606239;231.4907438020613;1.953854;-5.88971;0.09700711;-1.006751001597399;-1.836180363600714;107.9625265192706;72.89893273242393;288.3528;6.205339;-0.1949061;0.03103973;0.6626138;-0.2151003;0.02274801;0.1544445;0;304780.1757519551;12129.8095534618;-0.001;1;0;2;
1510749562.686211;1510749562.686211;1510749562.686315;57.77336373152989;12.76982113342184;231.4876434405334;1.955842;-5.895696;0.1025153;-1.023455680908143;-1.834493072650625;107.9853627616898;72.89897397580866;288.3528;6.211646;-0.09948549;0.07806638;0.5300786;-0.1311761;0.05479115;0.1139513;0;304780.2157529449;12129.84955445159;-0.001;1;0;2;
1510749562.693835;1510749562.693835;1510749562.693942;57.77336408504269;12.769819136021;231.4860207961171;1.956121;-5.896932;0.1033503;-1.0296221166652;-1.833249898817299;107.9956082273404;72.89899459840929;288.3516;6.212907;-0.1618341;0.0385779;0.4505528;-0.03838378;-0.07446974;0.05950296;0;304780.2357529398;12129.86955444649;-0.001;1;0;2;
1510749562.703464;1510749562.703464;1510749562.703568;57.77336479246277;12.76981513903728;231.4827427290992;1.959015;-5.900395;0.1026602;-1.035294093596501;-1.831512023479968;108.0110810466031;72.89903584527607;288.3669;6.217106;-0.09199052;0.1005939;0.4773443;-0.01890681;-0.0265568;-0.2004245;0;304780.2757529296;12129.90955443628;-0.001;1;0;2;
1510749562.712088;1510749562.712088;1510749562.712193;57.77336550031361;12.76981114055046;231.479568729771;1.958254;-5.904118;0.09789195;-1.029148198560391;-1.823876963989849;108.0213323775378;72.89907709360781;288.3494;6.220399;0.1393913;0.1130616;0.2696139;-0.08587765;0.1666431;-0.05378238;0;304780.3157529194;12129.94955442607;-0.001;1;0;2;
1510749562.720594;1510749562.720594;1510749562.720701;57.77336620756402;12.76980713971241;231.4764840783262;1.953878;-5.907547;0.09788112;-1.026727620834126;-1.81092009159747;108.0275101078047;72.89911834390104;288.3012;6.222278;-0.3976851;0.3680493;0.1523302;-0.1155697;0.07322373;0.06117174;0;304780.3557539092;12129.98955541586;-0.001;1;0;2;
1510749562.796171;1510749562.796171;1510749562.796289;57.77336726750693;12.76980113487541;231.4719776877311;1.956164;-5.910717;0.09759572;-1.046639939147042;-1.795025685996561;108.0331901598674;72.89918022164247;288.3121;6.226007;-0.3279115;0.3498967;0.04189991;-0.05030009;-0.1995024;0.003754695;0;304780.4157538939;12130.04955540055;-0.001;1;0;2;
1510749562.836132;1510749562.836132;1510749562.836208;57.77336762105354;12.76979913284279;231.4704846094565;1.953746;-5.911509;0.09409089;-1.054565057518953;-1.789839546379472;108.0323831863451;72.89920084774809;288.2887;6.225998;-0.3051426;0.1706876;-0.2452071;0.04400573;0.005666186;-0.1167426;0;304780.4357538888;12130.06955539545;-0.001;1;0;2;
1510749562.916217;1510749562.916217;1510749562.91632;57.77336832818939;12.76979512855488;231.4675843989889;1.956198;-5.912196;0.09264269;-1.065319208691056;-1.782328608428081;108.0263890218777;72.89924209987826;288.3081;6.227421;-0.3513234;0.1230631;-0.1789158;-0.02464541;-0.01040631;-0.01908187;0;304780.4757548786;12130.10955638524;-0.001;1;0;2;
1510749562.996221;1510749562.996221;1510749562.996336;57.77336903521595;12.76979112400973;231.4647690776467;1.953135;-5.912755;0.09065839;-1.080966066969118;-1.774652492746666;108.0158492498653;72.89928335192246;288.2797;6.226991;-0.6692795;0.1860643;-0.3527495;-0.02347989;0.1181027;-0.05677865;0;304780.5157548684;12130.14955637504;-0.001;1;0;2;
1510749563.076437;1510749563.076437;1510749563.07654;57.77336974169956;12.76978711936998;231.4620524604538;1.95361;-5.912153;0.09068999;-1.097066023680667;-1.768399060862234;108.0028245644592;72.89932460384917;288.2856;6.226567;-0.2310161;0.2635268;-0.328891;0.0004084226;0.002589862;0.0530373;0;304780.5557548582;12130.18955636483;-0.001;1;0;2;
1510749563.112919;1510749563.112919;1510749563.11302;57.77337044693832;12.76978311402682;231.4593008667447;1.950585;-5.913912;0.09094239;-1.11445729641568;-1.763387372777386;107.9860961320796;72.89936585610626;288.2541;6.227289;-0.2290462;0.0770866;-0.3381492;-0.06563898;0.08429012;0.07951601;0;304780.595755848;12130.22955735462;-0.001;1;0;2;
1510749563.120954;1510749563.120954;1510749563.121067;57.77337115155165;12.76977910824673;231.4564336487495;1.946259;-5.915124;0.09445223;-1.111943483588329;-1.759633124310974;107.968857919589;72.89940710897537;288.2128;6.227087;0.003022373;0.1381524;-0.4146386;0.01693683;0.1696538;0.08251873;0;304780.6357558378;12130.26955734441;-0.001;1;0;2;
1510749563.130834;1510749563.130834;1510749563.130937;57.7733718544141;12.76977510149949;231.453486961734;1.941809;-5.916479;0.09630578;-1.105407496281229;-1.755757885573399;107.9531569161779;72.89944836281227;288.17;6.226985;0.3672829;0.126946;-0.3608383;0.03149344;0.1094603;0.04746524;0;304780.6757558276;12130.30955733421;-0.001;1;0;2;
1510749563.138837;1510749563.138837;1510749563.139242;57.77337255581896;12.769771093879;231.4505124537255;1.93878;-5.917773;0.09604599;-1.093636888966063;-1.756619896911054;107.9402475913444;72.89948961740008;288.1398;6.227271;0.3333864;-0.0533733;-0.2479782;0.004127762;0.02151137;0.07391343;0;304780.7157558174;12130.349557324;-0.001;1;0;2;
1510749563.149069;1510749563.149069;1510749563.149178;57.77337325572618;12.7697670848945;231.4474736298338;1.933068;-5.920105;0.09789532;-1.079272594441573;-1.761073952894293;107.9280453125862;72.89953087305685;288.0832;6.227712;0.4482979;-0.1139795;-0.3613549;-0.02079826;0.06379362;0.01504082;0;304780.7557568072;12130.38955831379;-0.001;1;0;2;
1510749563.154971;1510749563.154971;1510749563.155073;57.77337395482071;12.76976307577548;231.44444776034;1.932107;-5.920096;0.09505013;-1.059088472420496;-1.76663850964256;107.9172398495757;72.89957212894241;288.0748;6.227406;0.5733738;-0.12546;-0.3321808;-0.06805639;0.02838271;-0.04894222;0;304780.795756797;12130.42955830359;-0.001;1;0;2;
1510749563.164911;1510749563.164911;1510749563.165012;57.77337465305193;12.76975906618959;231.4414907800693;1.927312;-5.921703;0.09442182;-1.038200360139784;-1.770655133302717;107.9029589610093;72.8996133851285;288.0283;6.227448;0.5549932;-0.05191422;-0.4975591;0.05787636;0.1177652;-0.07636411;0;304780.8357567867;12130.46955829338;-0.001;1;0;2;
1510749563.199578;1510749563.199578;1510749563.199766;57.77337535044444;12.7697550568102;231.4385841042269;1.929846;-5.919582;0.09202209;-1.018602918800413;-1.771400247813406;107.8858489812236;72.89965464112422;288.0565;6.226216;0.5641483;-0.009021376;-0.2941496;-0.002389864;0.01215723;-0.09809262;0;304780.8757577765;12130.50955928317;-0.001;1;0;2;
1510749563.279526;1510749563.279526;1510749563.279685;57.77337604723005;12.76975104734032;231.4357587414674;1.926867;-5.921167;0.09212708;-0.994263565091634;-1.774663577323778;107.8623286233028;72.89969589683488;288.0259;6.2268;0.7526612;-0.04016544;-0.5862195;-0.05998367;0.04842729;0.0109785;0;304780.9157577663;12130.54955927296;-0.001;1;0;2;
1510749563.352383;1510749563.352383;1510749563.352483;57.77337674286429;12.76974703766101;231.4328535034612;1.921807;-5.92069;0.09378272;-0.9630782327571499;-1.77274285280822;107.8339664131167;72.89973715282437;287.983;6.224782;0.659406;0.1123802;-0.6565336;-0.008626343;-0.0227422;-0.05225351;0;304780.9557577561;12130.58955926276;-0.001;1;0;2;
1510749563.432384;1510749563.432384;1510749563.432482;57.77337743325948;12.76974302967103;231.4298530854301;1.91523;-5.92207;0.09286279;-0.9560675693005185;-1.771079505001583;107.8056833737249;72.89984756415387;287.9215;6.224067;-0.02305226;0.114389;-0.7098882;0.0439935;-0.03110671;-0.06657387;0;304780.9957577459;12130.62955925255;-0.001;1;0;2;
1510749563.46994;1510749563.46994;1510749563.470146;57.77337777295352;12.76974103679291;231.4279976469421;1.916105;-5.922037;0.09261082;-0.9585852478639222;-1.769771777956785;107.7918212949752;72.90014481341717;287.9293;6.224306;0.03517021;0.1012227;-0.5778565;0.01180012;0.05434968;-0.0502486;0;304781.015758996;12130.64956024745;-0.001;1;0;2;
1510749563.567547;1510749563.567547;1510749563.567652;57.77337879110046;12.76973505873185;231.4225105268052;1.910678;-5.921664;0.08927918;-0.9426619412809767;-1.766086359850488;107.7415501319181;72.90103656065533;287.8828;6.222282;0.6405975;0.01341322;-1.00944;0.03288195;0.03921789;-0.08921967;0;304781.0757589806;12130.70956023214;-0.001;1;0;2;
1510749563.578597;1510749563.578597;1510749563.578766;57.77337946845655;12.76973107274759;231.4189038419995;1.904938;-5.922808;0.08872181;-0.9245416862499989;-1.769487243863711;107.7064342904543;72.90163105910736;287.8292;6.221611;0.1937379;-0.1493499;-0.8715768;0.1556761;0.1310613;-0.06855598;0;304781.1157589704;12130.74956022193;-0.001;1;0;2;
1510749563.585051;1510749563.585051;1510749563.585586;57.77338014247867;12.76972708580134;231.4154118378374;1.895376;-5.925169;0.0837926;-0.9323494279201877;-1.780981060896013;107.6678712519304;72.90222555742022;287.7387;6.220939;-0.5502325;-0.4023665;-0.9937764;0.01557487;0.08911403;-0.1114386;0;304781.1557599602;12130.78956121172;-0.001;1;0;2;
1510749563.592474;1510749563.592474;1510749563.592562;57.77338081456158;12.7697230991777;231.412031550011;1.889817;-5.923596;0.08287913;-0.9474564921621301;-1.79176469051303;107.6275090009403;72.90282005529072;287.6943;6.217749;-0.2290465;-0.1632732;-1.233626;0.04882363;0.07191302;-0.08265192;0;304781.19575995;12130.82956120151;-0.001;1;0;2;
1510749563.601125;1510749563.601125;1510749563.601317;57.77338181965291;12.76971711983547;231.4072252950979;1.883601;-5.923571;0.08175388;-0.9360370104625003;-1.811417202289165;107.5532272806755;72.90371180130595;287.6398;6.215838;0.1950412;-0.2489283;-1.171805;0.05980873;0.2492602;0.1736095;0;304781.2557599347;12130.8895611862;-0.001;1;0;2;
1510749563.652826;1510749563.652826;1510749563.652968;57.77338248638434;12.76971313329488;231.4039142322171;1.874642;-5.923792;0.08524643;-0.9166232248177038;-1.820065965175184;107.4984964733267;72.90430629905194;287.5605;6.21334;1.015923;-0.05029491;-1.393012;0.05219655;0.1863657;0.01203705;0;304781.2957609245;12130.929562176;-0.001;1;0;2;
1510749563.732809;1510749563.732809;1510749563.732926;57.77338314898103;12.76970914548886;231.4005361063369;1.862191;-5.926175;0.08529488;-0.9105324374290128;-1.829367923616289;107.4424169987152;72.90490079756783;287.4444;6.211868;0.03714347;-0.1949302;-1.268028;0.01816986;0.2881232;0.02745418;0;304781.3357609143;12130.96956216579;-0.001;1;0;2;
1510749563.812451;1510749563.812451;1510749563.812568;57.77338380788174;12.76970515654701;231.3971125284942;1.850111;-5.927429;0.08338512;-0.9079496763354961;-1.83911684142875;107.3844010593871;72.90549529688154;287.3346;6.209454;-0.04794172;-0.2478016;-1.588149;0.07666229;0.278506;-0.0123467;0;304781.3757609041;12131.00956215558;-0.001;1;0;2;
1510749563.86634;1510749563.86634;1510749563.866517;57.77338413625169;12.76970316214877;231.3954445955428;1.845;-5.927939;0.0820514;-0.9018227999380438;-1.844987880670228;107.3543323736429;72.90579254645897;287.2881;6.20842;0.1452233;-0.295081;-1.725887;0.05201306;0.1786489;-0.0472564;0;304781.395760899;12131.02956215048;-0.001;1;0;2;
1510749563.946209;1510749563.946209;1510749563.946273;57.77338479025187;12.76969917155625;231.3921709762612;1.836129;-5.930919;0.08272731;-0.8874390510398419;-1.863067929661188;107.2888744438938;72.90638704662491;287.2018;6.208637;0.2519863;-0.2896822;-1.716262;-0.03329942;0.2705581;-0.04652956;0;304781.4357618888;12131.06956314027;-0.001;1;0;2;
1510749564.026471;1510749564.026471;1510749564.026573;57.77338543904679;12.76969517953037;231.3890001989539;1.820043;-5.933432;0.0775874;-0.8884784779196542;-1.885486937945421;107.2121930725194;72.90698154702818;287.0531;6.206301;-0.2007178;-0.5408874;-2.141211;-0.01720735;0.1821025;-0.06886379;0;304781.4757618786;12131.10956313006;-0.001;1;0;2;
1510749564.036953;1510749564.036953;1510749564.037055;57.77338608334421;12.76969118587417;231.3858867352568;1.808096;-5.93543;0.07774224;-0.8988783899398548;-1.907203593964764;107.126022687432;72.90757604825227;286.9422;6.20472;-0.1664569;-0.394291;-2.427883;0.1073802;0.1224619;-0.1367192;0;304781.5157618684;12131.14956311986;-0.001;1;0;2;
1510749564.04511;1510749564.04511;1510749564.045211;57.77338672169993;12.76968719060196;231.3829347470146;1.78808;-5.93693;0.07096992;-0.9179164090099016;-1.932411634671682;107.017686704985;72.90817054950328;286.7612;6.200352;-0.6935658;-0.5989042;-3.012445;0.1229606;0.3233447;-0.1006624;0;304781.5557628582;12131.18956410965;-0.001;1;0;2;
1510749564.053332;1510749564.053332;1510749564.053436;57.77338735413186;12.76968319356473;231.3800609115083;1.771281;-5.941738;0.06979962;-0.9369730333310659;-1.956267918585167;106.8930044420114;72.90876505156044;286.5998;6.200136;-0.5697076;-0.6169636;-3.417615;-0.001062511;0.3715807;-0.03909852;0;304781.595762848;12131.22956409944;-0.001;1;0;2;
1510749564.060454;1510749564.060454;1510749564.060559;57.77338797838878;12.7696791942477;231.3772887021576;1.746647;-5.944243;0.06719139;-0.9745087509365862;-1.976557027000682;106.74841009573;72.90935955452666;286.3748;6.195547;-1.105584;-0.3421753;-3.79142;-0.005870454;0.4517455;-0.1370316;0;304781.6357628378;12131.26956408923;-0.001;1;0;2;
1510749564.067612;1510749564.067612;1510749564.0678;57.77338859425926;12.76967519164265;231.3746497238272;1.723486;-5.951775;0.06468836;-1.024921598626279;-1.993422517160606;106.587548671882;72.90995405953694;286.1497;6.196291;-1.43953;-0.3317258;-4.252154;-0.1130437;0.3857278;-0.02443549;0;304781.6757638276;12131.30956507903;-0.001;1;0;2;
1510749564.076832;1510749564.076832;1510749564.076934;57.77338920261942;12.76967118220742;231.3720713943068;1.70511;-5.963875;0.06494289;-1.073982601263123;-2.013242492340441;106.4124667221866;72.9105485696369;285.9556;6.202839;-0.942211;-0.4126627;-4.443163;-0.1525899;0.4974734;0.04620926;0;304781.7157638174;12131.34956506882;-0.001;1;0;2;
1510749564.107627;1510749564.107627;1510749564.107746;57.77338980270248;12.76966716335511;231.3694501916125;1.679299;-5.978709;0.06762017;-1.113711055932474;-2.039058208267671;106.2230640652324;72.91114308701317;285.689;6.210073;-0.9478084;-0.4970822;-4.792653;-0.1651679;0.6301149;0.07079051;0;304781.7557638072;12131.38956505861;-0.001;1;0;2;
1510749564.162353;1510749564.162353;1510749564.162457;57.77339039417528;12.7696631356874;231.3667803819173;1.654285;-5.99048;0.0668229;-1.13216029056772;-2.066363764322481;106.0236570671611;72.91173761174893;285.4376;6.214702;-0.2510904;-0.4697629;-5.054424;-0.09734865;0.6021336;-0.1573893;0;304781.795763797;12131.42956504841;-0.001;1;0;2;
1510749564.242541;1510749564.242541;1510749564.242649;57.77339097568945;12.76965909863545;231.3642378376422;1.627306;-6.005912;0.06481463;-1.152177649493743;-2.098646747999983;105.817652295378;72.91233214399938;285.1603;6.222467;-0.5452166;-0.6650935;-5.0017;-0.1286153;0.7273219;0.01024512;0;304781.8357647867;12131.4695660382;-0.001;1;0;2;
1510749564.312446;1510749564.312446;1510749564.312512;57.77339154685838;12.76965505240721;231.3616691536947;1.597004;-6.01829;0.06281853;-1.173891661462938;-2.126047942550716;105.6026431543391;72.91292668393649;284.8614;6.226575;-0.5740424;-0.4604678;-5.432159;-0.1885742;0.6767892;-0.05865987;0;304781.8757647765;12131.50956602799;-0.001;1;0;2;
1510749564.392421;1510749564.392421;1510749564.392497;57.77339210928712;12.76965099781224;231.3591548930557;1.573136;-6.031079;0.06172658;-1.181825979370995;-2.145221729639724;105.3808265498879;72.91352123135506;284.6192;6.232871;-0.2554984;-0.2521513;-5.620191;-0.1249871;0.6260703;-0.1102177;0;304781.9157647663;12131.54956601778;-0.001;1;0;2;
1510749564.448164;1510749564.448164;1510749564.448453;57.77339266302153;12.76964693443518;231.356795649774;1.546525;-6.045003;0.05696597;-1.173254722076374;-2.160654677139151;105.148897573293;72.91411578630542;284.3505;6.239696;-0.04033881;-0.1086235;-5.949308;-0.08072213;0.7960046;-0.147333;0;304781.9557657561;12131.58956700758;-0.001;1;0;2;
1510749564.454973;1510749564.454973;1510749564.455081;57.77339320979585;12.7696428656721;231.3544738982982;1.518235;-6.057668;0.05133845;-1.148459188716152;-2.167208699462546;104.9080048617369;72.91455254005928;284.0702;6.245028;0.01499884;-0.1789269;-6.099239;-0.2158466;0.7346499;-0.04631073;0;304781.9957657459;12131.62956699737;-0.001;1;0;2;
1510749564.462;1510749564.462;1510749564.462102;57.77339348124038;12.76964083556378;231.3531124737628;1.502249;-6.066197;0.05176938;-1.145276737883392;-2.173052422917818;104.7850364092526;72.91421858869973;283.9091;6.24944;-0.003133051;-0.1163821;-6.123979;-0.1833712;0.7738199;-0.0396271;0;304782.0157649959;12131.64956699227;-0.001;1;0;2;
1510749564.479693;1510749564.479693;1510749564.479792;57.77339427887924;12.76963473042161;231.3489415781683;1.457895;-6.087584;0.0541953;-1.172576597019096;-2.179354844730178;104.4077843880028;72.91321674709008;283.4679;6.259723;-0.8685484;0.015938;-6.400955;-0.1847993;0.6539806;0.1971569;0;304782.0757659806;12131.70956797696;-0.001;1;0;2;
1510749564.487631;1510749564.487631;1510749564.487738;57.77339479762049;12.76963064833767;231.346017522158;1.425341;-6.101372;0.05820803;-1.197414361013097;-2.179303312145649;104.1397267572676;72.91254886250462;283.149;6.265647;-0.9608842;0.2147771;-7.023824;-0.2100728;0.6952007;0.07114543;0;304782.1157659704;12131.74956796675;-0.001;1;0;2;
1510749564.493708;1510749564.493708;1510749564.493814;57.77339530560956;12.76962655691343;231.3429749882509;1.398475;-6.114727;0.06050427;-1.219045590720877;-2.175101329754876;103.8539611114251;72.91188098557144;282.8823;6.272609;-0.7296968;0.3367373;-7.167611;-0.149623;0.8631796;0.04167789;0;304782.1557659602;12131.78956795654;-0.001;1;0;2;
1510749564.556243;1510749564.556243;1510749564.556311;57.77339580083126;12.76962245607327;231.3398389191285;1.356547;-6.130386;0.06194874;-1.243356410933418;-2.164019216580451;103.547108685854;72.91121311631905;282.4775;6.278682;-1.153283;0.3845574;-7.866465;-0.2638409;0.9772566;0.1321095;0;304782.19576595;12131.82956794633;-0.001;1;0;2;
1510749564.692441;1510749564.692441;1510749564.692503;57.77339651456361;12.76961628466788;231.3350512498453;1.288945;-6.153131;0.06141606;-1.313327540843862;-2.144819275428853;103.0480106708764;72.91021132830339;281.8311;6.286685;-1.71505;0.402193;-8.76451;-0.09662767;1.016474;0.03749889;0;304782.2557669347;12131.88956893102;-0.001;1;0;2;
1510749564.772521;1510749564.772521;1510749564.772639;57.7733969701784;12.76961215742892;231.3319280750068;1.242052;-6.168566;0.06098938;-1.374337813511596;-2.134286646504379;102.6880037610762;72.90954347978749;281.3844;6.292368;-2.165704;0.613326;-9.291316;-0.08326972;1.127974;-0.1090481;0;304782.2957669245;12131.92956892082;-0.001;1;0;2;
1510749564.852481;1510749564.852481;1510749564.852544;57.77339740850483;12.76960802046442;231.3289347921882;1.195231;-6.182216;0.05730722;-1.434961810980615;-2.12128261183784;102.3044686078239;72.90887563921626;280.9422;6.296696;-1.976805;0.6049488;-9.738848;-0.04986282;1.153728;-0.03801123;0;304782.3357669143;12131.96956891061;-0.001;1;0;2;
1510749564.909461;1510749564.909461;1510749564.909548;57.77339782861854;12.76960387367995;231.3261187828434;1.140917;-6.196741;0.05249994;-1.491646597204327;-2.112673835734422;101.8983388745274;72.9082078065086;280.4322;6.300896;-1.764759;0.4816602;-10.43501;-0.02804621;1.286981;-0.07567941;0;304782.3757679041;12132.0095699004;-0.001;1;0;2;
1510749564.915343;1510749564.915343;1510749564.91543;57.77339803084242;12.76960179641299;231.3247676227096;1.108213;-6.205531;0.05263096;-1.521942746849267;-2.110443781431556;101.6843171972489;72.90787389315309;280.1254;6.303709;-1.761387;0.4841351;-10.97278;-0.1074342;1.378902;0.1125074;0;304782.395767899;12132.0295698953;-0.001;1;0;2;
1510749564.928715;1510749564.928715;1510749564.928819;57.77339860545393;12.76959555041987;231.3208582130255;1.018096;-6.225162;0.0461044;-1.612943741255649;-2.104855787724434;101.0114286885693;72.90687216495962;279.2882;6.307865;-2.074533;0.30857;-11.59239;-0.03948988;1.496936;0.0358824;0;304782.4557678837;12132.08956987999;-0.001;1;0;2;
1510749564.937103;1510749564.937103;1510749564.937218;57.77339895975849;12.7695913753117;231.3184496139891;0.9536048;-6.237186;0.04113361;-1.673674496889668;-2.107525038667371;100.5311878857616;72.90620435513436;278.6927;6.309663;-1.962068;0.1945975;-12.1782;0.05664877;1.518624;0.008024308;0;304782.4957688735;12132.12957086978;-0.001;1;0;2;
1510749564.945814;1510749564.945814;1510749564.945919;57.77339929093587;12.76958719252933;231.3161414185468;0.8882677;-6.247484;0.04267197;-1.725511709023159;-2.112805161030094;100.0246323173814;72.90553655175322;278.0921;6.310315;-1.379863;0.3305138;-13.0853;0.07536157;1.456415;0.02698887;0;304782.5357688633;12132.16957085957;-0.001;1;0;2;
1510749564.951559;1510749564.951559;1510749564.951665;57.7733995995122;12.76958300256069;231.3138860161878;0.8231754;-6.258753;0.04116858;-1.764867269749655;-2.127453162780504;99.49726742543896;72.90486875437574;277.4928;6.312654;-1.636589;-0.006783219;-13.47944;0.06927409;1.613832;0.1779213;0;304782.5757688531;12132.20957084937;-0.001;1;0;2;
