SampleTimeStamp;SentTimeStamp;ReceivedTimeStamp;lat;lon;alt;vel_north;vel_east;vel_down;roll;pitch;heading;wander;track;speed;arate_lon;arate_trans;arate_down;accel_lon;accel_trans;accel_down;alignment;timeDistance.time1;timeDistance.time2;timeDistance.distanceTag;timeDistance.time1Type;timeDistance.time2Type;timeDistance.distanceType;
1510740439.912922;1510740439.912922;1510740439.913019;57.77270122359199;12.77160482890409;233.8397929783229;0.5565832;-2.087554;0.03251351;-1.206148824383317;-1.981365722624466;104.745959757212;74.29183127582056;284.9289;2.160478;0.4374555;0.02876157;-0.0891149;-0.2363702;-0.02792867;0.07521517;0;295658.0747769878;3007.708200018599;-0.001;1;0;2;
1510740439.992916;1510740439.992916;1510740439.993086;57.77270142489292;12.7716034178652;233.8384416268653;0.5576029;-2.095162;0.03318132;-1.198140890142068;-1.97935877864052;104.7428409682437;74.29183273716912;284.9032;2.168092;0.2603777;0.07833415;-0.1229883;-0.1283355;-0.03049004;-0.06598311;0;295658.1147769812;3007.748200012048;-0.001;1;0;2;
1510740440.062856;1510740440.062856;1510740440.062924;57.77270162696366;12.77160200269099;233.8371252250333;0.5604393;-2.101438;0.03139011;-1.19504418735276;-1.977902584690133;104.7429810668431;74.29183420206091;284.9328;2.174887;-0.132933;0.03074479;0.100865;-0.244837;0.004645534;-0.03199584;0;295658.1547769746;3007.788200005496;-0.001;1;0;2;
1510740440.142911;1510740440.142911;1510740440.14299;57.77270182961979;12.7716005834335;233.8358681463145;0.5628368;-2.106353;0.02961319;-1.195459815122835;-1.975101159963704;104.7439265464062;74.29183567045453;284.9604;2.180254;0.1295833;0.06962524;0.0885925;-0.1228955;-0.05627808;-0.02518009;0;295658.1947769681;3007.828199998945;-0.001;1;0;2;
1510740440.272814;1510740440.272814;1510740440.272898;57.77270213511489;12.77159844923727;233.8341267284099;0.5657748;-2.112563;0.02641736;-1.197260110785883;-1.968412091830326;104.7481626821426;74.29183787775187;284.9928;2.187012;-0.03194439;0.06483527;0.1317934;-0.14462;-0.009644966;-6.95736e-06;0;295658.2547779583;3007.888200989119;-0.001;1;0;2;
1510740440.352976;1510740440.352976;1510740440.353093;57.77270233955588;12.77159702277612;233.8330389666826;0.5670038;-2.117283;0.02537682;-1.197537964598399;-1.96509298879001;104.7492718107489;74.29183935227164;284.9919;2.19189;-0.1363255;0.006554221;0.09316479;-0.1039997;0.03850002;-0.004133557;0;295658.2947779517;3007.928200982567;-0.001;1;0;2;
1510740440.432962;1510740440.432962;1510740440.433066;57.77270254430964;12.7715955936169;233.8319466808487;0.5661986;-2.120904;0.02742923;-1.197805295101877;-1.962560540363088;104.7490078028407;74.29184082898092;284.9471;2.19518;0.152352;0.06850194;-0.09311424;-0.04734284;0.01915529;0.08576152;0;295658.3347779452;3007.968200976016;-0.001;1;0;2;
1510740440.56309;1510740440.56309;1510740440.563162;57.77270285187515;12.77159344581364;233.8302419941126;0.5664085;-2.125895;0.02827453;-1.19747845443145;-1.960835909572735;104.7500231384543;74.29184304745725;284.9189;2.200056;0.1875085;-0.04504627;-0.169237;-0.07140762;-0.01428401;0.09616975;0;295658.3947789354;3008.028201966189;-0.001;1;0;2;
1510740440.687121;1510740440.687121;1510740440.687219;57.77270315955265;12.77159129433496;233.8283984916087;0.5692648;-2.127499;0.03108654;-1.197411802095659;-1.958366465338104;104.7519630484614;74.29184526911189;284.98;2.202343;0.0869433;0.07988086;0.1601777;-0.03467945;-0.002203775;-0.02566265;0;295658.4547789255;3008.088201956363;-0.001;1;0;2;
1510740440.767034;1510740440.767034;1510740440.767135;57.77270336469795;12.77158985897951;233.8271421824647;0.5675857;-2.128662;0.03139083;-1.196121554116143;-1.95715263357098;104.7529111541425;74.29184675107417;284.93;2.203033;0.05623292;0.07499932;0.01070516;-0.04590346;0.02861856;-0.005568;0;295658.494778919;3008.128201949812;-0.001;1;0;2;
1510740440.815186;1510740440.815186;1510740440.817198;57.77270357012342;12.77158842268556;233.8258521747099;0.5683504;-2.130424;0.03115236;-1.193080361670831;-1.95524060780031;104.7553243142407;74.29184823394684;284.9374;2.204933;0.1459232;0.02291783;-0.007354452;0.02259557;-0.02788858;-0.03529827;0;295658.5347799124;3008.16820294326;-0.001;1;0;2;
1510740440.83249;1510740440.83249;1510740440.832948;57.77270377544792;12.77158698621285;233.8245810882909;0.5710885;-2.128848;0.03135348;-1.192192116256658;-1.954206153923365;104.7579571544509;74.29184971691102;285.0167;2.204118;-0.03063859;0.06264664;0.3109334;-0.001553554;-0.05057016;-0.006502402;0;295658.5747799058;3008.208202936709;-0.001;1;0;2;
1510740440.846565;1510740440.846565;1510740440.846666;57.77270398087466;12.77158555006334;233.823327876053;0.5706394;-2.129012;0.0300695;-1.192729345843052;-1.953904126019795;104.7607741697338;74.291851199557;285.0043;2.20416;0.1952547;-0.01341901;0.1697001;-0.02779697;-0.05056944;0.0223464;0;295658.6147798993;3008.248202930158;-0.001;1;0;2;
1510740440.876319;1510740440.876319;1510740440.876435;57.77270418649179;12.77158411434408;233.8220545370204;0.5693837;-2.128767;0.03120094;-1.193116084178659;-1.951760102802192;104.762950232903;74.29185268189825;284.9744;2.203599;-0.2055158;0.05273444;0.1294213;-0.008460017;0.01315399;0.01630532;0;295658.6547798928;3008.288202923607;-0.001;1;0;2;
1510740440.898697;1510740440.898697;1510740440.898829;57.77270439236251;12.77158267956418;233.8207904842289;0.5701302;-2.126802;0.03127516;-1.19196991347403;-1.950140750339563;104.7655302271989;74.29185416345847;285.0064;2.201894;0.1305452;0.06512166;0.0416676;0.04513769;-0.03339993;-0.006413987;0;295658.6947808862;3008.328203917056;-0.001;1;0;2;
1510740440.918629;1510740440.918629;1510740440.918735;57.77270459818731;12.77158124565564;233.8195183722188;0.5705653;-2.12571;0.02974398;-1.19274421413495;-1.947528759123774;104.7673124892233;74.29185564426773;285.0247;2.200951;0.01927723;-0.02488961;0.08690818;-0.01181103;-0.02195936;-0.0312613;0;295658.7347808797;3008.368203910505;-0.001;1;0;2;
1510740440.930764;1510740440.930764;1510740440.93087;57.77270480375908;12.77157981254199;233.8182759941074;0.5686502;-2.124276;0.0297825;-1.195255987059129;-1.94527330664206;104.7696088317939;74.29185712438647;284.9862;2.199071;-0.3412375;0.06987712;0.1427484;0.01171283;0.05352547;-0.01393077;0;295658.7747808731;3008.408203903954;-0.001;1;0;2;
1510740440.938852;1510740440.938852;1510740440.938954;57.77270500905542;12.7715783803033;233.8170720642773;0.5679911;-2.123244;0.0292653;-1.195492857907106;-1.943655963731567;104.7717068980656;74.2918586037582;284.9766;2.197904;0.03565224;0.06144311;0.06381819;0.05069341;-0.01785456;-0.05786683;0;295658.8147808666;3008.448203897402;-0.001;1;0;2;
1510740440.997085;1510740440.997085;1510740440.99719;57.77270521420935;12.77157694915874;233.8158979001259;0.5686097;-2.120885;0.02889692;-1.195165690602817;-1.942742269096494;104.7746572900456;74.29186008221546;285.0081;2.195784;0.1603731;0.07413977;0.1448913;0.08515992;0.007489651;-0.02617848;0;295658.85478186;3008.488204890851;-0.001;1;0;2;
1510740441.067125;1510740441.067125;1510740441.067231;57.77270541924592;12.7715755190595;233.8147410051771;0.5689081;-2.119696;0.02848399;-1.192672211528958;-1.94223549435334;104.7781323300535;74.29186155982103;285.0236;2.194713;-0.04193725;0.02834942;0.2714455;0.04069295;0.01683489;0.01964401;0;295658.8947818535;3008.5282048843;-0.001;1;0;2;
1510740441.147069;1510740441.147069;1510740441.147134;57.77270562388154;12.77157408976017;233.8135791573098;0.5643963;-2.119322;0.0281441;-1.188482304543927;-1.941612640149901;104.7802180637184;74.29186303671996;284.9123;2.193187;0.06841401;0.01009527;-0.1068768;-0.005336021;-0.004184711;-0.06091598;0;295658.9347818469;3008.568204877749;-0.001;1;0;2;
1510740441.239366;1510740441.239366;1510740441.239474;57.77270593024136;12.77157194772453;233.8117937391207;0.5633182;-2.116758;0.03001474;-1.185166223334206;-1.93882541707781;104.7819100850858;74.29186525043448;284.9023;2.190432;0.08194711;0.1297514;-0.1107844;0.006706111;0.03367955;-0.02766908;0;295658.9947828371;3008.628205867922;-0.001;1;0;2;
1510740441.245297;1510740441.245297;1510740441.245405;57.7727060326132;12.77157123304877;233.8111677723321;0.5656289;-2.116176;0.03096424;-1.184441990769527;-1.936809632783667;104.7843127962588;74.29186578124261;284.9647;2.190465;0.114453;0.09503655;0.05859235;0.06730897;-0.05690185;0.01042422;0;295659.0147829976;3008.648205864647;-0.001;1;0;2;
1510740441.265217;1510740441.265217;1510740441.265285;57.77270633917625;12.77156908993893;233.809256428003;0.5664649;-2.114036;0.0323742;-1.182107287794498;-1.935410120112043;104.784982421121;74.2918673724073;285.0003;2.188614;-0.03055058;-0.003649017;0.1474576;0.009018835;-0.06213448;0.09922972;0;295659.0747829878;3008.70820585482;-0.001;1;0;2;
1510740441.272673;1510740441.272673;1510740441.27278;57.77270654373842;12.77156766214865;233.8079245858773;0.5660111;-2.113246;0.03384238;-1.182401648858731;-1.936444480589433;104.7865962964867;74.29186843231463;284.9941;2.187734;0.0532156;0.01262284;0.07191921;0.04782292;-0.01748503;0.1093848;0;295659.1147829812;3008.748205848269;-0.001;1;0;2;
1510740441.281443;1510740441.281443;1510740441.281551;57.77270674837127;12.77156623506671;233.8065785454263;0.5643662;-2.112195;0.03187625;-1.184387617796013;-1.939165754207151;104.788380070322;74.29186949153021;284.9596;2.186293;-0.1208593;-0.08659013;-0.04153731;0.05379374;0.002415353;-0.1027022;0;295659.1547839747;3008.788206841718;-0.001;1;0;2;
1510740441.288619;1510740441.288619;1510740441.288721;57.77270695314685;12.77156480997109;233.8052873688433;0.5680661;-2.108575;0.02978939;-1.185714271544943;-1.938936230530804;104.7915968348784;74.29187054926874;285.0779;2.183756;0.003185466;0.02429949;0.2538325;0.0442736;0.01991039;-0.164431;0;295659.1947839681;3008.828206835166;-0.001;1;0;2;
1510740441.377112;1510740441.377112;1510740441.377536;57.77270726031139;12.77156267488954;233.803631592665;0.5650668;-2.105739;0.02445237;-1.182380080440642;-1.939356048259548;104.7964401966246;74.29187213374713;285.0212;2.180238;0.01195192;0.02947921;0.09670516;0.05344627;0.01877498;-0.110092;0;295659.2547839583;3008.88820682534;-0.001;1;0;2;
1510740441.453023;1510740441.453023;1510740441.453131;57.7727074643721;12.77156125324807;233.8026931088885;0.5616748;-2.104454;0.02121301;-1.182363543691589;-1.938863739493559;104.7991944179245;74.29187318857447;284.9438;2.178119;-0.003265675;-0.004038708;-0.06395139;0.02189285;0.03306558;-0.02719934;0;295659.2947839517;3008.928206818789;-0.001;1;0;2;
1510740441.532993;1510740441.532993;1510740441.533081;57.77270766809659;12.77155983293308;233.801806325;0.5637174;-2.101865;0.02013724;-1.184046039102703;-1.937952850071562;104.8037799591573;74.29187424235269;285.0133;2.176146;0.02286112;-0.07081102;0.1680038;0.01219311;-0.02007472;0.03258257;0;295659.3347849452;3008.968207812237;-0.001;1;0;2;
1510740441.633043;1510740441.633043;1510740441.633207;57.77270787150535;12.77155841400442;233.8008909430139;0.5602013;-2.100829;0.02216276;-1.182428258685365;-1.936604785778421;104.8064709688699;74.29187529494325;284.9309;2.174237;-0.06890329;-0.01580719;-0.07246551;0.07034434;-0.03779352;0.05714374;0;295659.3747849386;3009.008207805686;-0.001;1;0;2;
1510740441.70232;1510740441.70232;1510740441.702736;57.77270807487523;12.77155699630874;233.7999175555483;0.5602968;-2.099649;0.02498101;-1.180815000124753;-1.937371952331101;104.8093412148177;74.29187634640169;284.9414;2.173122;0.08448838;-0.06184985;-0.08607894;-0.02119738;-0.03212572;0.1594545;0;295659.4147849321;3009.048207799135;-0.001;1;0;2;
1510740441.712145;1510740441.712145;1510740441.71226;57.77270827827459;12.77155557962504;233.7987997367988;0.5618008;-2.096146;0.03103692;-1.177293392514084;-1.936156276806165;104.8121381521109;74.29187739711728;285.0036;2.170126;0.1114747;0.2336577;0.07036053;0.1168505;-0.03690859;0.03044199;0;295659.4547849256;3009.088207792584;-0.001;1;0;2;
1510740441.728467;1510740441.728467;1510740441.728589;57.7727084813947;12.77155416440176;233.7976002229751;0.5620079;-2.094099;0.03007386;-1.175952957019925;-1.934257535203867;104.8142770993209;74.2918784465717;285.0229;2.168203;-0.08517505;0.09613717;0.1126102;0.1451124;-0.05732659;-0.046085;0;295659.494785919;3009.128208786033;-0.001;1;0;2;
1510740441.75308;1510740441.75308;1510740441.753188;57.77270868441966;12.77155275051817;233.796386876373;0.5623096;-2.093136;0.02839019;-1.178365834081837;-1.933316613027776;104.8165551209643;74.29187949480436;285.0372;2.167351;-0.1633949;-0.1121207;0.1433092;-0.02805834;-0.04064504;-0.02100086;0;295659.5347859124;3009.168208779482;-0.001;1;0;2;
1510740441.790614;1510740441.790614;1510740441.790721;57.77270898941686;12.77155063157744;233.7945904025868;0.5640095;-2.089773;0.02883966;-1.181240341995604;-1.937770580080065;104.8207706302202;74.29188106533498;285.1037;2.164545;-0.08186295;-0.1122126;0.2488705;0.04471257;-0.02422763;0.08396329;0;295659.5947859026;3009.228208769655;-0.001;1;0;2;
1510740441.807143;1510740441.807143;1510740441.807255;57.77270919274401;12.7715492205579;233.7934471426205;0.5631084;-2.088353;0.02791528;-1.183150165179132;-1.942479600288324;104.8236417925511;74.29188211091878;285.0905;2.16294;-0.04580074;-0.0732862;0.2141724;0.03343492;0.05909547;0.0288902;0;295659.6347868961;3009.268209763104;-0.001;1;0;2;
1510740441.823387;1510740441.823387;1510740441.823797;57.77270939569495;12.77154781120097;233.7923510070222;0.5595832;-2.085861;0.02622587;-1.183897752337105;-1.944610940922679;104.8252999919371;74.29188315517857;285.0174;2.159618;-0.1426986;0.01255393;-0.004914186;0.02577418;0.04881586;-0.03747544;0;295659.6747868895;3009.308209756553;-0.001;1;0;2;
1510740441.843507;1510740441.843507;1510740441.843668;57.77270959818954;12.7715464046912;233.7913173721523;0.5591016;-2.080328;0.02435844;-1.185589704542004;-1.943422380335224;104.8281097757837;74.2918841972167;285.0432;2.154149;-0.08308842;0.0655178;0.07680073;0.1284576;-0.06537019;0.001195299;0;295659.714786883;3009.348209750001;-0.001;1;0;2;
1510740441.88737;1510740441.88737;1510740441.887513;57.7727098001645;12.77154500159614;233.7903244548172;0.5600563;-2.073762;0.02478752;-1.188424628777519;-1.938344021348131;104.83091112892;74.29188523652796;285.1132;2.148057;0.1164945;0.2360175;0.2183208;0.1990707;-0.07646778;-0.02941338;0;295659.7547868764;3009.38820974345;-0.001;1;0;2;
1510740441.967331;1510740441.967331;1510740441.967439;57.7727100014669;12.7715436030347;233.7893320838735;0.5566674;-2.06659;0.02307677;-1.189507042211946;-1.9321642509901;104.8326619220619;74.29188627203392;285.0757;2.140251;0.05687249;0.09039526;0.1158766;0.2104665;-0.04667211;-0.03109984;0;295659.7947878698;3009.428210736899;-0.001;1;0;2;
1510740442.04248;1510740442.04248;1510740442.042588;57.77271020169641;12.77154221075003;233.7882791586677;0.5525877;-2.056073;0.02648129;-1.19263943781286;-1.923939677592228;104.8344878739256;74.29188730229907;285.0433;2.129035;-0.1199877;0.2040007;0.1302808;0.3093917;-0.002254534;0.0623435;0;295659.8347878633;3009.468210730348;-0.001;1;0;2;
1510740442.119876;1510740442.119876;1510740442.119978;57.77271040073121;12.77154082652628;233.7871478766881;0.549422;-2.042348;0.02907534;-1.196252175790416;-1.914043119425351;104.8367726272933;74.29188832583444;285.0569;2.114959;-0.05233362;0.3476748;0.1529816;0.4127024;-0.05922944;-0.03498801;0;295659.8747878568;3009.508210723797;-0.001;1;0;2;
1510740442.129985;1510740442.129985;1510740442.130049;57.77271059857168;12.77153945253505;233.7859533575436;0.5445563;-2.026331;0.02992966;-1.200064703281928;-1.901814978441702;104.8399649932479;74.29188934085592;285.0423;2.098228;-0.02839616;0.3544469;0.01654981;0.4413471;-0.07465425;-0.04605958;0;295659.9147878502;3009.548210717246;-0.001;1;0;2;
1510740442.136794;1510740442.136794;1510740442.136899;57.77271079476943;12.77153808959615;233.784750767669;0.5401783;-2.009137;0.02838401;-1.201136364232415;-1.890243533266498;104.8403483631756;74.29189034641736;285.0487;2.080487;-0.09217825;0.2190578;0.02680587;0.4999233;-9.146822e-05;0.02419072;0;295659.9547888436;3009.588211710694;-0.001;1;0;2;
1510740442.139467;1510740442.139467;1510740442.139574;57.77271089248148;12.7715374130174;233.7841359804067;0.5372896;-1.998611;0.03102713;-1.201756430971942;-1.883593896248143;104.8427351987665;74.29189084519147;285.0471;2.069571;0.03262258;0.4249205;-0.02639862;0.5529355;-0.02305834;-0.02573616;0;295659.9747888404;3009.608211707419;-0.001;1;0;2;
1510740442.152062;1510740442.152062;1510740442.152204;57.77271118191445;12.77153540134453;233.7822998178609;0.5289117;-1.966305;0.03052367;-1.205166655273886;-1.86648469179735;104.8444040185266;74.29189242054203;285.0555;2.036198;-0.03095962;0.3263021;0.08229261;0.6098139;-0.01180573;0.03332075;0;295660.0347879943;3009.668211697583;-0.001;1;0;2;
1510740442.162163;1510740442.162163;1510740442.162263;57.77271137206671;12.77153407817372;233.7810497948567;0.5208194;-1.943757;0.03138374;-1.211909931936287;-1.855281132042896;104.8464326743066;74.29189348712814;284.9998;2.012323;-0.1555665;0.3159313;-0.02827588;0.6276391;-0.0261078;-0.0003495821;0;295660.0747879877;3009.708211691021;-0.001;1;0;2;
1510740442.192682;1510740442.192682;1510740442.192744;57.77271155992506;12.77153277142625;233.779810939537;0.5154812;-1.917342;0.03075072;-1.218440220586583;-1.846105712134748;104.8478504476155;74.29189453970561;285.0482;1.985428;-0.3544397;0.2808435;0.1130495;0.7054767;-0.01034607;-0.03835243;0;295660.1147889812;3009.748212684458;-0.001;1;0;2;
1510740442.262736;1510740442.262736;1510740442.262844;57.7727117453467;12.7715314819605;233.7785778644314;0.5071782;-1.892715;0.02836792;-1.223194497461646;-1.838112464286815;104.8481631532835;74.29189557758758;285.0008;1.95949;0.02107449;0.08677201;-0.1452153;0.7427352;-0.06507022;-0.1067002;0;295660.1547889746;3009.788212677896;-0.001;1;0;2;
1510740442.342851;1510740442.342851;1510740442.342958;57.77271192850718;12.77153021083377;233.7774024747043;0.50264;-1.862897;0.0268144;-1.229086300561174;-1.832287858936153;104.8508450132223;74.29189659994023;285.0998;1.929516;-0.2394026;0.0538729;0.1956702;0.7843972;0.01055444;-0.07327647;0;295660.194788968;3009.828212671334;-0.001;1;0;2;
1510740442.479722;1510740442.479722;1510740442.47982;57.77271219782441;12.7715283410563;233.7757526659524;0.4899775;-1.818209;0.02506664;-1.236255924907697;-1.823251671609135;104.8542100565711;74.2918981022524;285.082;1.883072;-0.02307807;0.1602246;0.09905896;0.880817;0.02878825;-0.05683047;0;295660.2547899582;3009.888213661491;-0.001;1;0;2;
1510740442.559814;1510740442.559814;1510740442.55989;57.77271237368381;12.7715271197728;233.7747854661579;0.4787455;-1.789378;0.02257721;-1.241463536879484;-1.818443789261995;104.8567313927415;74.29189908239681;284.9786;1.852315;-0.03609578;0.1315539;-0.1413184;0.7660672;0.02047013;-0.0565906;0;295660.2947899516;3009.928213654929;-0.001;1;0;2;
1510740442.569512;1510740442.569512;1510740442.569613;57.77271254653404;12.77152591885237;233.773884681957;0.4727405;-1.757741;0.02052358;-1.243663125077574;-1.812927836766498;104.8584780844687;74.29190004535606;285.0534;1.820202;-0.01152778;0.09805908;0.01781432;0.7668527;-0.01147434;-0.07710706;0;295660.334789945;3009.968213648367;-0.001;1;0;2;
1510740442.594656;1510740442.594656;1510740442.594764;57.77271279985774;12.77152415642344;233.7725912157471;0.4582325;-1.710602;0.02063856;-1.243359331012773;-1.803927795734715;104.8604836514878;74.29190145690062;284.9962;1.770914;-0.02266653;0.1797515;0.01447979;0.9167951;0.04399895;-0.04156097;0;295660.3947899352;3010.028213638524;-0.001;1;0;2;
1510740442.60885;1510740442.60885;1510740442.608955;57.77271304586292;12.77152244089542;233.7712903850223;0.4446638;-1.666509;0.02351389;-1.235483631595284;-1.796104809947629;104.8627420148989;74.291902828829;284.9398;1.724813;0.2045785;0.2530333;-0.01683809;0.867642;-0.0007551488;-0.08091355;0;295660.4547909254;3010.088214628681;-0.001;1;0;2;
1510740442.623443;1510740442.623443;1510740442.623544;57.77271320596981;12.77152132194505;233.7703999681877;0.4386207;-1.636209;0.02119993;-1.23392578140629;-1.793262196434911;104.866043631213;74.29190372243994;285.0065;1.693979;-0.0579038;0.03831307;0.21734;0.8452676;-0.05050863;-0.03041043;0;295660.4947909188;3010.128214622119;-0.001;1;0;2;
1510740442.631842;1510740442.631842;1510740442.631909;57.77271336294641;12.7715202225128;233.7694667986218;0.4283567;-1.607167;0.02265052;-1.231838227672867;-1.790909205903325;104.8666497165547;74.29190459941131;284.924;1.663273;0.05645797;0.06573504;-0.0942902;0.8536958;-0.1946308;-0.1246332;0;295660.5347909122;3010.168214615557;-0.001;1;0;2;
1510740442.707289;1510740442.707289;1510740442.707421;57.77271351779545;12.77151914404849;233.7685660755977;0.424886;-1.575806;0.02104223;-1.237049942987427;-1.791049318075389;104.8698694371883;74.29190545854134;285.0898;1.632083;0.1007933;-0.05004782;0.1823327;0.7723544;-0.02561248;-0.04701682;0;295660.5747919057;3010.208215608995;-0.001;1;0;2;
1510740442.787538;1510740442.787538;1510740442.787647;57.77271366985428;12.77151808711652;233.7676146915592;0.4153262;-1.543436;0.02158887;-1.237813106794342;-1.78611295007523;104.8697886147484;74.29190629961163;285.0611;1.59834;-0.1407533;0.08522719;-0.03227331;0.7662386;-0.1162933;-0.1288269;0;295660.6147918991;3010.248215602433;-0.001;1;0;2;
1510740442.849854;1510740442.849854;1510740442.849962;57.77271381953378;12.77151705182297;233.7667245350874;0.4064478;-1.512283;0.02262543;-1.242287408515938;-1.782904252768033;104.8721587998803;74.29190712235031;285.0436;1.56595;0.03834091;0.1931604;-0.09880461;0.8174122;0.009856475;-0.02232804;0;295660.6547918926;3010.28821559587;-0.001;1;0;2;
1510740442.89299;1510740442.89299;1510740442.893062;57.77271396603491;12.77151603785025;233.7658456557311;0.4000282;-1.480497;0.02183031;-1.245867838965199;-1.778843417610577;104.8736712452175;74.29190792706821;285.1202;1.533589;-0.1970063;0.1221828;0.1494569;0.7861653;0.04539964;0.01745829;0;295660.694791886;3010.328215589308;-0.001;1;0;2;
1510740442.972869;1510740442.972869;1510740442.972978;57.77271410919914;12.77151504344918;233.7650011900199;0.386904;-1.453179;0.01983459;-1.251420693563261;-1.779219870144969;104.8744468746926;74.29190871496778;284.9089;1.503803;-0.3729264;-0.06592975;-0.1235216;0.8257348;0.1334619;-0.05436122;0;295660.7347928794;3010.368216582746;-0.001;1;0;2;
1510740442.977605;1510740442.977605;1510740442.977663;57.77271424942551;12.77151406874154;233.7641892849982;0.3818727;-1.422806;0.01937749;-1.257258421383852;-1.782411945112485;104.8776723519316;74.2919094861772;285.0238;1.473161;-0.2078005;-0.07813393;0.1200762;0.6708099;0.0695197;-0.01167575;0;295660.7747928729;3010.408216576184;-0.001;1;0;2;
1510740442.996283;1510740442.996283;1510740442.998042;57.7727143865046;12.77151311209239;233.7634127669147;0.3739774;-1.397878;0.01698197;-1.258791718911457;-1.788699552411476;104.8786092790174;74.29191024193;284.9777;1.447039;-0.09371329;-0.2601272;0.03331935;0.5859305;0.001114707;-0.03719115;0;295660.8147928663;3010.448216569622;-0.001;1;0;2;
1510740443.008356;1510740443.008356;1510740443.008459;57.7727145212154;12.77151217232799;233.7626358702481;0.3671864;-1.373435;0.01663046;-1.258590769082268;-1.794429146319791;104.8799145731618;74.29191098346402;284.9679;1.421671;0.04277645;-0.2699704;-0.009961712;0.6397424;-0.009246085;-0.04098949;0;295660.8547928598;3010.48821656306;-0.001;1;0;2;
1510740443.021307;1510740443.021307;1510740443.021703;57.77271465339815;12.7715112493695;233.7618904777666;0.3607996;-1.34928;0.0172454;-1.261532427445998;-1.799328785111704;104.8807710260746;74.29191171075821;284.9707;1.396686;-0.2891933;-0.1502112;0.07065304;0.4995977;-0.02148916;0.06072059;0;295660.8947938532;3010.528217556498;-0.001;1;0;2;
1510740443.029479;1510740443.029479;1510740443.02972;57.77271478345189;12.77151034171219;233.761158072554;0.3559095;-1.326952;0.01797702;-1.264246090709477;-1.802760221347744;104.8801803595609;74.29191242511841;285.0143;1.373853;-0.1031775;-0.01932537;0.05537815;0.4652475;-0.0342402;-0.009136556;0;295660.9347938466;3010.568217549936;-0.001;1;0;2;
1510740443.040782;1510740443.040782;1510740443.040941;57.77271497551024;12.77150900619198;233.7600619504158;0.3471731;-1.298475;0.01605381;-1.26545508447125;-1.80687988105423;104.8811194792575;74.29191347485587;284.969;1.344086;-0.1299114;-0.2019374;-0.07083237;0.4183989;0.02014703;0.0542142;0;295660.9947938368;3010.628217540093;-0.001;1;0;2;
1510740443.067206;1510740443.067206;1510740443.067312;57.77271503975915;12.77150856779418;233.7596773064418;0.3457159;-1.289091;0.01922646;-1.265354997320224;-1.807574669284659;104.8815690611733;74.2917380841603;285.0127;1.334644;0.04909035;0.01784787;-0.04778154;0.5150794;-0.01029489;0.02218544;0;295661.0147939976;3010.648217536813;-0.001;1;0;2;
1510740443.19382;1510740443.19382;1510740443.193981;57.77271510271636;12.77150813160826;233.7593202695219;0.3451242;-1.281694;0.0181331;-1.268298535638146;-1.810682965933634;104.8823864500256;74.29156269108802;285.0707;1.327347;-0.1207792;-0.128164;0.1117292;0.3377354;-0.004428365;0.0944575;0;295661.0347939943;3010.668217533534;-0.001;1;0;2;
1510740443.247096;1510740443.247096;1510740443.247697;57.77271516527279;12.77150769833403;233.7589216016067;0.3423255;-1.272156;0.01725461;-1.269063269679128;-1.8115953725377;104.8831220186005;74.29138729567964;285.061;1.317409;-0.2090715;-0.1709637;0.1452012;0.5065159;0.01977986;-0.05376472;0;295661.054794991;3010.688218530255;-0.001;1;0;2;
1510740443.327138;1510740443.327138;1510740443.327243;57.77271528885631;12.77150684101589;233.7581728217254;0.336079;-1.253644;0.01654341;-1.274644358604207;-1.815501734302472;104.8842274450819;74.29103649688868;285.0071;1.297911;-0.1589491;-0.1685117;0.04735215;0.4389587;0.0253997;-0.05574451;0;295661.0947949844;3010.728218523696;-0.001;1;0;2;
1510740443.407135;1510740443.407135;1510740443.407246;57.77271541054102;12.77150599647124;233.7574018129989;0.3295318;-1.235751;0.01687635;-1.280267277899321;-1.815772887984505;104.8862972982364;74.29068568749911;284.9313;1.278934;-0.2639487;-0.08818356;-0.03796068;0.4179341;0.01382457;-0.01054085;0;295661.1347949779;3010.768218517138;-0.001;1;0;2;
1510740443.431729;1510740443.431729;1510740443.431789;57.77271553053784;12.77150516453981;233.7566256981539;0.3264612;-1.216471;0.01812161;-1.287422126667953;-1.812924474036995;104.8906752527353;74.290334867659;285.0223;1.259516;-0.3019242;0.04960037;0.1335479;0.3971774;-0.03067444;0.04789003;0;295661.1747949714;3010.80821851058;-0.001;1;0;2;
1510740443.444291;1510740443.444291;1510740443.44436;57.77271564865132;12.77150434500975;233.7558621637299;0.3221796;-1.198206;0.01833527;-1.292753093806662;-1.808655112097526;104.8926558115536;74.28998403731745;285.05;1.240765;-0.2761758;0.1479307;0.1962524;0.4071355;0.05367659;0.005595393;0;295661.2147959648;3010.848219504021;-0.001;1;0;2;
1510740443.45324;1510740443.45324;1510740443.45339;57.77271582273191;12.77150313727774;233.7548164671064;0.3151762;-1.173738;0.01433044;-1.29717184237869;-1.804748444484764;104.8955631850752;74.28945777349519;285.0307;1.215317;-0.04659292;-0.05365791;0.09859818;0.3607142;-0.01189909;-0.06081031;0;295661.2747959549;3010.908219494183;-0.001;1;0;2;
1510740443.461193;1510740443.461193;1510740443.461324;57.77271593673967;12.77150234532555;233.7541917381002;0.3096028;-1.159383;0.01323966;-1.298048338139234;-1.805828661968691;104.8974250872076;74.28910691963395;284.9514;1.20001;-0.0289687;-0.1579471;0.001745904;0.2796445;-0.0149291;0.04970153;0;295661.3147959484;3010.948219487625;-0.001;1;0;2;
1510740443.4699;1510740443.4699;1510740443.470047;57.77271604914631;12.77150156290967;233.753577597291;0.303825;-1.146064;0.01336915;-1.298471954608058;-1.809338018565086;104.8987365471657;74.28875605757695;284.8477;1.185653;-0.1032578;-0.2243296;-0.0815847;0.3227203;0.04049789;0.08585473;0;295661.3547969419;3010.988220481066;-0.001;1;0;2;
1510740443.486524;1510740443.486524;1510740443.486634;57.77271615999139;12.77150079027709;233.7529357110461;0.3025599;-1.130243;0.01686958;-1.296098056909547;-1.813009802176179;104.9005227632921;74.28840518729436;284.9864;1.170039;0.3852439;-0.02360035;0.05207415;0.3110349;-0.02936351;0.01439438;0;295661.3947969353;3011.028220474508;-0.001;1;0;2;
1510740443.562932;1510740443.562932;1510740443.563035;57.77271626917314;12.77150002719842;233.7522983971814;0.2963088;-1.115831;0.01613798;-1.295922115404373;-1.817334018515706;104.901204140493;74.28805430882348;284.8717;1.154504;0.1113373;-0.01815706;-0.06548484;0.4292293;-0.02435617;-0.03914567;0;295661.4347969287;3011.06822046795;-0.001;1;0;2;
1510740443.642938;1510740443.642938;1510740443.643094;57.77271637722814;12.77149927421289;233.7516441054898;0.2926298;-1.100806;0.01438865;-1.295092108882939;-1.819805896316766;104.9029134553272;74.28770342195168;284.8868;1.139037;-0.04637408;-0.1209106;-0.03836124;0.5287429;0.01250468;-0.0753838;0;295661.4747969222;3011.108220461391;-0.001;1;0;2;
1510740443.723001;1510740443.723001;1510740443.723107;57.77271648375471;12.77149853204448;233.7509817154768;0.2894126;-1.084552;0.01501091;-1.294372181434214;-1.819695268178555;104.9036299579542;74.28735252600463;284.9412;1.122503;-0.1193342;-0.009768575;0.03541242;0.3969994;-0.0370952;-0.04335119;0;295661.5147979156;3011.148221454833;-0.001;1;0;2;
1510740443.799925;1510740443.799925;1510740443.800029;57.77271658866222;12.77149780065374;233.7503131479831;0.2856832;-1.065299;0.01500785;-1.295017867659232;-1.818642510826684;104.9041001950888;74.2870016209548;285.0119;1.10294;-0.07578964;0.04561339;0.1333763;0.5602775;-0.07035432;-0.05497028;0;295661.554797909;3011.188221448274;-0.001;1;0;2;
1510740443.850731;1510740443.850731;1510740443.850836;57.77271669215083;12.7714970822134;233.7496755702241;0.2824714;-1.050028;0.01510223;-1.298889460524552;-1.817639099423442;104.9065984350327;74.28665070498893;285.0569;1.087359;0.1511235;-0.07640338;0.07849891;0.3301609;-0.01765072;0.1144773;0;295661.5947979025;3011.228221441716;-0.001;1;0;2;
1510740443.864643;1510740443.864643;1510740443.864803;57.77271679385342;12.77149637556594;233.7489642206373;0.2752213;-1.030445;0.01970227;-1.300978190645062;-1.81286661737861;104.9066345088022;74.28629977914082;284.954;1.066567;0.04762471;0.2761932;-0.03288346;0.3705378;0.01759565;0.1036067;0;295661.6347978959;3011.268221435158;-0.001;1;0;2;
1510740443.872545;1510740443.872545;1510740443.87261;57.77271689402488;12.77149568008806;233.7482799119293;0.2713342;-1.013353;0.01907283;-1.304753197224192;-1.813307644874347;104.907346826274;74.28594884360994;284.9898;1.04905;0.1469866;0.2048144;-0.02321183;0.5326772;-0.04147743;-0.09364188;0;295661.6747988894;3011.308222428599;-0.001;1;0;2;
1510740443.879993;1510740443.879993;1510740443.880054;57.77271699253168;12.77149499710267;233.7475761558433;0.2688913;-0.9965559;0.01512693;-1.312881474237209;-1.811975310959252;104.9093862125982;74.28559789758943;285.1;1.032195;-0.2126345;-0.1133019;0.1889995;0.4570563;0.02290058;-0.07688069;0;295661.7147988828;3011.348222422041;-0.001;1;0;2;
1510740443.88765;1510740443.88765;1510740443.887757;57.77271708925107;12.7714943258952;233.7468741851602;0.2613565;-0.9771807;0.01668449;-1.31920413011494;-1.810426038269544;104.9097329986648;74.28524694156894;284.9738;1.011528;-0.1643688;0.06186164;0.002915447;0.5169721;0.008562408;-0.0460117;0;295661.7547988762;3011.388222415482;-0.001;1;0;2;
1510740443.894335;1510740443.894335;1510740443.894497;57.77271718438013;12.77149366635169;233.7462150666443;0.2538918;-0.9601576;0.01578742;-1.324288252384661;-1.812440299911603;104.9111173531425;74.28489597557798;284.8116;0.9931585;-0.3734284;0.05135357;-0.1404607;0.5606959;0.05644732;-0.1010184;0;295661.7947988697;3011.428222408924;-0.001;1;0;2;
1510740443.900923;1510740443.900923;1510740443.902075;57.77271727756089;12.77149302010955;233.7455773284653;0.2504949;-0.9428576;0.01082397;-1.329797746817223;-1.811895678249628;104.913582042519;74.28454499849212;284.8784;0.9755655;-0.3730159;-0.3137794;-0.07372268;0.2832774;-0.01629539;0.1130384;0;295661.8347998632;3011.468223402365;-0.001;1;0;2;
1510740443.912907;1510740443.912907;1510740443.912968;57.77271736879727;12.77149238586973;233.7449815441376;0.2449712;-0.9228038;0.0139853;-1.333657636736023;-1.8112380372448;104.9146286199298;74.28419401122099;284.8671;0.9547658;-0.1221876;0.07070764;-0.07477674;0.4387856;0.02718925;-0.01209483;0;295661.8747998566;3011.508223395807;-0.001;1;0;2;
1510740443.99295;1510740443.99295;1510740443.993068;57.77271745807789;12.77149176396669;233.7444575950924;0.2395636;-0.9043429;0.01460141;-1.337610946588888;-1.812670713405384;104.9164640626264;74.28384301344951;284.8371;0.9355356;0.02469528;0.1808294;-0.07578499;0.593077;0.02438142;-0.0802146;0;295661.91479985;3011.548223389249;-0.001;1;0;2;
1510740444.067217;1510740444.067217;1510740444.06728;57.77271754549282;12.77149115491737;233.7439379619247;0.2364337;-0.8860936;0.01151646;-1.339467476020589;-1.811811335182313;104.9181600271521;74.28349200493241;284.94;0.9170946;0.1884801;-0.01666812;-0.02023117;0.5113805;-0.0216598;-0.07957315;0;295661.9547998435;3011.58822338269;-0.001;1;0;2;
1510740444.11323;1510740444.11323;1510740444.113346;57.77271758861846;12.7714908546933;233.7437401870278;0.2358571;-0.8773097;0.009871964;-1.341126170995141;-1.815453608622373;104.9189623683;74.2833164968369;285.0477;0.9084608;-0.06759619;-0.1573858;0.1710899;0.3854433;-0.03301182;0.09578144;0;295661.9747998402;3011.608223379411;-0.001;1;0;2;
1510740444.305348;1510740444.305348;1510740444.305645;57.77271779818521;12.77148939723712;233.7424658804719;0.2205429;-0.830898;0.01115693;-1.3417741157714;-1.813553933993817;104.9217502853512;74.28275359051983;284.8651;0.859669;-0.1049713;-0.02102776;0.04979844;0.402525;-0.02135051;0.04822784;0;295662.0747999877;3011.708224362994;-0.001;1;0;2;
1510740444.327859;1510740444.327859;1510740444.328157;57.77271787847118;12.77148883575044;233.7419614278598;0.2155849;-0.8114712;0.01229416;-1.343967356649351;-1.812573050056212;104.9222787043249;74.28255987667823;284.8782;0.8396204;0.03371809;0.1342545;0.009141682;0.4299143;-0.03109439;-0.00317898;0;295662.1147999812;3011.748224356425;-0.001;1;0;2;
1510740444.341564;1510740444.341564;1510740444.341623;57.77271795718082;12.771488286431;233.7414612969611;0.2085251;-0.7941803;0.01201107;-1.344767846472098;-1.81191691424985;104.9235397278508;74.28236615257877;284.7119;0.8210999;-0.2869189;0.08729527;-0.08257697;0.5716739;0.0006877857;-0.07179958;0;295662.1548009746;3011.788225349856;-0.001;1;0;2;
1510740444.353728;1510740444.353728;1510740444.35379;57.77271803428523;12.77148775002557;233.7409400332851;0.2061574;-0.7764485;0.01196471;-1.342905712140626;-1.809126205956193;104.9247734905683;74.28217241768786;284.8697;0.8033512;0.2568954;0.05460256;-0.08874189;0.4288951;0.001062408;-0.07778412;0;295662.194800968;3011.828225343286;-0.001;1;0;2;
1510740444.372006;1510740444.372006;1510740444.373605;57.77271810965617;12.77148722480505;233.7404514555509;0.1997213;-0.7584122;0.0121011;-1.343250372042292;-1.809221439004701;104.9253469395209;74.28197867314482;284.7534;0.7842689;-0.08428778;0.1477538;-0.05490324;0.438822;0.04124837;-0.08720497;0;295662.2348009615;3011.868225336717;-0.001;1;0;2;
1510740444.380648;1510740444.380648;1510740444.380788;57.77271814676451;12.77148696636849;233.7402127665392;0.1991032;-0.7520015;0.01108899;-1.342197451790077;-1.809821359385346;104.9262425173495;74.28188179735947;284.8296;0.7779128;0.1507384;-0.04198594;-0.08568233;0.3620388;-0.0230594;0.0282432;0;295662.2548009582;3011.888225333432;-0.001;1;0;2;
1510740444.397305;1510740444.397305;1510740444.397414;57.77271821955134;12.77148645746493;233.739726800848;0.195022;-0.7351515;0.01238214;-1.342559641951627;-1.810703606609061;104.9271527370924;74.28168803899106;284.8573;0.7605796;0.06328263;0.1012415;0.01604005;0.4233887;0.001637828;-0.02210892;0;295662.2948009516;3011.928225326863;-0.001;1;0;2;
1510740444.477168;1510740444.477168;1510740444.47728;57.7727182910145;12.77148595801221;233.7392647642333;0.1917612;-0.7215608;0.01106948;-1.343469848074736;-1.814765979708027;104.9280200884481;74.28149427247256;284.8828;0.7466072;0.02630434;-0.01270765;0.06557772;0.4753309;0.0249656;-0.08507746;0;295662.334801945;3011.968226320294;-0.001;1;0;2;
1510740444.613372;1510740444.613372;1510740444.613479;57.77271839582546;12.7714852261599;233.7385456261004;0.1879644;-0.701555;0.01329281;-1.340591101095661;-1.818413468562559;104.9291924870359;74.28120360820193;284.9987;0.7262989;0.3670295;0.1456803;0.1001268;0.3696359;-0.003162912;-0.03137325;0;295662.3948019352;3012.02822631044;-0.001;1;0;2;
1510740444.692928;1510740444.692928;1510740444.693294;57.77271846403675;12.77148474882587;233.7380531392241;0.1851229;-0.6897066;0.01040354;-1.340301493766627;-1.819075731618214;104.9296726423294;74.28100982312857;285.0245;0.7141188;0.2384813;-0.03002192;0.1582473;0.4451618;-0.01378207;-0.1671407;0;295662.4348019286;3012.06822630387;-0.001;1;0;2;
1510740444.767932;1510740444.767932;1510740444.768049;57.77271853107644;12.77148427954091;233.7375737900193;0.1779833;-0.6788253;0.009893131;-1.341733503264714;-1.819250585862097;104.9306484789531;74.28081603126604;284.6919;0.7017705;-0.088229;-0.02240153;-0.0885473;0.3586567;-0.01791261;-0.08425657;0;295662.4748029221;3012.108227297301;-0.001;1;0;2;
1510740444.77527;1510740444.77527;1510740444.775382;57.77271859709548;12.77148381790218;233.7371318914126;0.1770841;-0.6671826;0.008173999;-1.34431178582329;-1.821839696807642;104.9320485230001;74.28062223282657;284.8647;0.6902835;-0.1951079;-0.1309192;0.09846526;0.2473128;-0.01346548;-0.01421895;0;295662.5148029155;3012.148227290731;-0.001;1;0;2;
1510740444.7897;1510740444.7897;1510740444.789809;57.77271866224347;12.77148336390077;233.7366841557808;0.1748894;-0.6564876;0.008218151;-1.344301624662215;-1.822856117633431;104.9333017557527;74.28042842802763;284.9172;0.6793838;-0.1657037;-0.161217;0.1174874;0.2304236;-0.01439424;0.05377731;0;295662.5548029089;3012.188227284162;-0.001;1;0;2;
1510740444.800317;1510740444.800317;1510740444.800422;57.77271872617267;12.77148291776761;233.7362266094126;0.1702773;-0.6445513;0.01165762;-1.3464304877267;-1.821451739044068;104.9333898944117;74.28023461660578;284.7983;0.6666639;0.1015454;0.1560509;-0.09456314;0.2613102;-0.02140635;-0.007250042;0;295662.5948029023;3012.228227277593;-0.001;1;0;2;
1510740444.811099;1510740444.811099;1510740444.811787;57.77271878906892;12.77148247981919;233.7357762495579;0.1654855;-0.6323575;0.01061285;-1.34903105259087;-1.818944466523114;104.9343310792964;74.28004079834025;284.6652;0.6536524;-0.02558193;0.1511006;-0.201465;0.3445595;-0.02015889;-0.06244081;0;295662.6348038958;3012.268228271023;-0.001;1;0;2;
1510740444.826029;1510740444.826029;1510740444.826137;57.7727188508233;12.77148204971409;233.735356650095;0.1650599;-0.6201286;0.009476661;-1.350636463588753;-1.817728146238888;104.934812012429;74.27984697337462;284.9049;0.6417198;-0.08430996;0.07849578;0.07096373;0.4089794;0.0324027;-0.0703277;0;295662.6748038892;3012.308228264454;-0.001;1;0;2;
1510740444.835593;1510740444.835593;1510740444.835715;57.77271891122719;12.77148162740634;233.734932229077;0.1609586;-0.6090064;0.008956591;-1.351658144514392;-1.815885044167937;104.9341926209193;74.27965314180331;284.8046;0.6299179;0.01847802;0.0510398;0.004615613;0.3220069;0.03668163;-0.05734447;0;295662.7148038826;3012.348228257885;-0.001;1;0;2;
1510740444.850029;1510740444.850029;1510740444.850135;57.77271897046427;12.77148121256717;233.7345299814596;0.1583587;-0.597995;0.008575759;-1.352922907912253;-1.815962631291892;104.93463326962;74.27945930386716;284.8324;0.6186078;0.03355818;-0.01230609;0.08800354;0.2331;0.0373773;0.030759;0;295662.754803876;3012.388228251315;-0.001;1;0;2;
1510740444.882992;1510740444.882992;1510740444.883097;57.77271902863853;12.77148080504142;233.734124585548;0.1562775;-0.5874797;0.008305524;-1.353028326076188;-1.816482451688303;104.9364670410451;74.27926545979835;284.8965;0.6079103;-0.02135376;-0.08111788;0.2051155;0.220135;0.03510189;0.07281065;0;295662.7948048695;3012.428229244746;-0.001;1;0;2;
1510740444.963114;1510740444.963114;1510740444.963252;57.77271908550023;12.77148040464704;233.7337146504879;0.1489499;-0.5782352;0.009387729;-1.353273883621779;-1.817044514432245;104.9371398528594;74.27907160964415;284.445;0.5971114;0.02598391;-0.02354732;-0.197752;0.2154173;0.02604183;0.05270125;0;295662.8348048629;3012.468229238177;-0.001;1;0;2;
1510740445.04297;1510740445.04297;1510740445.043077;57.77271914145938;12.77148001147803;233.7332981397262;0.1487018;-0.5665886;0.009969481;-1.353887015982418;-1.816572461547405;104.9390660237175;74.27887775347291;284.7057;0.5857772;-0.1047071;0.07802625;0.03888983;0.2800137;-0.03373341;-0.02920344;0;295662.8748048564;3012.508229231607;-0.001;1;0;2;
1510740445.12307;1510740445.12307;1510740445.123179;57.77271919637188;12.77147962506609;233.7328760472684;0.1462309;-0.5564223;0.01039499;-1.353448672696273;-1.816921024041893;104.9392483163784;74.27868389148884;284.7247;0.5753167;0.02206492;0.08761761;0.02290438;0.3498874;-0.009934586;-0.07420566;0;295662.9148048498;3012.548229225038;-0.001;1;0;2;
1510740445.178603;1510740445.178603;1510740445.178711;57.77271925039297;12.77147924518366;233.7324625113162;0.1447276;-0.5464131;0.009025632;-1.3553333927005;-1.818636704441151;104.9399935876596;74.27849002391061;284.8352;0.5652551;-0.0863037;-0.01145776;0.1489545;0.3242153;0.001646853;-0.1018617;0;295662.9548058432;3012.588230218469;-0.001;1;0;2;
1510740445.184175;1510740445.184175;1510740445.184289;57.77271927708831;12.7714790576989;233.7322602065599;0.1422254;-0.5424694;0.01045892;-1.356167984999043;-1.819802176352951;104.9405265599372;74.27839308803752;284.6912;0.560804;-0.04241518;0.04456571;-0.002878525;0.2426461;-0.01569109;-0.01043632;0;295662.9748058399;3012.608230215184;-0.001;1;0;2;
1510740445.220632;1510740445.220632;1510740445.220762;57.77271940555167;12.77147814704485;233.7312104694421;0.1347737;-0.5183073;0.009174911;-1.354672418324375;-1.820120801303084;104.9413872260982;74.27843970464393;284.5757;0.5355431;0.09321798;0.04385396;-0.04876398;0.2023483;0.01900309;0.03761272;0;295663.0748059877;3012.708230198761;-0.001;1;0;2;
1510740445.230121;1510740445.230121;1510740445.230196;57.772719455131;12.77147779430694;233.7308033590353;0.1320852;-0.5084788;0.009719954;-1.353656621087955;-1.819558688430118;104.9426987698638;74.27851147349007;284.5616;0.5253543;-0.05361892;0.1254888;0.02123959;0.2837722;0.007501503;-0.06637469;0;295663.1148069811;3012.748231192191;-0.001;1;0;2;
1510740445.247232;1510740445.247232;1510740445.247335;57.77271950382464;12.77147744772564;233.7304062367573;0.1325295;-0.4978811;0.009276476;-1.353689074916619;-1.819687899270462;104.9453211913414;74.27858323713724;284.9058;0.5152181;0.06539533;0.1091711;0.2899211;0.3593935;0.03999282;-0.07141745;0;295663.1548069746;3012.788231185622;-0.001;1;0;2;
1510740445.327317;1510740445.327317;1510740445.32744;57.77271955130466;12.77147710834236;233.7300173166419;0.1275822;-0.4856979;0.006863364;-1.352683658809773;-1.820083121856525;104.9461913304879;74.27865499462358;284.7179;0.5021749;0.08953971;-0.0126734;0.1285197;0.4305801;-0.006201198;-0.1095693;0;295663.194806968;3012.828231179053;-0.001;1;0;2;
1510740445.407223;1510740445.407223;1510740445.40733;57.77271959721962;12.77147677931437;233.729640367921;0.1216194;-0.4708602;0.005335147;-1.352321009950697;-1.818654935918544;104.946416350531;74.27872674339783;284.4825;0.4863133;0.02241221;-0.1269319;0.001358071;0.2741576;-0.03801467;0.017593;0;295663.2348069614;3012.868231172483;-0.001;1;0;2;
1510740445.44744;1510740445.44744;1510740445.447549;57.7727196195511;12.77147661863135;233.7294280007341;0.1179495;-0.4617591;0.009019263;-1.35126243842765;-1.816615420628741;104.9462031384263;74.27876261460329;284.3289;0.4765853;0.1255555;0.1584342;-0.1079618;0.6479734;0.03872211;-0.09056178;0;295663.2548079581;3012.888232169199;-0.001;1;0;2;
1510740445.527301;1510740445.527301;1510740445.527415;57.77271966283614;12.77147630907459;233.7290440124144;0.1134999;-0.4387548;0.005473118;-1.351905710229342;-1.809184811344772;104.9491270765267;74.27883434728165;284.5037;0.4531975;-0.014498;0.08930161;0.04741228;0.4429056;0.04253472;-0.0787487;0;295663.2948079515;3012.928232162629;-0.001;1;0;2;
1510740445.607303;1510740445.607303;1510740445.607378;57.77271970446061;12.77147601107902;233.7286925628637;0.1079005;-0.4233857;0.005786989;-1.350905499625188;-1.80510550085681;104.9498343228313;74.2789060699551;284.2976;0.4369187;-0.111362;0.04680004;-0.09733908;0.4722539;-0.02973191;-0.02256373;0;295663.334807945;3012.96823215606;-0.001;1;0;2;
1510740445.631155;1510740445.631155;1510740445.631238;57.77271974460916;12.77147572436784;233.7283745241646;0.1042022;-0.4085094;0.005229518;-1.348647235233916;-1.805782082092686;104.9495432464888;74.27897778283923;284.3098;0.4215899;0.06121211;-0.1650097;-0.1569723;0.3144276;0.01742549;0.1365299;0;295663.3748079384;3013.008232149491;-0.001;1;0;2;
1510740445.641365;1510740445.641365;1510740445.641463;57.77271978291873;12.77147544847953;233.7280362674896;0.1010387;-0.3918206;0.006844048;-1.348429473060884;-1.807249172131578;104.9482985669084;74.27904948646376;284.4598;0.4046383;0.01324434;-0.05614809;-0.005173618;0.2400279;-0.01450843;-0.0008324625;0;295663.4148089319;3013.048233142921;-0.001;1;0;2;
1510740445.650765;1510740445.650765;1510740445.651412;57.77271982027835;12.77147517912744;233.7277252889317;0.1017238;-0.3878197;0.007508262;-1.350899115317745;-1.814233041380039;104.9478151328867;74.27912118430098;284.6974;0.4009387;0.06071975;-0.1826796;0.1314532;0.09815293;0.01496802;0.04395168;0;295663.4548089253;3013.088233136352;-0.001;1;0;2;
1510740445.666866;1510740445.666866;1510740445.668874;57.77271985733;12.77147491137877;233.727377567718;0.09899762;-0.386269;0.006491432;-1.352461161371306;-1.825675578840178;104.9466445311423;74.27919288056076;284.375;0.3987534;0.09719475;-0.3670451;-0.06243479;0.06530167;0.03712;-0.02113459;0;295663.4948089187;3013.128233129783;-0.001;1;0;2;
1510740445.681799;1510740445.681799;1510740445.681907;57.77271989462498;12.77147464304282;233.7270277762661;0.1022661;-0.3895736;0.006275576;-1.35227974681662;-1.840931803551352;104.9469643529144;74.27926457722917;284.7087;0.4027728;0.1109007;-0.4277898;0.1364263;-0.07625669;0.02149225;-0.01569714;0;295663.5348089121;3013.168233123213;-0.001;1;0;2;
1510740445.688091;1510740445.688091;1510740445.688197;57.77271993249838;12.77147437102866;233.7266947253769;0.1030132;-0.3965754;0.005249057;-1.352312664983707;-1.858105187076083;104.9479415797209;74.27933627694672;284.5612;0.4097362;-0.08085476;-0.4950547;0.1122817;-0.2128052;0.02407317;0.04017678;0;295663.5748099056;3013.208234116644;-0.001;1;0;2;
1510740445.717382;1510740445.717382;1510740445.717451;57.77271997087757;12.77147409431374;233.7263769531067;0.1040954;-0.4050486;0.005796433;-1.351504970792103;-1.874764711485675;104.9490476783632;74.27940798068205;284.4128;0.4182107;-0.1008269;-0.4277325;0.08070014;-0.3328495;0.008930461;0.1025363;0;295663.614809899;3013.248234110074;-0.001;1;0;2;
1510740445.797557;1510740445.797557;1510740445.79766;57.7727200100442;12.77147381111631;233.7260528617842;0.108691;-0.4153111;0.007866401;-1.352868720206342;-1.888269026187853;104.9508788737236;74.27947969004722;284.6659;0.4292983;-0.02730436;-0.1880657;0.2116088;-0.349577;-0.009411694;-0.003270804;0;295663.6548098925;3013.288234103505;-0.001;1;0;2;
1510740445.847566;1510740445.847566;1510740445.847665;57.7727200503768;12.77147352001996;233.7257615304817;0.1104418;-0.4280033;0.007696907;-1.353656666089621;-1.900332384693175;104.9511775247634;74.27955140610412;284.469;0.4420228;0.07786807;-0.125717;-0.01736703;-0.2644046;-0.002203243;-0.05525798;0;295663.6948098859;3013.328234096936;-0.001;1;0;2;
1510740445.897771;1510740445.897771;1510740445.897981;57.77272009203342;12.77147322009953;233.7254696908418;0.1142676;-0.4411972;0.006053149;-1.353309706019393;-1.910352041482774;104.9498911923087;74.27962312966802;284.5202;0.4557544;0.004255371;-0.1210073;-0.006355009;-0.271175;0.00744746;-0.09803916;0;295663.7348108793;3013.368235090366;-0.001;1;0;2;
1510740445.977515;1510740445.977515;1510740445.977724;57.77272013524227;12.77147291017313;233.7251949849634;0.1180617;-0.4580178;0.004767377;-1.354561684210621;-1.919380170219555;104.9490316018862;74.27969486173816;284.4543;0.4729893;-0.1509691;-0.2068132;-0.0350716;-0.4140639;-0.02073754;-0.02356273;0;295663.7748108727;3013.408235083797;-0.001;1;0;2;
1510740446.041691;1510740446.041691;1510740446.041803;57.77272018011079;12.77147258890469;233.7248966221284;0.1228982;-0.4764189;0.004109906;-1.356907250324183;-1.927154661522857;104.9485793740734;74.27976660346269;284.4648;0.4920152;-0.2886268;-0.322241;0.02539807;-0.5411043;0.04268;0.1214149;0;295663.8148108661;3013.448235077228;-0.001;1;0;2;
1510740446.0487;1510740446.0487;1510740446.048889;57.7727202267109;12.7714722550328;233.7245676174712;0.1279257;-0.4964624;0.006141001;-1.359597306419284;-1.934022373195182;104.9488333038232;74.2798383559155;284.4493;0.5126791;-0.0914267;-0.2230629;-0.05154974;-0.6144377;-0.009211166;0.1078603;0;295663.8548108596;3013.488235070658;-0.001;1;0;2;
1510740446.05473;1510740446.05473;1510740446.054831;57.77272027525772;12.77147190717018;233.7242168931811;0.1349377;-0.5181103;0.009397494;-1.362388915013138;-1.939477792349277;104.9494930100661;74.27991012028384;284.5979;0.5353937;-0.02983364;0.007700031;0.05256765;-0.6546478;-0.02327674;0.03671484;0;295663.894811853;3013.528236064089;-0.001;1;0;2;
1510740446.067008;1510740446.067008;1510740446.067159;57.77272032605306;12.77147154322892;233.7238570339806;0.1424565;-0.5424894;0.008501926;-1.36456307277468;-1.945903731488493;104.9505107230409;74.27998189823306;284.7135;0.560882;0.04363101;-0.0963719;0.1547828;-0.5906152;-0.002496339;-0.01948137;0;295663.9348118465;3013.56823605752;-0.001;1;0;2;
1510740446.082805;1510740446.082805;1510740446.08291;57.7727204068017;12.77147096482158;233.7232973429368;0.1502526;-0.5837399;0.008825;-1.367741274472221;-1.957873684630725;104.9528463614578;74.28008959257538;284.4344;0.602767;-0.01026025;-0.1932019;-0.09045341;-0.7598243;-0.003271894;0.1337264;0;295663.9948118366;3013.628236047666;-0.001;1;0;2;
1510740446.089546;1510740446.089546;1510740446.089653;57.77272043709358;12.77147076387559;233.7230788431622;0.1541691;-0.5962909;0.008440916;-1.367873386218462;-1.960486419319957;104.9535894195847;74.27978725693394;284.4962;0.6158985;-0.02799464;-0.1536482;-0.05123919;-0.6786993;-0.01361754;0.0009708675;0;295664.0148109976;3013.648236044377;-0.001;1;0;2;
1510740446.132869;1510740446.132869;1510740446.133028;57.77272046664256;12.7714705574558;233.7228788696283;0.1582406;-0.6110862;0.00955594;-1.369354490352419;-1.965128171845526;104.9556470132323;74.27948492523052;284.5178;0.631242;-0.18511;-0.1582435;-0.01593374;-0.7207524;-0.01593587;0.01662891;0;295664.0348109943;3013.668236041087;-0.001;1;0;2;
1510740446.190093;1510740446.190093;1510740446.190155;57.77272049673374;12.77147034649336;233.7226644050922;0.1632329;-0.624193;0.008319319;-1.370234455792808;-1.968517767703234;104.9564722040969;74.27918259738313;284.6552;0.6451836;-0.1907019;-0.2390188;0.1369765;-0.7813451;0.01461618;0.1085226;0;295664.054811991;3013.688237037797;-0.001;1;0;2;
1510740446.263016;1510740446.263016;1510740446.263179;57.77272055875247;12.77146991072929;233.7222022293839;0.1689705;-0.6520194;0.009890002;-1.370432685301525;-1.973193051832352;104.9567504730031;74.27857795345469;284.5286;0.6735579;-0.05591959;-0.1176673;-0.03196506;-0.8096851;0.01546723;0.1177414;0;295664.0948119844;3013.728237031216;-0.001;1;0;2;
1510740446.34333;1510740446.34333;1510740446.343493;57.77272062337357;12.7714694564059;233.7217379781598;0.174786;-0.6799553;0.01120521;-1.369974222420931;-1.977017198039202;104.957076911483;74.27797332527595;284.416;0.7020608;0.01442806;-0.02473424;-0.1714338;-0.7455058;0.0001797887;0.04378309;0;295664.1348119779;3013.768237024636;-0.001;1;0;2;
1510740446.422892;1510740446.422892;1510740446.42302;57.77272069071523;12.77146898390336;233.7212546309206;0.1842364;-0.7062626;0.01145765;-1.370120587288886;-1.978219920568863;104.9593206254765;74.27736871266752;284.6204;0.7298971;0.06445861;0.03794675;0.02303855;-0.6483559;0.01007805;-0.01212742;0;295664.1748119713;3013.808237018056;-0.001;1;0;2;
1510740446.499872;1510740446.499872;1510740446.500041;57.77272076046692;12.77146849324072;233.7207518807175;0.1910888;-0.732355;0.01095126;-1.369483615160551;-1.977199658304407;104.959459642475;74.27676411544438;284.6238;0.7568744;-0.05261911;0.05956996;0.03182761;-0.5902786;0.01772611;-0.06548184;0;295664.2148129647;3013.848238011476;-0.001;1;0;2;
1510740446.514976;1510740446.514976;1510740446.515159;57.77272087027936;12.77146772373355;233.7200054165546;0.2041374;-0.7721713;0.01225912;-1.366793622884741;-1.976337973995864;104.9620341606277;74.2758572480529;284.8084;0.7986993;0.09065402;0.1071135;0.159734;-0.6641601;0.01387086;0.02396555;0;295664.2748129548;3013.908238001605;-0.001;1;0;2;
1510740446.527584;1510740446.527584;1510740446.527681;57.77272094653944;12.7714671887722;233.7194644395732;0.2088443;-0.7985429;0.01242619;-1.364612624279931;-1.973554170338271;104.9632427925993;74.27525268845011;284.6564;0.8254009;0.1948744;0.1001118;-0.03440608;-0.5801139;-0.01993132;-0.04292624;0;295664.3148129482;3013.948237995025;-0.001;1;0;2;
1510740446.542919;1510740446.542919;1510740446.543028;57.7727210251938;12.77146663656837;233.7189020956153;0.2169511;-0.8229775;0.01341345;-1.364105389225861;-1.969864370587444;104.9646445462577;74.27464814346007;284.7682;0.8510932;0.08907234;0.1926668;0.1215064;-0.5797282;-0.04215465;-0.06655969;0;295664.3548129416;3013.988237988445;-0.001;1;0;2;
1510740446.549288;1510740446.549288;1510740446.549389;57.77272106544758;12.77146635396628;233.7186390786783;0.2173124;-0.8379446;0.01304732;-1.366495883916203;-1.969523222372727;104.9654204343465;74.27434587636249;284.5388;0.865665;-0.1576535;0.09309843;-0.1371827;-0.7158241;0.02354985;0.1052881;0;295664.3748139383;3014.008238985155;-0.001;1;0;2;
1510740446.555162;1510740446.555162;1510740446.555269;57.77272114783299;12.77146577595398;233.7180651821523;0.2275504;-0.8622653;0.01309564;-1.366584997693152;-1.965829097752614;104.9654175845172;74.27374135313769;284.7832;0.8917851;0.1263027;0.1022539;0.04554422;-0.6368073;0.002959697;-0.005066161;0;295664.4148139317;3014.048238978574;-0.001;1;0;2;
1510740446.562681;1510740446.562681;1510740446.562783;57.77272123318758;12.77146518047466;233.7174936041524;0.2352822;-0.8885733;0.01205204;-1.367523305561359;-1.963380108018992;104.9673745615326;74.27313684470352;284.8308;0.9191954;-0.157906;0.02037849;0.1276716;-0.6358014;-0.006792054;-0.03484409;0;295664.4548139252;3014.088238971994;-0.001;1;0;2;
1510740446.610446;1510740446.610446;1510740446.610509;57.77272132090469;12.77146456677212;233.7169198283247;0.2410968;-0.9163856;0.01233005;-1.368322722141703;-1.96381972543903;104.9663332364514;74.27253235142902;284.7402;0.9475707;-0.009888833;-0.04829626;-0.05945547;-0.7432284;-0.00110761;-0.002952877;0;295664.4948139186;3014.128238965414;-0.001;1;0;2;
1510740446.687742;1510740446.687742;1510740446.687805;57.77272141159325;12.77146393492516;233.7163313438809;0.2505899;-0.94354;0.01309776;-1.371443290218362;-1.966502021848531;104.9701063049209;74.27192787357295;284.8735;0.9762495;-0.2729093;-0.0904776;0.2298181;-0.7830877;-0.02582576;0.1511294;0;295664.534814912;3014.168239958834;-0.001;1;0;2;
1510740446.767642;1510740446.767642;1510740446.767748;57.77272150471902;12.77146328471674;233.7157186284634;0.2579874;-0.970723;0.01477125;-1.374427605580097;-1.968426355122406;104.9726723699451;74.271323411235;284.8834;1.004421;-0.002669135;-0.01138744;0.1616365;-0.7285936;-0.007916197;0.1464205;0;295664.5748149055;3014.208239952253;-0.001;1;0;2;
1510740446.841413;1510740446.841413;1510740446.841527;57.77272160046932;12.7714626161926;233.7150709710131;0.2648013;-0.9975093;0.01773882;-1.376924884844752;-1.968549836787344;104.9750859199465;74.27071896447319;284.867;1.032058;0.1388509;0.2131532;0.08750771;-0.6325707;-0.07400999;-0.05674003;0;295664.6148148989;3014.248239945673;-0.001;1;0;2;
1510740446.88303;1510740446.88303;1510740446.88356;57.77272169884378;12.77146192886034;233.7144250862639;0.2714343;-1.026626;0.01356862;-1.376846568866767;-1.970282748167093;104.9758292560043;74.27011453351335;284.8098;1.061903;0.1843321;-0.09313738;-0.05204121;-0.6947375;-0.06566174;-0.1256416;0;295664.6548148923;3014.288239939093;-0.001;1;0;2;
1510740446.923872;1510740446.923872;1510740446.923975;57.77272180008314;12.77146122164868;233.7137395675841;0.278662;-1.058477;0.01335225;-1.379661658574447;-1.972447031966232;104.9773902106475;74.26951011934574;284.7494;1.094544;-0.2115682;-0.2342566;-0.03448585;-0.8927175;0.03821665;0.1039775;0;295664.6948158857;3014.328240932512;-0.001;1;0;2;
1510740446.932412;1510740446.932412;1510740446.932867;57.77272190429009;12.77146049307258;233.7130122633867;0.287521;-1.091441;0.01865544;-1.383309412597119;-1.976297799066265;104.9792279539495;74.26890572317484;284.7583;1.128677;-0.05095711;-0.1108198;0.01429566;-0.9591412;0.09891875;0.3457955;0;295664.7348158791;3014.368240925932;-0.001;1;0;2;
1510740446.945615;1510740446.945615;1510740446.945833;57.77272201167013;12.77145974171664;233.71220353437;0.299437;-1.124513;0.02145242;-1.383470334816143;-1.980667066990156;104.9804134059999;74.26830134627066;284.9108;1.163698;0.2246345;0.0304362;0.1683632;-0.802018;-0.04927512;-0.05958689;0;295664.7748158725;3014.408240919352;-0.001;1;0;2;
1510740446.953804;1510740446.953804;1510740446.953959;57.77272212266497;12.77145896585661;233.7113892048315;0.3087694;-1.162727;0.01733288;-1.384550193262118;-1.990072702518607;104.9820776567954;74.26769698987447;284.872;1.203027;-0.0931487;-0.3361522;0.1069423;-0.9735062;-0.05966422;0.02064155;0;295664.8148158659;3014.448240912772;-0.001;1;0;2;
1510740446.960694;1510740446.960694;1510740446.960793;57.7727222373184;12.77145816376354;233.7105684976133;0.3188939;-1.20415;0.01907358;-1.388538314209941;-2.0044722505924;104.9835584511056;74.26709265539603;284.8331;1.245661;-0.2119099;-0.4807094;0.1213922;-1.096916;0.170106;0.2643529;0;295664.8548168594;3014.488241906191;-0.001;1;0;2;
1510740446.96728;1510740446.96728;1510740446.967381;57.77272235607531;12.77145733403126;233.7096881240116;0.3309776;-1.24584;0.02124973;-1.387583735061237;-2.019938849972196;104.9851096376127;74.26648834432116;284.8779;1.289055;0.1302369;-0.3610653;0.05036848;-1.110643;-0.03624616;0.02532296;0;295664.8948168528;3014.528241899611;-0.001;1;0;2;
1510740446.973292;1510740446.973292;1510740446.973449;57.7727224791283;12.77145647476979;233.7087921906307;0.3414746;-1.291384;0.02078733;-1.390021023535671;-2.039500217746938;104.987301922282;74.26588405802232;284.8115;1.335769;-0.4215633;-0.5381547;0.04438659;-1.18094;0.04603476;0.07435828;0;295664.9348168462;3014.568241893031;-0.001;1;0;2;
1510740447.093053;1510740447.093053;1510740447.093183;57.77272267243941;12.77145512784877;233.7074239214222;0.3616368;-1.362158;0.02080441;-1.39029769596249;-2.073769007713579;104.991240988573;74.26497767751583;284.8683;1.409346;0.1190792;-0.6245227;-0.05451722;-1.27094;-0.06350961;0.03938432;0;295664.9948178363;3014.628242883161;-0.001;1;0;2;
1510740447.133058;1510740447.133058;1510740447.133158;57.77272273905401;12.77145466303043;233.7069543483349;0.3696957;-1.386728;0.02080093;-1.391173098909845;-2.085042033641884;104.9932385742412;74.26497700646992;284.9276;1.435162;-0.0373297;-0.6945879;0.1365203;-1.264687;0.05417066;0.03638668;0;295665.0148179976;3014.648242879872;-0.001;1;0;2;
1510740447.29714;1510740447.29714;1510740447.297266;57.77272287582304;12.7714537079839;233.7060105011869;0.3820432;-1.437618;0.02323125;-1.391547437403051;-2.107507118258422;104.9954662276452;74.26497568581772;284.8822;1.487516;-0.0993333;-0.5043788;-0.005847922;-1.390384;-0.02457413;0.1463948;0;295665.054817991;3014.688242873295;-0.001;1;0;2;
