SampleTimeStamp;SentTimeStamp;ReceivedTimeStamp;lat;lon;alt;vel_north;vel_east;vel_down;roll;pitch;heading;wander;track;speed;arate_lon;arate_trans;arate_down;accel_lon;accel_trans;accel_down;alignment;timeDistance.time1;timeDistance.time2;timeDistance.distanceTag;timeDistance.time1Type;timeDistance.time2Type;timeDistance.distanceType;
1510743937.087297;1510743937.087297;1510743937.087453;57.77342034949816;12.76656481071212;218.8489183083182;-0.8897229;2.689826;-0.08719433;-1.452174463877143;-4.375348697122305;287.6086556744809;162.8040411866718;108.3028;2.833156;-0.1051861;0.07395207;0.2526677;0.125232;-0.03208469;0.0737353;1;299155.1568859605;6504.790657988598;-0.001;1;0;2;
1510743937.156909;1510743937.156909;1510743937.15702;57.77342010310589;12.76656665606634;218.8514348634777;-0.8858949;2.690187;-0.07852705;-1.454869017908894;-4.361353694744444;287.6090141531541;162.8043445999934;108.227;2.832299;0.1499726;0.5105318;-0.002308822;-0.09960462;-0.05604185;0.1089913;1;299155.1968859505;6504.830657978537;-0.001;1;0;2;
1510743937.210648;1510743937.210648;1510743937.210727;57.77341997982264;12.76656757839348;218.8526422951183;-0.8854846;2.688024;-0.08201011;-1.452502947363902;-4.351907451551473;287.609527119785;162.8044963067809;108.2328;2.830116;0.1456404;0.3607158;0.02366895;0.105126;0.03079409;-0.01775493;1;299155.2168859454;6504.850657973506;-0.001;1;0;2;
1510743937.290633;1510743937.290633;1510743937.290713;57.77341973378217;12.76656942129075;218.8550381120122;-0.8804706;2.687737;-0.07817636;-1.4407748148634;-4.330333007360469;287.6108224317787;162.8047997216142;108.1382;2.828278;-0.07334419;0.5542034;0.005392089;-0.1429245;0.1160242;0.2670938;1;299155.2568869354;6504.890658963443;-0.001;1;0;2;
1510743937.363106;1510743937.363106;1510743937.363274;57.77341948899062;12.76657126485109;218.8573805905747;-0.8788124;2.687671;-0.07719214;-1.428721882603802;-4.305725242139474;287.6127697932483;162.8051031357312;108.1067;2.8277;0.4533828;0.6109036;0.2105444;0.1005744;0.02662471;0.06157723;1;299155.2968869253;6504.930658953382;-0.001;1;0;2;
1510743937.443062;1510743937.443062;1510743937.443288;57.77341924552879;12.76657310900123;218.8596884825708;-0.8747644;2.688947;-0.07776447;-1.422876240596642;-4.282889865115224;287.6151196480997;162.805406549494;108.0207;2.827658;0.05648409;0.484327;0.2035202;0.07792474;-0.1005523;-0.1569324;1;299155.3368869153;6504.97065894332;-0.001;1;0;2;
1510743937.62052;1510743937.62052;1510743937.620582;57.77341875846911;12.76657679955027;218.8645029687446;-0.8736308;2.691708;-0.08122738;-1.410302795339469;-4.269435230057831;287.6175135747964;162.8060133764535;107.9816;2.829934;0.3242706;-0.08286297;-0.06218151;-0.0737673;0.02450325;0.06827372;1;299155.4168878951;6505.050659923196;-0.001;1;0;2;
1510743937.70055;1510743937.70055;1510743937.700624;57.77341851394338;12.76657864482567;218.8670096392854;-0.8761253;2.690889;-0.08089546;-1.400031864950903;-4.273067825747508;287.6174615132786;162.8063167903297;108.0347;2.829925;0.189764;0.007125999;0.08165351;0.05109604;-0.1074084;-0.1549265;1;299155.4568878851;6505.090659913134;-0.001;1;0;2;
1510743937.780524;1510743937.780524;1510743937.780587;57.77341826900477;12.76658049086669;218.8694987764548;-0.8741062;2.6946;-0.0837407;-1.40806223537258;-4.278430078097109;287.6160861472005;162.8066202039817;107.9726;2.832831;-0.5370401;-0.3445424;-0.1213789;-0.1471634;-0.05156559;0.1220814;1;299155.496887875;6505.130659903072;-0.001;1;0;2;
1510743937.860498;1510743937.860498;1510743937.860559;57.77341802316797;12.76658233721345;218.8718985683314;-0.8766419;2.693594;-0.07565906;-1.424566473262797;-4.282858617870589;287.615001482447;162.8069236174593;108.0277;2.832658;-0.5572763;0.03188761;0.05250072;-0.0918097;0.1209865;0.2200838;1;299155.5368878649;6505.17065989301;-0.001;1;0;2;
1510743937.948384;1510743937.948384;1510743937.948529;57.77341765278741;12.76658510626378;218.8753494867901;-0.8765047;2.694746;-0.07455765;-1.449219993334766;-4.274132962803513;287.6162220068703;162.8073787373388;108.0179;2.833711;-0.5401111;0.3490623;-0.02222502;-0.09679163;0.06150937;0.1206973;1;299155.5968888498;6505.230660877917;-0.001;1;0;2;
1510743937.965763;1510743937.965763;1510743937.965868;57.77341740585034;12.76658695313723;218.8776265096192;-0.876304;2.695138;-0.07522526;-1.471301969213302;-4.263045919983254;287.6205930365316;162.8076821495902;108.0116;2.834021;-0.2300291;0.3861197;0.04656296;0.0503495;-0.08101968;-0.195241;1;299155.6368888398;6505.270660867855;-0.001;1;0;2;
1510743937.980814;1510743937.980814;1510743937.980919;57.7734171591559;12.76658880187994;218.8799195401527;-0.8741888;2.700071;-0.07691514;-1.499709407372491;-4.255360548229723;287.6276147826926;162.8079855603589;107.9401;2.838061;-0.7522436;0.07908322;0.2122604;-0.058401;-0.02557476;0.03611974;1;299155.6768888297;6505.310660857794;-0.001;1;0;2;
1510743937.99151;1510743937.99151;1510743937.991618;57.77341691300386;12.76659065232647;218.8821927559248;-0.8718103;2.70173;-0.07683531;-1.523721606099308;-4.249961818498717;287.6355258776433;162.8082889696598;107.8842;2.838908;-0.6290246;0.07656077;0.2857122;-0.04586944;0.1089352;-0.003624493;1;299155.7168898197;6505.350661847731;-0.001;1;0;2;
1510743938.002234;1510743938.002234;1510743938.002339;57.77341666731424;12.7665925042814;218.8845466592961;-0.8724144;2.702907;-0.08038604;-1.529765669550603;-4.245777382299395;287.6405881866625;162.8085923775883;107.8885;2.840213;-0.0009522574;0.06318759;0.3270906;0.0637733;-0.004717723;-0.1586107;1;299155.7568898096;6505.39066183767;-0.001;1;0;2;
1510743938.012646;1510743938.012646;1510743938.012776;57.77341642217753;12.76659435815497;218.8870097731439;-0.8638332;2.709363;-0.08080593;-1.531721629343157;-4.245948949069175;287.6440533752365;162.8088957840762;107.684;2.84374;-0.2544162;-0.05880589;-0.1640231;-0.1168899;0.04371215;0.1877171;1;299155.7968897995;6505.430661827608;-0.001;1;0;2;
1510743938.023572;1510743938.023572;1510743938.023689;57.77341617740648;12.76659621417697;218.8893642896354;-0.8642642;2.711303;-0.07904429;-1.526215851723814;-4.242420686509886;287.6467107867262;162.8091991885259;107.6804;2.845719;-0.2009827;-0.0673197;0.1126683;-0.02616223;0.1103201;0.02789862;1;299155.8368897894;6505.470661817546;-0.001;1;0;2;
1510743938.037164;1510743938.037164;1510743938.037296;57.77341593289771;12.76659807182918;218.8916095033255;-0.8643607;2.71397;-0.07414264;-1.507468056552797;-4.233094606873151;287.6467220376738;162.8095025912951;107.6659;2.848289;0.5788881;0.2942386;0.004827346;-0.09408549;0.009250477;-0.02431384;1;299155.8768907794;6505.510662807484;-0.001;1;0;2;
1510743938.1169;1510743938.1169;1510743938.117002;57.77341568856668;12.76659993240301;218.8938085969345;-0.8627225;2.718783;-0.07625683;-1.490462579300906;-4.224072657029288;287.6475724532611;162.8098059915899;107.6052;2.85238;0.1262075;0.02197169;0.1370545;-0.1711914;0.09188396;0.2446257;1;299155.9168907693;6505.550662797422;-0.001;1;0;2;
1510743938.187757;1510743938.187757;1510743938.188365;57.77341544473349;12.76660179498773;218.8958265256675;-0.8563311;2.723036;-0.07012106;-1.468492939708345;-4.205570977000192;287.6469342210676;162.8101093898131;107.4571;2.85451;0.3204035;0.3332019;-0.2006786;-0.1046876;0.0352513;0.02736876;1;299155.9568907593;6505.59066278736;-0.001;1;0;2;
1510743938.408151;1510743938.408151;1510743938.408259;57.77341493933396;12.76660551329461;218.899536543436;-0.8635173;2.72626;-0.07203853;-1.44286537413899;-4.174098364512596;287.6544814749717;162.8106599139032;107.5751;2.859748;0.15712;0.4106994;0.2019618;-0.1452787;-0.1327205;-0.01957342;1;299156.0368909907;6505.670663767229;-0.001;1;0;2;
1510743938.413289;1510743938.413289;1510743938.413392;57.77341467810781;12.76660736835495;218.9014144636918;-0.8674076;2.727576;-0.07556763;-1.432666298068655;-4.154152838337928;287.6575672005288;162.8109132930632;107.6414;2.862179;0.3821294;0.5795726;0.1296552;-0.05473922;-0.1218251;-0.2337246;1;299156.0768909807;6505.71066375716;-0.001;1;0;2;
1510743938.423346;1510743938.423346;1510743938.423455;57.77341441592117;12.76660922433634;218.903430783348;-0.8669466;2.730217;-0.07728799;-1.42413965766986;-4.129624720754778;287.6600575848797;162.8111666713215;107.6166;2.864556;-0.09947489;0.7124988;0.08112621;-0.01223382;-0.1271394;-0.0817264;1;299156.1168909706;6505.750663747091;-0.001;1;0;2;
1510743938.430311;1510743938.430311;1510743938.430452;57.77341415362642;12.76661108294219;218.9055342442084;-0.8645361;2.734794;-0.08098241;-1.43404883422088;-4.107076666186125;287.6621398451472;162.8114200477492;107.543;2.868192;-0.5860295;0.3610708;-0.008232335;-0.03410247;0.1562357;0.1973871;1;299156.1568919605;6505.790664737022;-0.001;1;0;2;
1510743938.436377;1510743938.436377;1510743938.436481;57.77341389074069;12.76661294384343;218.9075879242698;-0.8679083;2.739483;-0.07800398;-1.444003520877964;-4.089220980158264;287.6656503862473;162.8116734223455;107.579;2.873679;-0.3047329;0.2600009;0.0714078;-0.1212029;0.005418899;0.04176972;1;299156.1968919504;6505.830664726953;-0.001;1;0;2;
1510743938.444818;1510743938.444818;1510743938.444919;57.7734134957814;12.76661574156929;218.9104487695743;-0.8683956;2.745794;-0.07017352;-1.453390581127357;-4.077918289000905;287.6667482210737;162.8120534795702;107.5503;2.879843;-0.05368797;0.1514942;0.1136685;-0.06159942;0.02109298;0.03307659;1;299156.2568919353;6505.890664711849;-0.001;1;0;2;
1510743938.490643;1510743938.490643;1510743938.490755;57.77341323230507;12.76661761102993;218.9121838790271;-0.8647996;2.753114;-0.0698619;-1.458507545650471;-4.080888675196168;287.6677408856406;162.8123068477852;107.4384;2.885743;-0.4570251;-0.3122211;-0.1041575;-0.1947706;0.1483011;0.3206591;1;299156.2968929253;6505.930665701781;-0.001;1;0;2;
1510743938.570661;1510743938.570661;1510743938.570834;57.77341296892139;12.76661948352559;218.9136755700634;-0.8685548;2.755309;-0.06202891;-1.453580023861407;-4.082749407164915;287.6717282098397;162.812560213079;107.4964;2.888964;0.2916662;-0.05080477;0.2745656;-0.08607744;0.03905533;-0.04879018;1;299156.3368929152;6505.970665691711;-0.001;1;0;2;
1510743938.707158;1510743938.707158;1510743938.707323;57.77341257512895;12.76662229684473;218.9160105659182;-0.862916;2.760327;-0.06445436;-1.449573629592726;-4.095837164994467;287.6769710163707;162.8129402576404;107.36;2.892063;0.1673585;-0.1538905;0.2094094;-0.06258395;0.1594821;0.006988446;1;299156.3968929001;6506.030665676608;-0.001;1;0;2;
1510743938.830609;1510743938.830609;1510743938.830758;57.77341218179662;12.7666251116541;218.9184602860261;-0.8625962;2.758698;-0.06607857;-1.444079848223508;-4.097251388191939;287.6841514019055;162.8133203003658;107.3635;2.890413;0.2383589;0.2450239;0.2131225;-0.02129578;-0.03207733;-0.05723817;1;299156.456893885;6506.090666661505;-0.001;1;0;2;
1510743938.879199;1510743938.879199;1510743938.879305;57.7734119198477;12.76662698663199;218.9200905555637;-0.8602168;2.756721;-0.06899685;-1.439860341412662;-4.080103263544874;287.6860795533752;162.8135736629345;107.3302;2.887817;0.04788473;0.5349737;-0.01397372;0.09105048;-0.08839253;-0.3377354;1;299156.4968938749;6506.130666651436;-0.001;1;0;2;
1510743938.885489;1510743938.885489;1510743938.885595;57.77341165785986;12.76662886021917;218.9217428948851;-0.859708;2.755035;-0.06949218;-1.44231881320975;-4.053427071577472;287.6874382403965;162.8138270264424;107.3305;2.886055;-0.1910964;0.5863332;0.03212593;0.02020545;-0.08813491;-0.03573478;1;299156.5368938649;6506.170666641367;-0.001;1;0;2;
1510743938.890837;1510743938.890837;1510743938.890926;57.7734113959875;12.76663073218218;218.923416993218;-0.8581385;2.752663;-0.06854674;-1.450991466402284;-4.025343885953898;287.6877437026816;162.8140803914193;107.3148;2.883323;-0.364497;0.6523829;0.01819114;-0.02293943;0.00666536;0.142168;1;299156.5768948548;6506.210667631298;-0.001;1;0;2;
1510743938.896373;1510743938.896373;1510743938.896477;57.77341113371532;12.76663260157802;218.9251055492971;-0.8613292;2.747285;-0.06738893;-1.450876598716997;-3.998640278917622;287.6907539894905;162.8143337583437;107.4073;2.879143;0.2170158;0.711019;0.2293819;0.149622;-0.008537232;-0.01838158;1;299156.6168948447;6506.250667621229;-0.001;1;0;2;
1510743938.902255;1510743938.902255;1510743938.902359;57.77341087183097;12.76663446908401;218.9268894630158;-0.8564242;2.745287;-0.06972476;-1.455662310157031;-3.980812881073083;287.6927841261365;162.8145871273405;107.3259;2.875772;-0.2578846;0.5131549;0.04045568;0.2259647;-0.02003899;-0.1540582;1;299156.6568948347;6506.29066761116;-0.001;1;0;2;
1510743938.908295;1510743938.908295;1510743938.908395;57.77341061055944;12.76663633423835;218.9286972574578;-0.8552724;2.741837;-0.07162724;-1.468604172395886;-3.969163674342109;287.6964947107448;162.8148404986141;107.3245;2.872135;-0.2414188;0.166826;0.2246599;0.174445;0.08674373;0.02034321;1;299156.6968948246;6506.330667601091;-0.001;1;0;2;
1510743938.921423;1510743938.921423;1510743938.92213;57.77341034990355;12.76663819720407;218.930467728201;-0.8510855;2.739338;-0.07136765;-1.47475716919689;-3.962101559882079;287.6985615660396;162.8150938718932;107.2595;2.868505;-0.5068807;0.008988213;0.07060368;0.03553908;0.06123072;0.05146081;1;299156.7368958145;6506.370668591022;-0.001;1;0;2;
1510743938.960573;1510743938.960573;1510743938.960677;57.77341009042269;12.76664005752767;218.9321602905433;-0.8479753;2.735228;-0.0667483;-1.47711560316821;-3.955531071955679;287.6987659057654;162.8153472474594;107.2245;2.863657;0.05801771;0.22804;-0.0178951;-0.02411371;0.01376411;0.1221176;1;299156.7768958044;6506.410668580953;-0.001;1;0;2;
1510743939.040598;1510743939.040598;1510743939.040704;57.77340983204335;12.76664191534388;218.9338027202004;-0.8433229;2.732379;-0.06354773;-1.48094690260984;-3.94678148921246;287.6993538043191;162.8156006250653;107.1523;2.859561;0.1065349;0.4243569;-0.01924751;0.05562831;0.1423972;0.023972;1;299156.8168957944;6506.450668570884;-0.001;1;0;2;
1510743939.120555;1510743939.120555;1510743939.120617;57.77340957463124;12.76664377076905;218.9353379904967;-0.8412666;2.727891;-0.06093051;-1.480611535423547;-3.932183069203828;287.7012161587881;162.8158540043331;107.1395;2.854666;0.0330812;0.5775651;0.0672342;0.1982625;0.01769121;-0.08578617;1;299156.8568967843;6506.490669560815;-0.001;1;0;2;
1510743939.190665;1510743939.190665;1510743939.190809;57.77340931786424;12.76664562361436;218.9368248962082;-0.8391218;2.723819;-0.06075922;-1.486205511070974;-3.917320285430259;287.7046087638068;162.81610738579;107.1224;2.850143;0.05929847;0.4759341;0.06642028;0.1527905;-0.03287718;-0.07288834;1;299156.8968967742;6506.530669550746;-0.001;1;0;2;
1510743939.270595;1510743939.270595;1510743939.270697;57.77340906117554;12.76664747409057;218.9382681215091;-0.8372613;2.721812;-0.06292761;-1.494823217711025;-3.905235932322437;287.7087021114999;162.8163607693733;107.0985;2.847677;-0.3215569;0.08988842;0.02971642;0.03220347;0.0817156;0.220731;1;299156.9368967641;6506.570669540677;-0.001;1;0;2;
1510743939.29753;1510743939.29753;1510743939.297633;57.77340880430051;12.76664932278432;218.939572611591;-0.8392035;2.719138;-0.05698434;-1.494094974253598;-3.894296832605976;287.7145992883339;162.8166141542691;107.1517;2.845694;0.04187884;0.2464426;0.2031382;0.01696781;0.007810272;0.1517016;1;299156.9768967541;6506.610669530608;-0.001;1;0;2;
1510743939.303539;1510743939.303539;1510743939.303641;57.77340867557179;12.76665024474899;218.9403792897538;-0.8381958;2.715924;-0.05883519;-1.489510051599285;-3.890774871742748;287.7170233851606;162.8167637652844;107.1514;2.842325;0.1088497;0.08977479;0.1557238;0.2251093;0.08804432;-0.007938921;1;299156.9968967491;6506.630669525573;-0.001;1;0;2;
1510743939.312466;1510743939.312466;1510743939.312576;57.77340854250767;12.76665115845796;218.9417254720447;-0.8362409;2.715303;-0.05511763;-1.490104293360134;-3.890183948023031;287.7197436273977;162.8169821308157;107.1174;2.841156;0.3590822;0.2459163;0.05887156;0.008070466;-0.07120236;0.08751483;1;299157.0168979958;6506.650670520542;-0.001;1;0;2;
1510743939.325506;1510743939.325506;1510743939.326003;57.77340827676641;12.76665298485337;218.9443331586553;-0.8346781;2.713881;-0.05765076;-1.495049174322718;-3.885038655948967;287.7265942415548;162.8174188625763;107.0957;2.839338;-0.1146488;0.03351048;0.1728206;0.1784224;-0.04658283;-0.1060385;1;299157.0568979857;6506.69067051048;-0.001;1;0;2;
1510743939.334765;1510743939.334765;1510743939.334872;57.77340801165909;12.76665480911044;218.947007496646;-0.8325438;2.707873;-0.05694056;-1.500034950982302;-3.886581413727174;287.7320220940271;162.8178555964817;107.0902;2.832968;0.1178905;0.08698983;0.06042966;0.2150716;-0.1449966;-0.1685042;1;299157.0968979757;6506.730670500418;-0.001;1;0;2;
1510743939.345785;1510743939.345785;1510743939.346692;57.77340774716231;12.76665663069993;218.9496789800306;-0.8292933;2.706204;-0.06073774;-1.508763779947286;-3.889795776266654;287.7342714863931;162.8182923329292;107.0372;2.830419;-0.2473222;-0.2883302;-0.07206062;0.1094962;-0.01117356;0.005795963;1;299157.1368979656;6506.770670490357;-0.001;1;0;2;
1510743939.357372;1510743939.357372;1510743939.35748;57.77340748300414;12.76665844919674;218.9522646136749;-0.8291472;2.700579;-0.05565209;-1.512527488313599;-3.890674671153339;287.7354619385721;162.8187290718745;107.0678;2.824997;-0.1525554;-0.1187244;0.08453915;0.004103451;0.1742632;0.2155206;1;299157.1768989555;6506.810671480294;-0.001;1;0;2;
1510743939.493343;1510743939.493343;1510743939.493407;57.77340708905425;12.76666117098433;218.9559503833746;-0.823419;2.691645;-0.05393182;-1.522295029533418;-3.88204855318815;287.7370207981691;162.8193841850172;107.0097;2.814777;-0.3088466;0.2436002;0.1322659;0.1310656;-0.01940747;-0.09978531;1;299157.2368989404;6506.870671465202;-0.001;1;0;2;
1510743939.570645;1510743939.570645;1510743939.570707;57.77340682779774;12.76666298110246;218.9584929010004;-0.8179247;2.68804;-0.05718006;-1.53506465874197;-3.871882720266068;287.7392978465523;162.8198209307039;106.9241;2.809726;-0.3924414;0.2439662;-0.04015964;0.16928;0.1083879;-0.07730135;1;299157.2768989304;6506.91067145514;-0.001;1;0;2;
1510743939.650659;1510743939.650659;1510743939.650722;57.77340656688501;12.76666478767212;218.9611201758711;-0.82041;2.68184;-0.05779556;-1.549631325062716;-3.86017039011243;287.7453616959683;162.8202576791693;107.0096;2.804521;-0.2478515;0.2266621;0.2458701;0.07758184;-0.02164591;0.06383017;1;299157.3168999203;6506.950672445078;-0.001;1;0;2;
1510743939.730652;1510743939.730652;1510743939.730715;57.77340630648055;12.76666659084209;218.9637909062562;-0.8180605;2.676643;-0.05894186;-1.554080983074259;-3.849882857426449;287.7494116505676;162.8206944305061;106.9947;2.798865;-0.09865495;0.2801759;0.1445027;0.1371813;-0.01934032;0.009566432;1;299157.3568999103;6506.990672435016;-0.001;1;0;2;
1510743939.755374;1510743939.755374;1510743939.755485;57.77340604650392;12.76666839059954;218.9665826242105;-0.8133787;2.672067;-0.06056054;-1.550434464857885;-3.841820311525745;287.7530788159304;162.8211311847071;106.9303;2.793121;0.4111478;0.3470858;-0.08964086;0.2472868;0.0410405;-0.1105817;1;299157.3968999002;6507.030672424954;-0.001;1;0;2;
1510743939.76112;1510743939.76112;1510743939.761186;57.77340578795602;12.76667018695744;218.9694741408085;-0.8106291;2.665795;-0.06568734;-1.545655668057991;-3.832158947052097;287.7558011160671;162.8215679417497;106.9137;2.786321;-0.02913405;0.2980643;0.1677076;0.222773;0.03576434;-0.2662195;1;299157.4368998901;6507.070672414892;-0.001;1;0;2;
1510743939.766202;1510743939.766202;1510743939.766314;57.77340553108776;12.76667198054166;218.9724166348932;-0.8066357;2.663321;-0.06478183;-1.546915583615556;-3.818948093435132;287.7573295409984;162.8220047011544;106.8499;2.782794;-0.191476;0.3696378;0.1180438;0.09793912;-0.01751043;0.01489402;1;299157.4769008801;6507.11067340483;-0.001;1;0;2;
1510743939.772133;1510743939.772133;1510743939.772237;57.77340527487281;12.76667377241267;218.975226222601;-0.8045735;2.660705;-0.05974442;-1.549667862058874;-3.802735631812538;287.7589923623752;162.8224414619059;106.8249;2.779693;-0.1437957;0.3763756;0.1010612;0.01635082;0.0238682;0.1821558;1;299157.51690087;6507.150673394768;-0.001;1;0;2;
1510743939.777921;1510743939.777921;1510743939.778044;57.77340501930031;12.76667556239342;218.9777494074331;-0.8042451;2.657894;-0.05265477;-1.544663855937964;-3.785146838830923;287.758211523592;162.8228782241997;106.8352;2.776907;0.1999759;0.2920713;0.147757;0.04806736;0.03919525;0.2868729;1;299157.5569008599;6507.190673384706;-0.001;1;0;2;
1510743939.781285;1510743939.781285;1510743939.781433;57.77340489163488;12.76667645671139;218.9789192607833;-0.8015087;2.656355;-0.04923221;-1.541608325010371;-3.777664361130666;287.7584702297162;162.8230966059257;106.7903;2.774642;0.2002046;0.3560476;0.01076358;0.1231059;0.03134004;0.08348774;1;299157.5769008549;6507.210673379675;-0.001;1;0;2;
1510743939.806776;1510743939.806776;1510743939.807075;57.77340463636021;12.76667824369262;218.981167984537;-0.8031645;2.652894;-0.04820488;-1.533562849907088;-3.768995767257477;287.7605436591268;162.8235333709185;106.8437;2.771808;0.2085691;0.008528328;0.2392123;0.0449153;0.0009046759;0.0576088;1;299157.6169018449;6507.250674369613;-0.001;1;0;2;
1510743939.889868;1510743939.889868;1510743939.890116;57.77340438217448;12.766680028627;218.9833357388889;-0.7983442;2.649207;-0.04833078;-1.531786287138542;-3.76474329690481;287.7613851992555;162.8239701379808;106.7703;2.766885;-0.1792184;-0.06867131;0.1189149;0.1212713;-0.02365963;0.05232376;1;299157.6569018348;6507.290674359551;-0.001;1;0;2;
1510743939.945559;1510743939.945559;1510743939.945667;57.77340412870474;12.76668181005028;218.9856049961697;-0.7976001;2.643607;-0.04955544;-1.537862092219352;-3.762600320804502;287.7630207752633;162.8244069081832;106.789;2.761308;-0.003871492;0.1596049;0.1598923;0.06222723;-0.06216558;-0.1328963;1;299157.6969018247;6507.33067434949;-0.001;1;0;2;
1510743939.990687;1510743939.990687;1510743939.990795;57.77340387518521;12.76668358780024;218.9880552568784;-0.7967404;2.637588;-0.05435938;-1.529503069520971;-3.758556133176051;287.7625996799923;162.8248436812894;106.8081;2.755298;0.3539957;0.1679362;0.05381575;0.1656703;-0.03232373;-0.1717846;1;299157.7369028146;6507.370675339427;-0.001;1;0;2;
1510743940.070632;1510743940.070632;1510743940.070733;57.7734036227037;12.7666853624725;218.9906586689753;-0.7896423;2.634269;-0.05594283;-1.514923921176;-3.755649471514555;287.7580758374665;162.8252804571511;106.6865;2.750074;0.4288693;0.2257367;-0.1447583;0.1677545;0.1139318;-0.04114138;1;299157.7769028046;6507.410675329365;-0.001;1;0;2;
1510743940.150631;1510743940.150631;1510743940.150739;57.77340337170049;12.76668713478205;218.9933408877103;-0.7856345;2.630764;-0.05983289;-1.505734081509192;-3.75264712147065;287.7559192402899;162.8257172349751;106.6274;2.745568;0.1880105;0.06039408;0.04444309;0.1408524;0.2125286;-0.06466583;1;299157.8169027945;6507.450675319304;-0.001;1;0;2;
1510743940.169129;1510743940.169129;1510743940.169236;57.77340312282945;12.76668890475692;218.9960412349908;-0.7795441;2.627599;-0.06128469;-1.504884869242047;-3.745162914766049;287.7555057965058;162.8261540146413;106.5243;2.740797;-0.05111837;0.09981348;0.05915656;0.04875026;0.1607855;0.02031126;1;299157.8569027845;6507.490675309242;-0.001;1;0;2;
1510743940.176594;1510743940.176594;1510743940.176673;57.77340287545681;12.7666906726239;218.9987044641227;-0.775676;2.625599;-0.05610633;-1.505154923499786;-3.735240096160617;287.7541962673062;162.8265907960563;106.4586;2.737781;-0.03106549;0.2436136;-0.03542688;-0.04136176;0.15366;0.329095;1;299157.8969037744;6507.53067629918;-0.001;1;0;2;
1510743940.185032;1510743940.185032;1510743940.185145;57.77340262857835;12.76669243818216;219.0011628408553;-0.7731557;2.621168;-0.05161635;-1.4963301860625;-3.723326142017861;287.7511912213174;162.8270275792841;106.4343;2.732817;-0.1358252;0.2133622;-0.221167;0.06349337;-0.02056821;0.1692421;1;299157.9369037643;6507.570676289118;-0.001;1;0;2;
1510743940.196656;1510743940.196656;1510743940.196763;57.77340238232929;12.76669420154536;219.0034628792318;-0.7737506;2.618165;-0.04813782;-1.490202348758651;-3.71504424339575;287.7439767212216;162.8274643647685;106.4641;2.730106;0.1145442;0.09031475;-0.2200439;0.06186208;-0.02459749;0.1547775;1;299157.9769037543;6507.610676279056;-0.001;1;0;2;
1510743940.202852;1510743940.202852;1510743940.202952;57.77340226039247;12.76669508119506;219.0045315482891;-0.7710362;2.614416;-0.04589628;-1.488612348893739;-3.71340833949351;287.7376786188294;162.8276981307812;106.4317;2.725741;0.1443971;0.2075079;-0.3016474;0.1626927;-0.05602681;-0.00125342;1;299157.9969037492;6507.630676274025;-0.001;1;0;2;
1510743940.212206;1510743940.212206;1510743940.2128;57.77340213565542;12.76669595173368;219.0054328941116;-0.768877;2.611639;-0.04401828;-1.490231793065095;-3.710274472224349;287.7311917681255;162.8279780155585;106.4046;2.722468;-0.1381491;0.2425954;-0.306277;0.2914194;0.09725669;-0.009944252;1;299158.0169039957;6507.650676268994;-0.001;1;0;2;
1510743940.226244;1510743940.226244;1510743940.226354;57.7734020113113;12.76669682117162;219.0063482600886;-0.7683843;2.609031;-0.04776547;-1.492082413123556;-3.70798025432312;287.7235047585787;162.8282579013641;106.4102;2.719826;-0.1115754;-0.003271027;-0.3222625;0.0272865;-0.09372505;0.01494234;1;299158.0369049907;6507.670677263963;-0.001;1;0;2;
1510743940.27067;1510743940.27067;1510743940.27078;57.77340188727145;12.76669768981854;219.0072582822683;-0.7663319;2.60505;-0.04571708;-1.497554399819184;-3.70473127731043;287.7144596279389;162.8285377879266;106.3924;2.715428;-0.3478501;0.2483702;-0.3070795;0.2941025;0.07533633;-0.1028488;1;299158.0569049857;6507.690677258932;-0.001;1;0;2;
1510743940.343147;1510743940.343147;1510743940.343305;57.77340164000596;12.76669942380917;219.0091528523402;-0.7613557;2.598199;-0.05135797;-1.508754530860449;-3.702408230541966;287.6967007500588;162.8290975639994;106.3323;2.707453;-0.3756725;-0.106679;-0.5141228;0.2687835;-0.08418291;-0.08987112;1;299158.0969049756;6507.73067724887;-0.001;1;0;2;
1510743940.423027;1510743940.423027;1510743940.423133;57.77340139423867;12.76670115151339;219.0111623989727;-0.7576764;2.587599;-0.05250478;-1.526185818845024;-3.702132068501322;287.6767256979846;162.8296573456811;106.3206;2.696246;-0.4820121;0.04098162;-0.4349412;0.1996825;0.03332642;-0.08950167;1;299158.1369049656;6507.770677238808;-0.001;1;0;2;
1510743940.503573;1510743940.503573;1510743940.503637;57.7734011495231;12.76670287264623;219.0133192078043;-0.7530446;2.578354;-0.05536956;-1.541922996254759;-3.70144306443011;287.6596703686976;162.8302171327308;106.2812;2.686072;-0.5121146;0.08238228;-0.5030089;0.2784033;-0.02845808;-0.03418449;1;299158.1769059555;6507.810678228746;-0.001;1;0;2;
1510743940.583346;1510743940.583346;1510743940.583467;57.77340090610939;12.7667045861056;219.0155411905492;-0.7500209;2.566607;-0.05513915;-1.555500862431237;-3.696379599681092;287.6458047222081;162.8307769259019;106.2896;2.673949;-0.3088759;0.2577054;-0.2559057;0.2299622;0.1687185;-0.09289152;1;299158.2169059454;6507.850678218684;-0.001;1;0;2;
1510743940.62949;1510743940.62949;1510743940.629596;57.77340054471597;12.76670714351252;219.0186922755645;-0.7418509;2.550205;-0.05090844;-1.564273482455458;-3.675012597028909;287.6287060100535;162.8316166255491;106.2196;2.655915;-0.1382393;0.2993013;-0.03158307;0.2607274;0.1758545;0.2386454;1;299158.2769059303;6507.910678203591;-0.001;1;0;2;
1510743940.640659;1510743940.640659;1510743940.640765;57.77340030709953;12.76670883968196;219.0205055258264;-0.7307288;2.54049;-0.0425466;-1.561723966684544;-3.654345394322313;287.6175133928567;162.8321764323288;106.047;2.643492;0.07676671;0.58626;-0.3629113;0.27577;0.09568781;0.1968648;1;299158.3169069203;6507.950679193529;-0.001;1;0;2;
1510743940.646674;1510743940.646674;1510743940.64678;57.77340007256156;12.76671052827036;219.0221189760767;-0.724602;2.527496;-0.03747263;-1.556260569002233;-3.631666423793286;287.6033972072079;162.8327362455384;105.9969;2.629313;0.3992934;0.6808436;-0.3022813;0.3555058;0.05571934;-0.01328444;1;299158.3569069102;6507.990679183467;-0.001;1;0;2;
1510743940.65016;1510743940.65016;1510743940.650265;57.77339995630754;12.76671136961289;219.0228970404753;-0.7191237;2.522327;-0.04060392;-1.556234454786359;-3.621112466365523;287.5952692996906;162.8330161547672;105.913;2.622837;-0.0878216;0.3960852;-0.4293627;0.2991642;0.03667172;0.08341278;1;299158.3769069052;6508.010679178436;-0.001;1;0;2;
1510743940.655064;1510743940.655064;1510743940.655189;57.77339972538682;12.76671304662658;219.024382219669;-0.7138358;2.510464;-0.03742222;-1.558009577309385;-3.599459764448468;287.5760931792154;162.8335759781732;105.8728;2.60998;-0.2143077;0.471864;-0.4839312;0.3030435;0.07622745;0.1260335;1;299158.4169068951;6508.050679168375;-0.001;1;0;2;
1510743940.663647;1510743940.663647;1510743940.66375;57.77339949582536;12.76671471481456;219.0258158776997;-0.7104176;2.495893;-0.03601891;-1.557359774064849;-3.58117560524382;287.5548058939819;162.834135809245;105.8882;2.595028;-0.1295108;0.4232316;-0.5675025;0.3499398;-0.03560029;0.04678009;1;299158.456907885;6508.090680158312;-0.001;1;0;2;
1510743940.696754;1510743940.696754;1510743940.696872;57.77339926734854;12.76671637226329;219.0272516225827;-0.7061556;2.479461;-0.0374091;-1.551173520873096;-3.56357227596911;287.5343973993826;162.8346956492958;105.8971;2.578058;0.1863014;0.4327085;-0.5620021;0.402464;0.03949776;-0.1604753;1;299158.496907875;6508.130680148251;-0.001;1;0;2;
1510743940.777002;1510743940.777002;1510743940.77707;57.77339904006948;12.76671801847158;219.0287868728064;-0.7015026;2.460786;-0.03972545;-1.540078080324881;-3.54632199635234;287.5208079716659;162.8352554984522;105.9114;2.558823;0.171702;0.4762881;-0.3387214;0.5545392;0.1109101;-0.121253;1;299158.5369078649;6508.170680138189;-0.001;1;0;2;
1510743940.856711;1510743940.856711;1510743940.857007;57.77339881513009;12.76671965233315;219.0304320362351;-0.6945918;2.441993;-0.04258181;-1.532161535197317;-3.529701041324934;287.513172071149;162.835815357833;105.8777;2.538856;0.003149459;0.465838;-0.1603032;0.4787129;0.07794894;-0.0648346;1;299158.5769078549;6508.210680128127;-0.001;1;0;2;
1510743940.930749;1510743940.930749;1510743940.930851;57.77339859219232;12.76672127383819;219.0321507494529;-0.6891158;2.423672;-0.04397364;-1.531300604010666;-3.514283694277128;287.5130988275656;162.8363752274515;105.8719;2.519735;-0.1492116;0.3544215;0.003263803;0.4950544;0.04789199;0.0497233;1;299158.6169088448;6508.250681118065;-0.001;1;0;2;
1510743940.97061;1510743940.97061;1510743940.970673;57.77339837084544;12.76672288366225;219.0338775478151;-0.6860406;2.4066;-0.0438992;-1.534053159320172;-3.504663350782147;287.5180469220321;162.8369351069946;105.9111;2.502474;-0.1800833;0.06388777;0.08991729;0.4821051;-0.04962878;0.1867271;1;299158.6569088348;6508.290681108003;-0.001;1;0;2;
1510743941.047181;1510743941.047181;1510743941.047344;57.77339815085755;12.76672448121114;219.0355225940798;-0.6821105;2.386658;-0.04078139;-1.543101120400187;-3.500793303937518;287.524151623527;162.8374949971973;105.95;2.482219;-0.4684632;-0.0007875672;0.1968991;0.5129336;0.05802384;0.1794017;1;299158.6969088247;6508.330681097941;-0.001;1;0;2;
1510743941.05341;1510743941.05341;1510743941.053586;57.77339793218899;12.76672606415928;219.0370745729988;-0.678782;2.363034;-0.03809701;-1.55070113383495;-3.497108501531032;287.5305108545195;162.8380548997234;106.0267;2.458592;-0.2642397;0.164968;0.2036252;0.5653696;-0.009226842;-0.02029145;1;299158.7369088146;6508.370681087879;-0.001;1;0;2;
1510743941.061147;1510743941.061147;1510743941.061253;57.77339771594325;12.76672763085986;219.0386024480853;-0.6677207;2.3379;-0.03935256;-1.558621030126456;-3.490259286457199;287.5326540519516;162.8386148160796;105.9397;2.431384;-0.2954893;0.1871869;-0.1620462;0.7496782;0.01239938;-0.1477022;1;299158.7769098046;6508.410682077817;-0.001;1;0;2;
1510743941.073893;1510743941.073893;1510743941.073954;57.77339750289266;12.76672918031262;219.0401332564741;-0.6617967;2.311087;-0.03943444;-1.573704410738853;-3.480616164401835;287.5344118293179;162.8391747470453;105.9795;2.403975;-0.4197522;0.2027477;0.174965;0.7172855;0.0161684;-0.09703609;1;299158.8169097945;6508.450682067755;-0.001;1;0;2;
1510743941.081866;1510743941.081866;1510743941.081974;57.77339729339062;12.7667307132182;219.0416677730354;-0.6509468;2.286775;-0.03904684;-1.594714081631501;-3.470948731934886;287.5357342700868;162.8397346921232;105.8894;2.377619;-0.5190918;0.2173456;0.1136351;0.6304813;0.01538888;-0.02667292;1;299158.8569097844;6508.490682057693;-0.001;1;0;2;
1510743941.089084;1510743941.089084;1510743941.091071;57.77339708729638;12.76673222961732;219.0431382093924;-0.6393594;2.262634;-0.03834568;-1.605098428018304;-3.458498027590001;287.5359088753656;162.8402946509397;105.7789;2.351232;0.005687856;0.2056568;-0.09519597;0.628806;0.02340584;0.04083382;1;299158.8969107743;6508.530683047631;-0.001;1;0;2;
1510743941.098816;1510743941.098816;1510743941.098924;57.77339688462593;12.76673372903056;219.0445608697304;-0.6273794;2.238294;-0.03564092;-1.600051727980713;-3.443379568347603;287.5385702787035;162.8408546236488;105.6578;2.324557;0.1531882;0.3902176;-0.09042888;0.5985579;0.1006788;0.05166579;1;299158.9369107643;6508.570683037569;-0.001;1;0;2;
1510743941.143277;1510743941.143277;1510743941.143402;57.77339668649955;12.76673521229588;219.045935006117;-0.6148043;2.213847;-0.03515188;-1.584594597432246;-3.425983657021058;287.5408474484461;162.8414146097787;105.5204;2.29763;0.3270214;0.370979;0.01830692;0.6459372;0.1548582;-0.004196418;1;299158.9769107542;6508.610683027508;-0.001;1;0;2;
1510743941.177362;1510743941.177362;1510743941.177548;57.77339659080386;12.76673594670619;219.0466261477379;-0.608056;2.200649;-0.03610934;-1.579094071097931;-3.419030098470473;287.5405154252549;162.8417354826742;105.4459;2.283109;0.365117;0.4081497;0.02365251;0.6309319;0.09433941;-0.07111686;1;299158.9969107492;6508.630683022477;-0.001;1;0;2;
1510743941.220696;1510743941.220696;1510743941.220797;57.77339649089907;12.76673666613494;219.0472255055593;-0.6025041;2.188095;-0.03563051;-1.572209931493215;-3.409981668858179;287.5398252591999;162.842178984379;105.3952;2.269531;0.3171955;0.4718052;0.05802989;0.7151985;0.07953495;-0.1429652;1;299159.0169109958;6508.650683017446;-0.001;1;0;2;
1510743941.330757;1510743941.330757;1510743941.33086;57.773396392184;12.7667373813519;219.0478552746823;-0.5957052;2.175833;-0.03693974;-1.566552201875465;-3.402105101012903;287.5375802276886;162.842622489791;105.3114;2.255906;0.1603315;0.3525509;-0.03821487;0.6568357;0.08636035;0.08964218;1;299159.0369119907;6508.670684012414;-0.001;1;0;2;
1510743941.411038;1510743941.411038;1510743941.41114;57.7733961975562;12.76673879938888;219.0491279883331;-0.5854803;2.150941;-0.03735287;-1.556636577861505;-3.388341215339906;287.5295081080738;162.8435095113821;105.2269;2.2292;0.2124698;0.3089269;-0.2955514;0.6176738;-0.05772613;-0.03469501;1;299159.0769119807;6508.710684002353;-0.001;1;0;2;
1510743941.490739;1510743941.490739;1510743941.49084;57.77339600538585;12.76674019983443;219.0504369801286;-0.5805992;2.122974;-0.0374419;-1.544979532574661;-3.381113135161862;287.5185001432997;162.8443965482395;105.2955;2.200935;0.3939015;0.1562582;-0.3020942;0.7065356;-0.07554525;-0.06958281;1;299159.1169119706;6508.750683992291;-0.001;1;0;2;
1510743941.504076;1510743941.504076;1510743941.504183;57.77339581523279;12.76674158222009;219.0517472974767;-0.5752396;2.095334;-0.03693472;-1.533158371667136;-3.380839088346196;287.5067734842221;162.8452836006919;105.3514;2.172861;0.2788985;0.05956727;-0.2254325;0.7125498;-0.05803495;-0.05477493;1;299159.1569119606;6508.790683982229;-0.001;1;0;2;
1510743941.511102;1510743941.511102;1510743941.511205;57.77339562785169;12.76674294622939;219.0530707215384;-0.5664602;2.067114;-0.03852782;-1.528683025803894;-3.384032578656682;287.4961514198721;162.8461706688931;105.3248;2.143324;-0.08736791;-0.03683757;-0.08999722;0.8011928;0.05362817;-0.129796;1;299159.1969129505;6508.830684972167;-0.001;1;0;2;
1510743941.518524;1510743941.518524;1510743941.518585;57.77339535230982;12.76674495777379;219.0551596886014;-0.555502;2.025506;-0.03951481;-1.547502627237013;-3.389229956087735;287.4891110866861;162.847501300334;105.3365;2.1003;-0.3672671;0.02851284;0.04694972;0.8163207;-0.0717866;-0.1239281;1;299159.2569129354;6508.890684957074;-0.001;1;0;2;
1510743941.52437;1510743941.52437;1510743941.524471;57.77339517200026;12.76674627566646;219.056585862684;-0.5476833;1.99756;-0.0398696;-1.567945248349194;-3.392736239741657;287.4875688012234;162.8483884075044;105.3324;2.071281;-0.5063688;-0.01436807;0.06430949;0.8362016;0.005972977;-0.09803359;1;299159.2969129253;6508.930684947012;-0.001;1;0;2;
1510743941.53016;1510743941.53016;1510743941.530265;57.77339499417099;12.76674757492216;219.0579496034191;-0.5399582;1.969802;-0.04023373;-1.580266138181066;-3.393336892588447;287.485237305127;162.8492755302324;105.3293;2.042468;-0.252779;-0.05798195;-0.01226069;0.7298571;0.01565917;-0.09077059;1;299159.3369139153;6508.97068593695;-0.001;1;0;2;
1510743941.657066;1510743941.657066;1510743941.657554;57.77339464995228;12.76675011912063;219.0605676313939;-0.5158997;1.917221;-0.03814541;-1.605930261082193;-3.386697867861277;287.4724558733526;162.8510498217299;105.0608;1.985419;-0.3521523;0.09292165;-0.2058631;0.6613823;0.1278012;0.1141788;1;299159.4169138952;6509.050685916826;-0.001;1;0;2;
1510743941.736945;1510743941.736945;1510743941.737046;57.77339448392686;12.76675136540004;219.0618141134675;-0.5037205;1.89312;-0.03481488;-1.610178214548448;-3.378923376172303;287.4641441994451;162.8519369890974;104.9;1.958989;0.1114479;0.2465306;-0.3966916;0.6384733;0.07794764;0.04376914;1;299159.4569138851;6509.090685906765;-0.001;1;0;2;
1510743941.817237;1510743941.817237;1510743941.817322;57.77339432207544;12.76675259610692;219.0630138010399;-0.4931427;1.86845;-0.03326792;-1.6123186187125;-3.37341002615333;287.4530242276526;162.8528241698357;104.785;1.932432;0.008591118;0.1847088;-0.291165;0.7971377;0.09074219;0.02187264;1;299159.496914875;6509.130686896702;-0.001;1;0;2;
1510743941.897016;1510743941.897016;1510743941.897128;57.77339416400604;12.76675381051382;219.0640835154005;-0.4824756;1.843992;-0.03036496;-1.608953044281074;-3.368343329624738;287.4419661835;162.8537113642911;104.6626;1.906066;0.1462721;0.1536206;-0.3259433;0.7705145;0.09353613;-0.03368329;1;299159.536914865;6509.17068688664;-0.001;1;0;2;
1510743941.94923;1510743941.94923;1510743941.949334;57.77339393351755;12.76675560242068;219.0654836443577;-0.4706319;1.807906;-0.02494334;-1.603877500091312;-3.363280742363521;287.4271839038098;162.8550421811161;104.5913;1.868159;0.1843509;0.2038692;-0.1901644;0.7216331;0.06202433;-0.0214847;1;299159.5969148499;6509.230686871548;-0.001;1;0;2;
1510743941.96083;1510743941.96083;1510743941.960936;57.77339378347616;12.76675677706889;219.0663393257124;-0.4618987;1.784056;-0.02638792;-1.59597939318767;-3.363439833296201;287.4187457070727;162.8559294092187;104.5154;1.84288;0.254412;-0.06288639;-0.227303;0.7537162;0.0958129;-0.002247599;1;299159.6369158398;6509.270687861485;-0.001;1;0;2;
1510743941.972626;1510743941.972626;1510743941.972729;57.77339363643889;12.76675793631496;219.067184440507;-0.4545535;1.760212;-0.02704066;-1.58644554417059;-3.369799848799761;287.4093332142751;162.8568166506272;104.4796;1.817956;0.2518688;-0.217698;-0.1809162;0.6522064;0.0595145;-0.04575725;1;299159.6769158298;6509.310687851424;-0.001;1;0;2;
1510743941.982071;1510743941.982071;1510743941.982176;57.7733934922095;12.76675907990927;219.0680803140009;-0.4466154;1.737496;-0.03130061;-1.575360139514491;-3.382441013129641;287.4004873201865;162.8577039054811;104.4155;1.793978;0.2055636;-0.5727571;-0.1239181;0.5284884;0.07914008;0.05669994;1;299159.7169158197;6509.350687841362;-0.001;1;0;2;
1510743941.993335;1510743941.993335;1510743941.993444;57.77339335136571;12.76676020790373;219.0689973535132;-0.4348522;1.71493;-0.02860019;-1.562753789381972;-3.394392224006495;287.3882540930655;162.8585911736457;104.2285;1.769203;0.2392889;-0.3137349;-0.3851275;0.4565629;0.09680514;0.1008412;1;299159.7569158096;6509.3906878313;-0.001;1;0;2;
1510743942.003979;1510743942.003979;1510743942.004106;57.77339321393239;12.76676132095483;219.0699323208663;-0.4272509;1.691865;-0.0271879;-1.551011078697702;-3.40494154909583;287.373920904239;162.8594784545103;104.1727;1.744979;0.3322234;-0.1651786;-0.3562502;0.549606;0.03720795;0.04063158;1;299159.7969167996;6509.430688821238;-0.001;1;0;2;
1510743942.013111;1510743942.013111;1510743942.013216;57.77339307968747;12.76676241899742;219.0708097518433;-0.4189496;1.668919;-0.02488297;-1.543779859965866;-3.410089965683216;287.3576028212227;162.8603657480182;104.0918;1.720701;0.2034011;0.04246065;-0.4186561;0.6443948;-0.01871588;-0.08911724;1;299159.8369167895;6509.470688811176;-0.001;1;0;2;
1510743942.070713;1510743942.070713;1510743942.070775;57.77339294790944;12.76676350229878;219.0716148649473;-0.4133655;1.646012;-0.02534357;-1.53727180343929;-3.411861549644216;287.3418361353741;162.861253053842;104.0973;1.697123;0.07377658;-0.03354702;-0.2479955;0.6526906;0.02225298;-0.03918498;1;299159.8769167794;6509.510688801114;-0.001;1;0;2;
1510743942.143933;1510743942.143933;1510743942.144097;57.7733928184766;12.76676457088755;219.072307618951;-0.4079337;1.623963;-0.02211748;-1.528396366771867;-3.410806650844578;287.3270795389619;162.8621403719093;104.1007;1.674415;0.333463;0.01697663;-0.2037976;0.5510634;0.02748367;-0.001646515;1;299159.9169177694;6509.550689791052;-0.001;1;0;2;
1510743942.220878;1510743942.220878;1510743942.221044;57.77339269135432;12.76676562516719;219.072928820115;-0.3998032;1.603411;-0.02212423;-1.519023827108782;-3.409722768408704;287.3147047309785;162.8630277019554;104.0009;1.652504;0.1371003;-0.0762653;-0.2072808;0.4677806;0.03693629;0.07253422;1;299159.9569177593;6509.59068978099;-0.001;1;0;2;
1510743942.349027;1510743942.349027;1510743942.349496;57.77339243976321;12.76676766378899;219.0726983079408;-0.3827969;1.560137;-0.02247893;-1.507625911799575;-3.414576532558876;287.2961827193893;162.8651494007393;103.7858;1.606412;0.108062;0.03973543;-0.247055;0.5391935;0.06138736;-0.09171089;1;299160.0369169907;6509.670689760859;-0.001;1;0;2;
1510743942.357335;1510743942.357335;1510743942.357434;57.7733923134367;12.7667686486655;219.0720600861344;-0.3755063;1.536797;-0.02510874;-1.503208314663418;-3.416370628164569;287.2871397741723;162.8663452143887;103.7308;1.582009;0.2444828;0.04411315;-0.2823488;0.6470928;0.01905991;-0.1596734;1;299160.0769179806;6509.71069075079;-0.001;1;0;2;
1510743942.365174;1510743942.365174;1510743942.365281;57.77339218981663;12.76676961893197;219.0715265120213;-0.3701768;1.513711;-0.02831111;-1.495469847243285;-3.420348821315785;287.2761911163911;162.8675410405279;103.7419;1.558317;0.2728447;-0.05342607;-0.1573413;0.6598438;-0.05031298;-0.1759956;1;299160.1169179705;6509.750690740721;-0.001;1;0;2;
1510743942.371391;1510743942.371391;1510743942.371562;57.77339206924704;12.76677057461707;219.0710194022437;-0.3595881;1.492823;-0.02967982;-1.485891806636709;-3.424177906311722;287.2607276336893;162.8687368791875;103.5433;1.535521;-0.07655374;-0.1731843;-0.334063;0.564979;0.0623424;-0.01444252;1;299160.1569179605;6509.790690730652;-0.001;1;0;2;
1510743942.378694;1510743942.378694;1510743942.378843;57.77339195144968;12.76677151537061;219.0704599572562;-0.3525465;1.470571;-0.02728143;-1.479445678187228;-3.425983308796162;287.2478111567863;162.8699327303199;103.4813;1.512239;0.1790189;-0.1412245;-0.3243913;0.5007754;0.01828436;0.0979948;1;299160.1969179504;6509.830690720583;-0.001;1;0;2;
1510743942.420733;1510743942.420733;1510743942.4208;57.77339178029111;12.76677289861492;219.069434467702;-0.3411687;1.435881;-0.02348621;-1.480083091418185;-3.421720935870191;287.2284166192308;162.8717265304842;103.3658;1.475856;-0.3160134;0.001452813;-0.2458278;0.5215519;0.004670279;0.04843711;1;299160.2569189353;6509.89069170548;-0.001;1;0;2;
1510743942.500863;1510743942.500863;1510743942.500973;57.77339166878707;12.76677380227886;219.0686440024054;-0.3373345;1.413808;-0.02134143;-1.484276151398093;-3.418051152448143;287.2188394034984;162.8729224127705;103.4199;1.453495;-0.01310368;-0.000736133;-0.190813;0.4845067;0.02095224;0.1476872;1;299160.2969189252;6509.930691695411;-0.001;1;0;2;
1510743942.580865;1510743942.580865;1510743942.581022;57.77339155929725;12.76677469184035;219.0678144960374;-0.3298505;1.395301;-0.02026742;-1.490313627965553;-3.414640419038637;287.2085329588176;162.8741183070611;103.3006;1.43376;-0.1236266;-0.02403273;-0.4280393;0.3364157;0.01409119;0.1006682;1;299160.3369189152;6509.970691685342;-0.001;1;0;2;
1510743942.760682;1510743942.760682;1510743942.761127;57.77339139764013;12.76677600721646;219.0665804784898;-0.326029;1.377237;-0.02148017;-1.50244596085584;-3.415706977775997;287.1969952296117;162.8759121646507;103.3183;1.415301;-0.6170087;-0.2067943;-0.1181057;0.102617;0.07582626;0.1402444;1;299160.3969199001;6510.030692670239;-0.001;1;0;2;
1510743942.826027;1510743942.826027;1510743942.826142;57.77339123821434;12.7667773144343;219.0654369643481;-0.3229567;1.37399;-0.02447266;-1.517478440042789;-3.431709572278283;287.1834254027332;162.8777060298959;103.2273;1.411436;-0.2914775;-0.4505189;-0.3798548;0.03158412;0.03061152;-0.06173267;1;299160.4569198849;6510.090692655135;-0.001;1;0;2;
1510743942.83733;1510743942.83733;1510743942.837462;57.77339113233888;12.76677818646599;219.0647616949847;-0.3264205;1.376141;-0.02589417;-1.528501264828336;-3.449556054345739;287.1743031550868;162.878901939903;103.3439;1.414325;-0.6218531;-0.5916268;0.02226738;-0.1905756;0.04763152;0.07199523;1;299160.4969208749;6510.130693645066;-0.001;1;0;2;
1510743942.842247;1510743942.842247;1510743942.84235;57.77339102647809;12.7667790613232;219.0641363674154;-0.326065;1.380774;-0.02447826;-1.537531161072635;-3.469302709886971;287.1632964215489;162.8800978476567;103.2868;1.418751;-0.2640872;-0.4582553;-0.1710363;-0.2304091;0.04796554;0.132975;1;299160.5369208648;6510.170693634997;-0.001;1;0;2;
1510743942.84948;1510743942.84948;1510743942.849589;57.77339092035983;12.76677993949291;219.0635115074585;-0.3276034;1.385716;-0.02422191;-1.544039970237646;-3.485948735393054;287.1523701860515;162.8812937524376;103.3013;1.423914;-0.0560575;-0.3541271;-0.1593711;-0.1550252;0.02214885;-0.0425075;1;299160.5769208547;6510.210693624928;-0.001;1;0;2;
1510743942.857412;1510743942.857412;1510743942.857538;57.77339081380226;12.76678082165491;219.0629227498457;-0.3298446;1.390806;-0.02421891;-1.547192671195852;-3.500168165683372;287.1430122074624;162.8824896536133;103.3418;1.429384;0.2132668;-0.1784253;-0.07665949;-0.1093525;0.009851012;-0.1476333;1;299160.6169208447;6510.250693614859;-0.001;1;0;2;
1510743942.863768;1510743942.863768;1510743942.863855;57.77339070681121;12.76678170871784;219.0623607453563;-0.3275362;1.39864;-0.0271435;-1.54471579807175;-3.512315441544177;287.1345386043034;162.8836855504283;103.1801;1.43648;0.03813838;-0.2912743;-0.2717732;-0.1030441;0.08890411;-0.1068991;1;299160.6569218346;6510.290694604791;-0.001;1;0;2;
1510743942.891119;1510743942.891119;1510743942.891228;57.77339059932606;12.76678260135455;219.0618128490831;-0.330769;1.40713;-0.02762996;-1.539124655973796;-3.524037773087425;287.1289546307796;162.8848814423222;103.2282;1.445483;0.04043112;-0.3405368;-0.05351163;-0.2336062;0.1088517;0.03746274;1;299160.6969218245;6510.330694594722;-0.001;1;0;2;
1510743942.947708;1510743942.947708;1510743942.947813;57.77339049130336;12.76678349998203;219.061268508862;-0.3319152;1.416435;-0.0277955;-1.531682584440962;-3.535548875915126;287.1253297819839;162.8860773290159;103.1882;1.454805;0.1013484;-0.4136798;-0.096311;-0.322677;0.06142061;0.1328662;1;299160.7369218145;6510.370694584652;-0.001;1;0;2;
1510743943.010714;1510743943.010714;1510743943.010817;57.77339038229658;12.76678440445052;219.06068522769;-0.3370382;1.424137;-0.02522317;-1.524487836034788;-3.545632403178093;287.1254939207938;162.8872732105303;103.3147;1.463475;0.225027;-0.2920527;0.08343668;-0.3350007;-0.0493632;0.1328115;1;299160.7769218044;6510.410694574583;-0.001;1;0;2;
1510743943.090754;1510743943.090754;1510743943.091305;57.77339027236085;12.76678531481599;219.0600485467131;-0.338855;1.432219;-0.02214066;-1.514473953832616;-3.553136169990778;287.1241356620345;162.8884690869814;103.3111;1.471759;0.3714976;-0.09110557;-0.05315527;-0.2021654;-0.03646995;0.02092328;1;299160.8169227943;6510.450695564515;-0.001;1;0;2;
1510743943.160803;1510743943.160803;1510743943.160907;57.7733901612395;12.76678623084989;219.0593560840844;-0.345249;1.438443;-0.01970637;-1.504276262861645;-3.558504464102628;287.1245222070337;162.8896649584633;103.4966;1.479296;0.5471888;0.07184322;0.234835;-0.1085624;-0.03128538;-0.07126174;1;299160.8569227843;6510.490695554446;-0.001;1;0;2;
1510743943.240821;1510743943.240821;1510743943.241033;57.7733900493818;12.76678715251363;219.058665171353;-0.3437303;1.44707;-0.02287231;-1.495775991502458;-3.563531433398819;287.1229337377784;162.8908608252907;103.3621;1.487333;0.2066592;-0.07299913;-0.04969378;-0.1288323;-0.01044879;-0.1258198;1;299160.8969227742;6510.530695544377;-0.001;1;0;2;
1510743943.249895;1510743943.249895;1510743943.249997;57.77338993685602;12.76678807987916;219.0580063976446;-0.3464974;1.455153;-0.0263102;-1.4921367300327;-3.568523025645669;287.1205501118116;162.8920566874069;103.3937;1.495838;-0.1779305;-0.2674597;0.08822808;-0.2156619;0.06273568;0.001423913;1;299160.9369237641;6510.570696534308;-0.001;1;0;2;
1510743943.261169;1510743943.261169;1510743943.26127;57.77338982374425;12.76678901288753;219.0573917268792;-0.3475358;1.464039;-0.02566089;-1.48940303033752;-3.573269765260069;287.1162688060697;162.8932525448458;103.3538;1.504723;-0.117174;-0.1992667;-0.08888355;-0.3470621;0.03278213;0.1476044;1;299160.9769237541;6510.610696524239;-0.001;1;0;2;
1510743943.26985;1510743943.26985;1510743943.269953;57.77338976993229;12.76678948120056;219.0572350585819;-0.3509799;1.466441;-0.02606206;-1.490326006719634;-3.578485448145004;287.114909715424;162.8938929736225;103.46;1.507858;0.1465233;-0.1345471;0.01570803;-0.1404175;-0.03056159;-0.1658294;1;299160.996923749;6510.630696519204;-0.001;1;0;2;
1510743943.277815;1510743943.277815;1510743943.277973;57.77338970877071;12.76678993764131;219.0574137350083;-0.3513006;1.4711;-0.02416546;-1.489144616707163;-3.581943473246265;287.1127150150452;162.8946609093623;103.4308;1.512464;0.09697622;-0.02050688;-0.03169844;-0.2661051;0.02453352;0.02791869;1;299161.0169239957;6510.650696514173;-0.001;1;0;2;
1510743943.292203;1510743943.292203;1510743943.292305;57.773389647406;12.76679039549009;219.0575861499807;-0.3506451;1.475374;-0.02792867;-1.486162647538485;-3.583958964807612;287.1096908957393;162.895428843865;103.3692;1.516469;-0.03630435;-0.1694291;-0.2182294;-0.2317367;-0.02305717;-0.06099862;1;299161.0369239907;6510.670696509143;-0.001;1;0;2;
1510743943.298375;1510743943.298375;1510743943.298497;57.77338952364712;12.76679131535736;219.0579855355596;-0.3542082;1.483812;-0.02714607;-1.484625172618553;-3.589812452778793;287.107486638291;162.896964709299;103.4261;1.525504;0.1573661;-0.1397272;-0.2118237;-0.3161383;0.02279624;0.1832094;1;299161.0769249807;6510.71069749908;-0.001;1;0;2;
1510743943.303603;1510743943.303603;1510743943.303709;57.77338939888455;12.76679224112012;219.0583871186839;-0.3590662;1.491131;-0.02551246;-1.485480445795315;-3.595436520836076;287.1062948381887;162.8985005697243;103.5391;1.533753;0.00517835;-0.04306982;0.02772866;-0.2505774;0.03480709;0.08395779;1;299161.1169249706;6510.750697489018;-0.001;1;0;2;
1510743943.370782;1510743943.370782;1510743943.370892;57.77338927309522;12.76679317250662;219.0587643139684;-0.3617246;1.498392;-0.0253849;-1.484239049161189;-3.598140143065621;287.1061414384665;162.9000364251914;103.572;1.541436;0.2213657;0.05849209;-0.05763007;-0.09422817;0.003357421;-0.1090671;1;299161.1569249606;6510.790697478957;-0.001;1;0;2;
1510743943.450755;1510743943.450755;1510743943.450878;57.77338914655297;12.76679410923406;219.059166265257;-0.3662352;1.504532;-0.02818174;-1.485337531919425;-3.599578851679223;287.1067733479134;162.9015722760874;103.6809;1.548465;0.08311179;-0.004005911;0.172331;-0.08613376;-0.007069;-0.1572857;1;299161.1969249505;6510.830697468895;-0.001;1;0;2;
1510743943.587467;1510743943.587467;1510743943.588114;57.77338895580107;12.76679552477564;219.0598259492045;-0.365949;1.517312;-0.02775535;-1.492854987551319;-3.599800661162346;287.1046473880598;162.9038760437519;103.5598;1.560819;-0.1999851;0.1159589;-0.109815;-0.11851;-0.07326365;-0.1978278;1;299161.2569259354;6510.890698453802;-0.001;1;0;2;
1510743943.66709;1510743943.66709;1510743943.667309;57.77338882768987;12.76679647527477;219.0603229673105;-0.3696665;1.524068;-0.03122432;-1.500048760755952;-3.600091844395542;287.1028802438697;162.9054118831615;103.6339;1.568259;-0.2522271;-0.02085173;0.0007191006;-0.07657302;-0.0486244;-0.1748234;1;299161.2969259253;6510.93069844374;-0.001;1;0;2;
1510743943.700731;1510743943.700731;1510743943.700857;57.77338869874092;12.76679743172154;219.0609289504743;-0.3728615;1.532963;-0.03622025;-1.508179709304076;-3.60486396413389;287.0986244179989;162.9069477178557;103.6706;1.577657;-0.2926659;-0.3048545;-0.07608005;-0.303308;-0.03687265;0.08164901;1;299161.3369259153;6510.970698433678;-0.001;1;0;2;
1510743943.707012;1510743943.707012;1510743943.707117;57.77338856835883;12.76679839417876;219.0616048056672;-0.3750254;1.543021;-0.03374899;-1.513116108708404;-3.614482113688095;287.0966658148124;162.9084835475006;103.6606;1.587942;-0.2686584;-0.2862797;-0.1028028;-0.336574;0.1577239;0.2909482;1;299161.3769269052;6511.010699423616;-0.001;1;0;2;
1510743943.715912;1510743943.715912;1510743943.71602;57.77338843710879;12.76679936346508;219.0622942096424;-0.3820778;1.551004;-0.03262625;-1.515258140555043;-3.626918295660242;287.094933776227;162.9100193714278;103.8388;1.597372;0.2343965;-0.2051841;0.1627845;-0.294988;-0.04674389;-0.1191978;1;299161.4169268952;6511.050699413554;-0.001;1;0;2;
1510743943.728779;1510743943.728779;1510743943.728887;57.77338830500127;12.76680034026352;219.0630211171638;-0.3807503;1.562983;-0.03686843;-1.520022641142596;-3.64263676131513;287.0935655987773;162.9115551891549;103.6909;1.608691;-0.355001;-0.4226091;-0.07979294;-0.2555794;-0.03587992;-0.1866091;1;299161.4569268851;6511.090699403492;-0.001;1;0;2;
1510743943.737123;1510743943.737123;1510743943.73723;57.77338817175404;12.76680132516955;219.0637695296367;-0.3852149;1.576101;-0.03693891;-1.527048248330315;-3.659277219041186;287.0943888990467;162.9130909999887;103.7344;1.622494;-0.5332118;-0.4915476;0.08957227;-0.4908683;0.07891737;0.2454638;1;299161.496926875;6511.13069939343;-0.001;1;0;2;
1510743943.7434;1510743943.7434;1510743943.743501;57.7733880371318;12.76680231985203;219.0644839350122;-0.3889065;1.590957;-0.03187573;-1.528483207151322;-3.675323485139149;287.0952807837665;162.914626802438;103.7365;1.637801;0.2264237;-0.2430346;-0.08871978;-0.4474005;0.05371794;0.03975619;1;299161.5369278649;6511.170700383368;-0.001;1;0;2;
1510743943.820864;1510743943.820864;1510743943.821497;57.77338783216379;12.7668038323835;219.0654442712201;-0.3970594;1.61544;-0.02981493;-1.524732526898323;-3.697831709569181;287.0992546169262;162.9169304884807;103.809;1.663521;0.2741062;-0.275395;0.02773928;-0.4575861;0.05367589;0.1030167;1;299161.5969278499;6511.230700368275;-0.001;1;0;2;
1510743943.900755;1510743943.900755;1510743943.900858;57.77338769360735;12.76680485590981;219.0659788508092;-0.4020325;1.633432;-0.02930132;-1.521570342028473;-3.712567439749927;287.1025267383928;162.918466266289;103.8272;1.68218;0.1897336;-0.3581983;-0.007806555;-0.4751326;-0.05627944;0.1228288;1;299161.6369278398;6511.270700358214;-0.001;1;0;2;
1510743943.949735;1510743943.949735;1510743943.949839;57.77338755367515;12.76680589232791;219.0664032921787;-0.4053462;1.652955;-0.02693922;-1.521886375046681;-3.726475156126618;287.1027993082367;162.9200020333568;103.7785;1.70193;-0.2471893;-0.3448485;-0.05036546;-0.5679806;-0.009701979;0.002037781;1;299161.6769288298;6511.310701348151;-0.001;1;0;2;
1510743944.016811;1510743944.016811;1510743944.016932;57.7733874115016;12.76680694187017;219.0667336750622;-0.4153146;1.670649;-0.0243773;-1.518164730771039;-3.737883887085585;287.103353833409;162.9215377891454;103.9604;1.721498;0.4665408;-0.2255022;0.06692994;-0.5576764;-0.1103591;-0.07848359;1;299161.7169288197;6511.350701338089;-0.001;1;0;2;
1510743944.097316;1510743944.097316;1510743944.097425;57.77338726713419;12.76680800522207;219.0669724631432;-0.4198085;1.691727;-0.02349955;-1.514116493702707;-3.745074055848721;287.1014921709094;162.9230735331949;103.9366;1.743037;-0.03414078;-0.262641;0.0209678;-0.5143726;0.1405406;-0.000274774;1;299161.7569288096;6511.390701328028;-0.001;1;0;2;
1510743944.127938;1510743944.127938;1510743944.128044;57.77338712058618;12.76680908192093;219.06714216768;-0.4278273;1.709982;-0.02140721;-1.505835983466645;-3.745981277452207;287.098891796712;162.9246092656724;104.0467;1.762689;0.1649267;0.008871009;0.1134659;-0.5807073;0.1015123;0.04859886;1;299161.7969287995;6511.430701317966;-0.001;1;0;2;
1510743944.134611;1510743944.134611;1510743944.134672;57.77338697203398;12.76681017229754;219.0673083756066;-0.4309893;1.730946;-0.02155249;-1.497122455690804;-3.74358764347413;287.0955032438216;162.9261449864788;103.9818;1.783796;0.1150566;0.0776488;-0.04656002;-0.585749;0.1643266;0.01945832;1;299161.8369297895;6511.470702307904;-0.001;1;0;2;
1510743944.141968;1510743944.141968;1510743944.142075;57.77338682144656;12.76681127640298;219.0674998012165;-0.4379124;1.750412;-0.022461;-1.487225855846723;-3.737140471721076;287.0966736164601;162.9276806952699;104.0458;1.804359;0.5247416;0.2070108;0.06089216;-0.5460373;0.08106539;-0.07634997;1;299161.8769297794;6511.510702297842;-0.001;1;0;2;
1510743944.147464;1510743944.147464;1510743944.147563;57.773386669038;12.76681239484602;219.0677740509062;-0.4440658;1.771539;-0.02547931;-1.481729102428748;-3.731677215053677;287.1004155272907;162.9292163919148;104.0722;1.826347;0.1757315;0.04918506;0.2220072;-0.5834596;0.1151674;-0.03486192;1;299161.9169297693;6511.55070228778;-0.001;1;0;2;
1510743944.152992;1510743944.152992;1510743944.153095;57.77338651446927;12.76681352798932;219.068103769114;-0.4489957;1.792948;-0.02570723;-1.47064605636668;-3.728073297599578;287.1049021642015;162.9307520760758;104.0591;1.848313;0.3390918;0.04394877;0.08378807;-0.5303096;0.1012869;0.01959545;1;299161.9569307593;6511.590703277718;-0.001;1;0;2;
1510743944.30168;1510743944.30168;1510743944.301773;57.77338611725563;12.76681638280639;219.0679854408794;-0.4660949;1.846942;-0.02616034;-1.420541208760048;-3.736927880007157;287.108497831201;162.9344106717968;104.1635;1.904846;0.835209;-0.1974854;-0.01216824;-0.5725453;-0.01387528;0.1107357;1;299162.0569309857;6511.690703252563;-0.001;1;0;2;
1510743944.376983;1510743944.376983;1510743944.377137;57.77338595263187;12.7668175399542;219.0676475179805;-0.4691749;1.8688;-0.02495672;-1.399108428892849;-3.740666835501573;287.1060217052768;162.93583519854;104.0932;1.926795;0.2361622;-0.1557272;-0.07103262;-0.5403867;-0.08515812;0.1033381;1;299162.0969319756;6511.730704242501;-0.001;1;0;2;
1510743944.456821;1510743944.456821;1510743944.457233;57.77338578571603;12.7668187116479;219.0673297775486;-0.4781122;1.888952;-0.02551527;-1.383959599063617;-3.743893625391569;287.1042800762953;162.9372597130191;104.2038;1.94852;0.5104817;-0.05561993;-0.01739207;-0.5226579;-0.06085053;-0.002529931;1;299162.1369319655;6511.770704232439;-0.001;1;0;2;
