SampleTimeStamp;SentTimeStamp;ReceivedTimeStamp;lat;lon;alt;vel_north;vel_east;vel_down;roll;pitch;heading;wander;track;speed;arate_lon;arate_trans;arate_down;accel_lon;accel_trans;accel_down;alignment;timeDistance.time1;timeDistance.time2;timeDistance.distanceTag;timeDistance.time1Type;timeDistance.time2Type;timeDistance.distanceType;
1510747986.733554;1510747986.733554;1510747986.73509;57.77345005418355;12.76643304212581;228.4965176830601;-0.6935435;2.049519;-0.06059989;-1.44290029018329;-4.992196869713651;288.5338030197124;69.2748006694036;108.6955;2.163684;0.7383032;0.00353934;-0.1943644;-1.028236;0.04065749;-0.2171979;1;303204.6846148258;10554.31840762808;-0.001;1;0;2;
1510747986.813511;1510747986.813511;1510747986.81361;57.77344979939608;12.76643445655192;228.4991531505963;-0.7025554;2.090305;-0.06946744;-1.423160509467139;-4.993345517672561;288.5298972308192;69.27507288073495;108.5776;2.205212;0.4878068;0.004502739;-0.4136799;-1.055268;0.1057019;-0.1379772;1;303204.7246148156;10554.3584076179;-0.001;1;0;2;
1510747986.893518;1510747986.893518;1510747986.89359;57.77344953974005;12.76643589841128;228.5021527391409;-0.7182539;2.131978;-0.07720877;-1.406143450471383;-4.994903161516991;288.5266594766708;69.27534506888421;108.6184;2.249715;0.3514549;-0.01095498;-0.2461353;-1.226787;0.00725;-0.02283115;1;303204.7646158054;10554.39840860772;-0.001;1;0;2;
1510747986.973451;1510747986.973451;1510747986.973561;57.77344927530294;12.76643736762432;228.5053527698029;-0.7332036;2.170777;-0.08310175;-1.39504369066647;-4.990358284429844;288.5212319463307;69.27561723388729;108.663;2.291257;0.05925844;0.03784977;-0.1626207;-1.038981;-0.008867436;-0.06899896;1;303204.8046157953;10554.43840859755;-0.001;1;0;2;
1510747987.046794;1510747987.046794;1510747987.047021;57.77344900525473;12.76643886365486;228.5086973812452;-0.7506239;2.210733;-0.08416833;-1.39502350097131;-4.985021872009898;288.5169286595493;69.27588937630094;108.7542;2.334689;-0.1129838;0.148006;-0.08548936;-1.137778;-0.08015825;-0.01281546;1;303204.8446157851;10554.47840858737;-0.001;1;0;2;
1510747987.083625;1510747987.083625;1510747987.083696;57.7734487294342;12.76644038665981;228.5121354478414;-0.7683454;2.251615;-0.0849791;-1.406762219089525;-4.980345978012718;288.5123692056776;69.27616149612892;108.8418;2.379102;-0.4429381;0.07825309;0.01831839;-1.154674;-0.02723659;0.04496166;1;303204.8846157749;10554.51840857719;-0.001;1;0;2;
1510747987.153615;1510747987.153615;1510747987.153727;57.77344844712778;12.76644193673869;228.5155786629165;-0.7865345;2.291262;-0.08571803;-1.417349501474689;-4.977126164543619;288.50748332244;69.27643359310437;108.9461;2.422502;-0.2691948;0.04589141;-0.1301466;-1.046398;-0.1608629;0.05464046;1;303204.9246167647;10554.55840956701;-0.001;1;0;2;
1510747987.233622;1510747987.233622;1510747987.23371;57.77344815832451;12.76644351315893;228.5190441024552;-0.8025323;2.330927;-0.08453114;-1.430385692795661;-4.975725239489089;288.5043926744569;69.27670566780833;108.9985;2.465213;-0.1990191;0.1372424;-0.08578882;-1.093247;0.006288246;0.05364268;1;303204.9646167546;10554.59840955683;-0.001;1;0;2;
1510747987.576719;1510747987.576719;1510747987.576796;57.77344727781742;12.76644841522403;228.5292273124871;-0.8371598;2.463732;-0.08406444;-1.461321943361855;-4.968409921551419;288.498104481148;69.28142819378049;108.7674;2.602078;-0.06725651;0.07416871;-0.1103136;-1.138864;-0.04055911;0.1258156;1;303205.0846169785;10554.7184105263;-0.001;1;0;2;
1510747987.60515;1510747987.60515;1510747987.605239;57.77344697469585;12.76645010734799;228.5327410119132;-0.8504148;2.506983;-0.08850029;-1.457855147417129;-4.969659036710909;288.495292721069;69.2834363685471;108.7379;2.647295;0.2902226;-0.02368106;-0.0692669;-1.052323;0.04212367;0.01452529;1;303205.1246169683;10554.75841051612;-0.001;1;0;2;
1510747987.614639;1510747987.614639;1510747987.614764;57.77344666739386;12.76645182888644;228.5363696544649;-0.8616714;2.551524;-0.09018756;-1.456485493734915;-4.96941847425261;288.4892691680952;69.28544451858031;108.6603;2.693094;-0.1380164;0.1296991;-0.1702217;-1.118671;-0.04698971;0.05329898;1;303205.1646179581;10554.79841150594;-0.001;1;0;2;
1510747987.636631;1510747987.636631;1510747987.636748;57.77344635480676;12.76645357974658;228.5401125057226;-0.8795851;2.594737;-0.09252501;-1.45625250556535;-4.969656220814372;288.4841767123476;69.28745264379619;108.7261;2.739768;0.123504;0.03693694;-0.03675732;-1.243913;-0.06169706;0.1223432;1;303205.204617948;10554.83841149576;-0.001;1;0;2;
1510747987.64924;1510747987.64924;1510747987.649357;57.77344603639487;12.76645535988096;228.5438363957282;-0.8939977;2.638319;-0.09045754;-1.45168689591166;-4.971334690226539;288.4786621445148;69.28946074425025;108.719;2.785671;0.2930535;0.02422858;-0.1931857;-1.098817;-0.07719406;0.09075224;1;303205.2446179378;10554.87841148559;-0.001;1;0;2;
1510747987.656362;1510747987.656362;1510747987.656494;57.77344587474234;12.7664562601704;228.5456755464701;-0.9042768;2.657607;-0.09160136;-1.44464303325752;-4.972038298284906;288.4778060743308;69.29046478564588;108.7914;2.80724;0.3501888;-0.06675667;-0.03013352;-1.129988;-0.1147471;0.09671012;1;303205.2646179327;10554.8984114805;-0.001;1;0;2;
1510747987.663478;1510747987.663478;1510747987.663623;57.77344554743294;12.76645808270121;228.5492859290082;-0.9200591;2.701066;-0.08937018;-1.430485604365147;-4.971745179448189;288.4775994233933;69.29247284972494;108.8103;2.853466;0.4002651;0.01790385;0.1572123;-1.023764;0.04074388;0.07490001;1;303205.3046189225;10554.93841247032;-0.001;1;0;2;
1510747987.669284;1510747987.669284;1510747987.669395;57.77344521541266;12.76645993357078;228.5528885001845;-0.9307672;2.742722;-0.0886296;-1.421390021409222;-4.974583474529775;288.4802482344643;69.29448088987826;108.7451;2.896351;0.4903224;-0.07373463;0.1360018;-0.9602237;0.009367075;0.07941217;1;303205.3446189123;10554.97841246014;-0.001;1;0;2;
1510747987.807692;1510747987.807692;1510747987.807796;57.77344453920605;12.76646371032834;228.5601460625826;-0.951681;2.811812;-0.09268655;-1.382379178531394;-4.970546648147224;288.4857748852105;69.29849690601276;108.6988;2.968499;0.6269146;0.1659236;0.1394068;-0.8622169;0.03386381;-0.05227416;1;303205.424618892;10555.05841243978;-0.001;1;0;2;
1510747987.887059;1510747987.887059;1510747987.887142;57.77344419635027;12.76646563113068;228.5639524064115;-0.9557004;2.840603;-0.09719647;-1.356521566039072;-4.959307834921823;288.4823700424112;69.30050488653586;108.5951;2.997063;0.1378841;0.2950578;-0.1093471;-0.6015302;0.198713;-0.07196067;1;303205.4646198818;10555.09841342961;-0.001;1;0;2;
1510747987.967843;1510747987.967843;1510747987.967971;57.77344385139205;12.76646756815828;228.5678188952758;-0.9646859;2.862197;-0.09617956;-1.342132348345599;-4.934869247971756;288.475746577383;69.30251285321332;108.6261;3.020396;-0.02369085;0.8022282;-0.1367684;-0.6350435;-0.2593313;-0.1340183;1;303205.5046198716;10555.13841341943;-0.001;1;0;2;
1510747988.046954;1510747988.046954;1510747988.04714;57.77344350293375;12.7664695181606;228.5718742536409;-0.9763038;2.875851;-0.1036823;-1.348895197234445;-4.904199615765456;288.4677030966432;69.30452080911245;108.7515;3.037053;0.02913409;0.8838393;-0.0601188;-0.3773431;-0.1904777;-0.1285729;1;303205.5446198615;10555.17841340925;-0.001;1;0;2;
1510747988.066403;1510747988.066403;1510747988.066512;57.77344315031743;12.76647147692385;228.5760775567267;-0.9863731;2.891468;-0.108346;-1.352876256502557;-4.864974254941056;288.4596035433482;69.30652875724138;108.8362;3.055081;-0.1547184;0.8445227;-0.1476784;-0.3819638;-0.1208156;-0.1181369;1;303205.5846208513;10555.21841439907;-0.001;1;0;2;
1510747988.079617;1510747988.079617;1510747988.079721;57.77344279424815;12.76647344426178;228.5804101295689;-0.9933002;2.902418;-0.1094079;-1.350913849332951;-4.825818825116412;288.4527240842281;69.30853669795169;108.8926;3.067683;0.03450399;0.9145837;-0.1251729;-0.3423445;-0.0495807;0.06221389;1;303205.6246208411;10555.25841438889;-0.001;1;0;2;
1510747988.091374;1510747988.091374;1510747988.092417;57.77344243596361;12.76647542046725;228.5848704614268;-0.9985927;2.917756;-0.1096727;-1.360121550837849;-4.793791183619594;288.4522156838972;69.31054463126868;108.8933;3.083908;-0.4771137;0.8155761;0.265262;-0.3303584;0.1570875;0.1323118;1;303205.6646208309;10555.29841437872;-0.001;1;0;2;
1510747988.104431;1510747988.104431;1510747988.104539;57.77344207697544;12.76647740645126;228.589284914172;-0.9963308;2.932559;-0.1093195;-1.377290583107289;-4.764521566797479;288.4557941134528;69.31255255632972;108.7651;3.097189;-0.789721;0.6267288;0.002491898;-0.3502796;0.1072467;0.128426;1;303205.7046208207;10555.33841436854;-0.001;1;0;2;
1510747988.125561;1510747988.125561;1510747988.125673;57.7734417168672;12.76647940174395;228.5936201883455;-1.005216;2.944164;-0.1055089;-1.394235607847498;-4.743524528917889;288.4613920718007;69.31456047370931;108.8513;3.111038;-0.2421021;0.4651881;0.3703176;-0.3223606;0.1003482;0.1045502;1;303205.7446218106;10555.37841535836;-0.001;1;0;2;
1510747988.144694;1510747988.144694;1510747988.144806;57.77344135577686;12.76648140381138;228.5977715439325;-1.00522;2.953331;-0.1030979;-1.391785137837272;-4.724786512002709;288.4638916832055;69.31656838528069;108.7969;3.119717;0.2678964;0.289726;0.07815555;-0.2586429;0.0356737;0.1486763;1;303205.7846218004;10555.41841534818;-0.001;1;0;2;
1510747988.160764;1510747988.160764;1510747988.160874;57.77344099455354;12.76648341203776;228.6017739940195;-1.003815;2.961848;-0.0969418;-1.371573334278683;-4.709489376442341;288.460657404782;69.31857629177469;108.7223;3.12733;0.5053287;0.3448112;0.05457331;-0.07808858;0.2226722;0.1341335;1;303205.8246217902;10555.458415338;-0.001;1;0;2;
1510747988.183832;1510747988.183832;1510747988.18393;57.77344063448901;12.76648542412476;228.6056801574963;-0.9995038;2.964839;-0.09641308;-1.355326634430454;-4.700586777995353;288.45533745034;69.32058419541461;108.6299;3.128782;0.3419439;0.196829;-0.03659492;0.01861363;0.0918992;-0.02626454;1;303205.86462278;10555.49841632783;-0.001;1;0;2;
1510747988.263849;1510747988.263849;1510747988.263961;57.77344027553282;12.76648743767035;228.6095541489111;-0.9953002;2.967376;-0.0984168;-1.352487193094436;-4.692970499406035;288.4488264999528;69.32259209815361;108.5422;3.129847;-0.2734461;0.08386514;-0.2522098;0.005958648;0.08081894;-0.02200013;1;303205.9046227699;10555.53841631765;-0.001;1;0;2;
1510747988.343788;1510747988.343788;1510747988.343898;57.77343991641946;12.76648944969884;228.6134807239755;-0.9983153;2.96155;-0.09877781;-1.350087840262239;-4.682339103342606;288.4412143154298;69.3246000021292;108.6286;3.125286;-0.01804542;0.3081089;-0.187546;0.07452688;-0.02890053;-0.03134912;1;303205.9446227596;10555.57841630747;-0.001;1;0;2;
1510747988.420357;1510747988.420357;1510747988.420464;57.77343955601492;12.76649145822053;228.6174673872577;-1.002613;2.957475;-0.1002873;-1.337457637992891;-4.669036217217284;288.4335820025224;69.32660790880294;108.7272;3.122802;0.4433558;0.2675099;-0.151965;0.08107737;-0.0980067;-0.003835679;1;303205.9846227495;10555.61841629729;-0.001;1;0;2;
1510747988.4568;1510747988.4568;1510747988.456909;57.77343939333597;12.76649247341273;228.6194898267675;-1.006415;2.952233;-0.09734698;-1.329899345830368;-4.662812934759089;288.4294321071368;69.32863948964686;108.8242;3.119062;0.4833432;0.4995741;0.1920582;0.2454257;-0.005943713;-0.02190195;1;303206.0046239988;10555.6384172922;-0.001;1;0;2;
1510747988.481023;1510747988.481023;1510747988.481087;57.77343921734771;12.76649348079303;228.6214979714224;-1.005695;2.951101;-0.09773134;-1.31943732581721;-4.654885657860425;288.4240988644362;69.33169869776883;108.8184;3.117759;0.7056928;0.3731242;0.09658131;0.016709;0.001293468;-0.01008936;1;303206.0246239937;10555.65841728711;-0.001;1;0;2;
1510747988.485524;1510747988.485524;1510747988.485639;57.77343904155631;12.76649448762985;228.6234928814984;-1.000131;2.949478;-0.09831388;-1.310585359069858;-4.646568394999911;288.4184055641666;69.3347579063812;108.7311;3.114431;0.5393286;0.3660889;-0.207028;0.244956;0.05275009;-0.04615258;1;303206.0446239886;10555.67841728202;-0.001;1;0;2;
1510747988.490323;1510747988.490323;1510747988.49043;57.77343869091922;12.76649649844068;228.6274805841615;-0.9948869;2.945557;-0.09825597;-1.302208925833487;-4.630640202921446;288.4130450236053;69.34087632589282;108.6628;3.109037;0.03242157;0.3506312;-0.08871223;0.09925406;0.09583189;-0.02893607;1;303206.0846239785;10555.71841727185;-0.001;1;0;2;
1510747988.495923;1510747988.495923;1510747988.49603;57.77343834193184;12.76649850615235;228.6315043565363;-0.9925807;2.939882;-0.0996879;-1.306303439643715;-4.616747955243934;288.4117485579721;69.34699474809491;108.656;3.102922;-0.2396994;0.2489657;0.2534457;0.05080905;0.03863525;-0.01692012;1;303206.1246239683;10555.75841726167;-0.001;1;0;2;
1510747988.50151;1510747988.50151;1510747988.501623;57.77343799415041;12.76650051037596;228.6355473833809;-0.989519;2.933631;-0.09875753;-1.315653763462694;-4.605235682145025;288.4093535397759;69.35311317347997;108.6393;3.09602;-0.06908531;0.255474;0.04075236;0.2243161;-0.1847401;-0.0256547;1;303206.1646249581;10555.79841825149;-0.001;1;0;2;
1510747988.507182;1510747988.507182;1510747988.507287;57.77343764582605;12.76650250931771;228.6396244230683;-0.9931504;2.926787;-0.09851114;-1.313432252536349;-4.598396669073491;288.4066208790844;69.35923160333429;108.7437;3.090701;0.311575;0.186708;0.1291366;0.03214638;-0.1849575;0.08453281;1;303206.2046249479;10555.83841824131;-0.001;1;0;2;
1510747988.543686;1510747988.543686;1510747988.543788;57.7734372975674;12.76650450438628;228.6436026529083;-0.9899244;2.921206;-0.09521818;-1.298212520969109;-4.593313358266008;288.3984440798046;69.36535003660036;108.7202;3.084379;0.3651806;0.1336303;0.003442009;0.1322405;-0.1207303;0.01882671;1;303206.2446249378;10555.87841823113;-0.001;1;0;2;
1510747988.583716;1510747988.583716;1510747988.583786;57.77343712374434;12.76650550005107;228.6455438011362;-0.984839;2.917872;-0.09653711;-1.290656608479214;-4.589953894139311;288.3936775349467;69.36840925482059;108.6505;3.079592;0.1051727;0.05944441;-0.223712;0.2528101;0.1108618;-0.05184593;1;303206.2646249327;10555.89841822604;-0.001;1;0;2;
1510747988.665057;1510747988.665057;1510747988.665214;57.77343677744233;12.76650748731926;228.6494827378002;-0.9809192;2.909581;-0.09687468;-1.281937409407709;-4.585016786115379;288.3863481178602;69.37452769475365;108.6307;3.070483;-0.008100989;0.1964733;0.02278562;0.2225955;0.1684255;-0.0410012;1;303206.3046259225;10555.93841921587;-0.001;1;0;2;
1510747988.743694;1510747988.743694;1510747988.74378;57.77343643346614;12.76650946899163;228.6535150774668;-0.9754137;2.90055;-0.09822477;-1.282454459400762;-4.577548729048144;288.3805146007163;69.38064613939993;108.5871;3.060167;0.09060746;0.3334786;0.06731568;0.276356;0.04321805;-0.04806752;1;303206.3446259123;10555.97841920569;-0.001;1;0;2;
1510747988.884331;1510747988.884331;1510747988.884441;57.7734359202143;12.76651242808187;228.6597521746973;-0.9683255;2.884758;-0.104116;-1.27433964463082;-4.565443168459144;288.3761604344539;69.38982381731051;108.5553;3.042939;0.222776;0.07403313;0.0558453;0.1656054;0.09161539;0.113851;1;303206.404626897;10556.03842019042;-0.001;1;0;2;
1510747988.948326;1510747988.948326;1510747988.948432;57.77343557949862;12.76651439170131;228.6639376317592;-0.9647664;2.873963;-0.1028552;-1.25882481969208;-4.559301891344285;288.3748247045418;69.39594227677871;108.5565;3.031574;0.2165073;-0.0138572;0.1466595;0.2641441;0.1323961;0.1733336;1;303206.4446268869;10556.07842018024;-0.001;1;0;2;
1510747988.955473;1510747988.955473;1510747988.955576;57.77343524017557;12.76651634668537;228.667993964807;-0.9629907;2.858732;-0.09950703;-1.238354965495196;-4.549108327412936;288.3722327629185;69.40206074338369;108.6166;3.016571;0.4349521;0.2242649;0.2882721;0.3871076;-0.0199953;-0.05173441;1;303206.4846268767;10556.11842017007;-0.001;1;0;2;
1510747988.962196;1510747988.962196;1510747988.962298;57.77343490258166;12.76651829172061;228.6720663562973;-0.955985;2.843879;-0.09897953;-1.221442315277474;-4.540592908808541;288.3658729818164;69.40817921872289;108.5803;3.000259;0.47939;0.2840254;0.07264629;0.3794316;0.03496124;-0.009841106;1;303206.5246268665;10556.15842015989;-0.001;1;0;2;
1510747988.969008;1510747988.969008;1510747988.969118;57.77343456678203;12.76652022607721;228.6761096089513;-0.9518329;2.828332;-0.1013427;-1.20518059267805;-4.527985826640921;288.3570471268384;69.41429770308147;108.5999;2.9842;0.3691181;0.1438585;0.06731833;0.3883293;0.007252797;0.03098831;1;303206.5646278563;10556.19842114971;-0.001;1;0;2;
1510747988.975821;1510747988.975821;1510747988.975941;57.77343423299064;12.76652215013888;228.680111611184;-0.9452978;2.813796;-0.09728742;-1.18843151233311;-4.511077977004733;288.3442287206966;69.42041619618752;108.5698;2.968338;0.3116498;0.4814341;-0.04416701;0.3633236;-0.01199556;0.1026828;1;303206.6046278462;10556.23842113953;-0.001;1;0;2;
1510747988.995406;1510747988.995406;1510747988.995508;57.77343390089894;12.76652406432663;228.6840691289821;-0.9392606;2.799453;-0.09345694;-1.17782966298072;-4.494328804027753;288.3309273830272;69.42653469777815;108.5474;2.952821;0.4708737;0.5255753;-0.09638604;0.3534233;0.1098161;0.2117305;1;303206.644627836;10556.27842112935;-0.001;1;0;2;
1510747989.007612;1510747989.007612;1510747989.008113;57.77343357052033;12.76652596863764;228.687739247666;-0.933417;2.786188;-0.08758234;-1.164031454365633;-4.468268843332399;288.3188550595538;69.4326532072551;108.5217;2.938385;0.3744551;0.6216037;-0.1059426;0.3035114;0.1114193;0.1564206;1;303206.6846288258;10556.31842211918;-0.001;1;0;2;
1510747989.053618;1510747989.053618;1510747989.05374;57.77343324184223;12.76652786464427;228.691249982591;-0.9262745;2.772836;-0.08361217;-1.151877621930091;-4.448682237397725;288.3092344035597;69.43877172389884;108.4721;2.923458;0.2791369;0.4676512;-0.1490171;0.5238008;0.0527905;0.06910899;1;303206.7246288156;10556.358422109;-0.001;1;0;2;
1510747989.086865;1510747989.086865;1510747989.087539;57.77343291500256;12.76652974997688;228.6946077893683;-0.9229636;2.75831;-0.08329699;-1.139318422110965;-4.428534717074983;288.3025383432274;69.44489024939051;108.5009;2.908631;0.4698041;0.3637751;-0.0684706;0.3600392;-0.03762094;-0.003010395;1;303206.7646288055;10556.39842209882;-0.001;1;0;2;
1510747989.156834;1510747989.156834;1510747989.156937;57.77343258971535;12.76653162665367;228.698027457192;-0.9161211;2.744418;-0.08429185;-1.125651513648503;-4.417762359501038;288.2989774370894;69.45100878237645;108.4597;2.893287;-0.09485668;0.2659382;0.06434128;0.4891316;0.04073092;-0.05417737;1;303206.8046287952;10556.43842208864;-0.001;1;0;2;
1510747989.236864;1510747989.236864;1510747989.236998;57.77343226668793;12.76653349386567;228.7015399034987;-0.9117131;2.730589;-0.08857916;-1.115899824187982;-4.410355371847434;288.2958179474563;69.45712732353981;108.4636;2.878773;0.3265522;0.1240175;0.0837189;0.4869637;-0.01977112;-0.1367344;1;303206.8446297851;10556.47842307846;-0.001;1;0;2;
1510747989.31697;1510747989.31697;1510747989.31708;57.77343194515971;12.76653535117133;228.7051834677265;-0.9059541;2.717768;-0.09066885;-1.105929874560728;-4.405354836909873;288.292491316728;69.46324587317947;108.4355;2.864789;0.1298902;0.06476322;-0.07809506;0.3529191;0.06099571;-0.05992163;1;303206.8846297749;10556.51842306828;-0.001;1;0;2;
1510747989.361115;1510747989.361115;1510747989.361179;57.77343162469637;12.76653719974025;228.7088609369524;-0.9061806;2.702857;-0.09125791;-1.094098124901482;-4.402987194413677;288.2892498455479;69.46936443027445;108.5346;2.85072;0.2162574;-0.003601072;0.2177801;0.30676;-0.07733347;0.1028524;1;303206.9246297647;10556.55842305811;-0.001;1;0;2;
1510747989.371301;1510747989.371301;1510747989.371604;57.77343130555808;12.76653903987489;228.7124721282171;-0.8999278;2.692519;-0.08828855;-1.081253367786644;-4.402778203087954;288.282427576064;69.47548299475672;108.4813;2.838931;0.2984079;-0.1171602;0.02789134;0.3806589;0.03339879;0.06290325;1;303206.9646307545;10556.59842404793;-0.001;1;0;2;
1510747989.415279;1510747989.415279;1510747989.415764;57.77343040718644;12.76654456295515;228.7228166515231;-0.888183;2.661848;-0.08496255;-1.060174459781838;-4.405650422045158;288.2612536159098;69.49850479768821;108.4524;2.806119;-0.09628214;-0.05738976;0.1685624;0.1828705;-0.08162959;-0.1222587;1;303207.0846309784;10556.71842401739;-0.001;1;0;2;
1510747989.434311;1510747989.434311;1510747989.435042;57.77343010597979;12.76654639039837;228.7262765374759;-0.8838435;2.655876;-0.08600686;-1.059821079547423;-4.399806647606153;288.25493159915;69.50669719537635;108.4068;2.799081;-0.03200839;0.02926428;-0.1244247;0.1093506;-0.1037609;-0.05619238;1;303207.1246319683;10556.75842500722;-0.001;1;0;2;
1510747989.513528;1510747989.513528;1510747989.513922;57.77342980441661;12.76654821437089;228.7298843753489;-0.8854812;2.651988;-0.08533705;-1.052917664507053;-4.398847001208925;288.248461950711;69.51488959608648;108.4638;2.795911;0.4875829;0.1996046;-0.09901959;0.02414839;-0.0127394;-0.004457433;1;303207.1646319581;10556.79842499704;-0.001;1;0;2;
1510747989.593599;1510747989.593599;1510747989.593707;57.77342950240872;12.76655003843102;228.7335537497267;-0.8880277;2.655284;-0.09000855;-1.039198250111428;-4.399224932814109;288.2431258782231;69.5230819966033;108.4919;2.799844;0.4016737;-0.2253792;0.1839527;-0.05162573;0.0841046;0.1005613;1;303207.2046319479;10556.83842498686;-0.001;1;0;2;
1510747989.673854;1510747989.673854;1510747989.673961;57.77342920079261;12.76655186605756;228.7371918938532;-0.8851537;2.661798;-0.08775172;-1.033759212187775;-4.405340363510076;288.2358185910155;69.5312743945581;108.394;2.805114;0.05735006;-0.2885416;0.04571007;-0.1161553;0.0754558;0.1015344;1;303207.2446329377;10556.87842597668;-0.001;1;0;2;
1510747989.713812;1510747989.713812;1510747989.71401;57.7734290499868;12.76655278110817;228.7389615585994;-0.8855212;2.663686;-0.0840124;-1.02887206920362;-4.407959115251066;288.2324817278729;69.53537059242026;108.389;2.807022;0.3909369;-0.08441991;0.01464456;-0.02061798;-0.07893422;0.05884774;1;303207.2646329326;10556.89842597159;-0.001;1;0;2;
1510747989.793704;1510747989.793704;1510747989.793812;57.77342874832742;12.76655461347588;228.7425118874916;-0.8853827;2.668862;-0.08322567;-1.02865308801117;-4.416408685256491;288.2274347134569;69.54356298642077;108.353;2.81189;0.03102902;-0.03955733;0.09807862;-0.05221786;-0.04687357;-0.06994978;1;303207.3046329225;10556.93842596141;-0.001;1;0;2;
1510747989.819945;1510747989.819945;1510747989.820087;57.77342844630863;12.76655644843954;228.7460703562736;-0.8887311;2.668422;-0.08557392;-1.029118013673479;-4.422512847840439;288.2209773236502;69.55175537822043;108.4206;2.812529;0.1293487;-0.03955738;0.3003896;0.159313;-0.1033411;-0.117656;1;303207.3446329123;10556.97842595124;-0.001;1;0;2;
1510747989.836942;1510747989.836942;1510747989.837578;57.77342784335609;12.76656010731289;228.7531648340996;-0.8826084;2.654483;-0.08500025;-1.029915702144023;-4.405272019529239;288.2017753529684;69.56814017037792;108.3918;2.79737;0.01366788;0.5295259;0.04320069;0.2775118;-0.1231116;-0.1312903;1;303207.4246338919;10557.05842693088;-0.001;1;0;2;
1510747989.862225;1510747989.862225;1510747989.862331;57.77342754261864;12.76656192738194;228.7566880044985;-0.8776559;2.645096;-0.08567642;-1.039610789264314;-4.380729462005832;288.1932058326342;69.57633257387438;108.3561;2.7869;-0.1043741;0.6326805;-0.1149587;0.190463;-0.04669887;-0.0940611;1;303207.4646338818;10557.0984269207;-0.001;1;0;2;
1510747989.878621;1510747989.878621;1510747989.879037;57.77342724235085;12.7665637411287;228.7602093848391;-0.8774261;2.637197;-0.0880089;-1.051350563698231;-4.353158141580141;288.185620745882;69.5845249825846;108.4029;2.779332;-0.4926226;0.4656631;0.06285194;0.1168269;0.02740303;-0.001928709;1;303207.5046348716;10557.13842791052;-0.001;1;0;2;
1510747989.893883;1510747989.893883;1510747989.893985;57.77342694206954;12.76656554966893;228.7637328074983;-0.879367;2.62925;-0.08669379;-1.046850161749793;-4.32865327528321;288.1795012765011;69.59271739547296;108.4928;2.772407;0.1460733;0.3729018;0.2525005;0.1339251;0.06775209;0.1086463;1;303207.5446348614;10557.17842790035;-0.001;1;0;2;
1510747989.906541;1510747989.906541;1510747989.906651;57.77342664311106;12.76656735341195;228.7672527969573;-0.8696179;2.622621;-0.08451828;-1.031861802315126;-4.308996404499726;288.1752743314125;69.6009098123337;108.3447;2.763037;0.3588106;0.474763;0.1232878;0.2976664;0.1516236;0.07275635;1;303207.5846348512;10557.21842789017;-0.001;1;0;2;
1510747989.98377;1510747989.98377;1510747989.983846;57.77342634675312;12.76656915331544;228.770692413189;-0.8628837;2.617807;-0.07952803;-1.017030072812959;-4.291581170918872;288.1711296283888;69.60910223252525;108.2433;2.756353;0.4505282;0.5541528;0.193292;0.289167;0.09923232;0.04283858;1;303207.624634841;10557.25842787999;-0.001;1;0;2;
1510747990.060897;1510747990.060897;1510747990.061003;57.77342605256133;12.76657094941493;228.7739430259253;-0.8551997;2.612503;-0.07479417;-1.010211647504068;-4.274491948445871;288.1709395462347;69.61729465587237;108.1258;2.748916;0.1735825;0.4859373;0.06516772;0.2722771;0.003486387;0.1056929;1;303207.6646358308;10557.29842886981;-0.001;1;0;2;
1510747990.096923;1510747990.096923;1510747990.097094;57.77342575975477;12.76657274187821;228.7770422051152;-0.8542867;2.607554;-0.07400171;-1.004142414145963;-4.264858326383649;288.1687640140169;69.62548708269559;108.1398;2.743928;0.2281271;0.03528466;0.1874254;0.2005878;-0.07319675;0.1790872;1;303207.7046358207;10557.33842885963;-0.001;1;0;2;
1510747990.167273;1510747990.167273;1510747990.167574;57.77342546682122;12.76657452969914;228.7800353771564;-0.8553265;2.601405;-0.07152594;-0.9831181452139189;-4.264126465462835;288.1638770840004;69.63367951368291;108.2006;2.73841;0.3173936;-0.1440723;0.1039578;0.06445156;-0.06526371;0.1496524;1;303207.7446358105;10557.37842884946;-0.001;1;0;2;
1510747990.230189;1510747990.230189;1510747990.231003;57.77342517364441;12.7665763136369;228.7829393765754;-0.8545688;2.595811;-0.06759674;-0.9582320321031158;-4.268528031350371;288.1584567445296;69.64187194811628;108.2221;2.73286;0.6792501;-0.05135492;-0.02904733;0.1542222;-0.1693321;0.06686119;1;303207.7846368003;10557.41842983928;-0.001;1;0;2;
1510747990.243763;1510747990.243763;1510747990.243846;57.77342488083613;12.76657809362768;228.7858424392575;-0.8541267;2.58807;-0.0698358;-0.9495545921746869;-4.274960608222177;288.1527161663948;69.65006438624812;108.2642;2.725369;0.2503696;-0.09886379;0.1469309;0.2926621;-0.05925584;-0.1485316;1;303207.8246367901;10557.4584298291;-0.001;1;0;2;
1510747990.250706;1510747990.250706;1510747990.250828;57.77342458806952;12.76657986834703;228.7888373925522;-0.8530983;2.581493;-0.07421459;-0.9499054690086816;-4.280494793594816;288.1475619764116;69.65825682892205;108.287;2.718802;-0.3391679;-0.1113197;0.1261442;0.1620543;-0.08477726;-0.08009292;1;303207.8646367799;10557.49842981892;-0.001;1;0;2;
1510747990.263034;1510747990.263034;1510747990.263137;57.77342429523235;12.76658163839238;228.7919732731019;-0.8516665;2.575217;-0.07983747;-0.9656172818204306;-4.284310338762753;288.1433702767426;69.66644927568557;108.2999;2.712394;-0.6069906;-0.2459996;0.146243;0.1359643;0.1050507;-0.0007810576;1;303207.9046367698;10557.53842980874;-0.001;1;0;2;
1510747990.270353;1510747990.270353;1510747990.270459;57.77342400196611;12.76658340276035;228.7952163037206;-0.8548051;2.566902;-0.07896494;-0.9884827054073465;-4.281704837571702;288.143048978117;69.67464172692218;108.4183;2.70549;-0.5081788;0.1766576;0.2265935;0.1035616;-0.1604754;-0.1384634;1;303207.9446377596;10557.57843079857;-0.001;1;0;2;
1510747990.287886;1510747990.287886;1510747990.287989;57.77342370840412;12.7665851627729;228.7986110558954;-0.8527303;2.561684;-0.08162469;-1.019919630997069;-4.280743613832815;288.1428761905555;69.68283418203912;108.4115;2.699884;-0.8186758;0.0919156;0.0866076;0.1898684;-0.1322731;-0.02348995;1;303207.9846377494;10557.61843078839;-0.001;1;0;2;
1510747990.295408;1510747990.295408;1510747990.295541;57.77342357812448;12.7665860518468;228.8003453262104;-0.8516466;2.559346;-0.08264849;-1.044238424502735;-4.281400101255842;288.1443770115606;69.68635702166775;108.4054;2.697323;-1.275091;0.04413355;0.141012;0.08199076;-0.0170613;0.0596301;1;303208.0046379988;10557.6384307833;-0.001;1;0;2;
1510747990.353749;1510747990.353749;1510747990.353861;57.77342343421026;12.76658693264143;228.802042057352;-0.8547527;2.555052;-0.08316161;-1.061940182786745;-4.279041990514397;288.1469042122031;69.68930647239979;108.4969;2.694233;-0.8507744;0.06115022;0.3306257;0.1562517;-0.03806169;-0.1027697;1;303208.0246379937;10557.65843077821;-0.001;1;0;2;
1510747990.393605;1510747990.393605;1510747990.39367;57.77342329059849;12.76658781286477;228.8037579065726;-0.8534972;2.553919;-0.07906475;-1.079796479821395;-4.278605260085813;288.1482582632515;69.69225592375177;108.4792;2.692761;-0.5400373;0.2346747;0.2976113;0.1205232;0.06028202;0.09615832;1;303208.0446379887;10557.67843077312;-0.001;1;0;2;
1510747990.443866;1510747990.443866;1510747990.443964;57.77342314707562;12.76658869190688;228.8054070294924;-0.8528048;2.550356;-0.08204562;-1.091014450041814;-4.2734217549382;288.1489027890256;69.6952053758497;108.4892;2.689162;-0.7324824;0.05741288;0.3504947;0.1005758;0.004892113;0.0375215;1;303208.0646389836;10557.69843176803;-0.001;1;0;2;
1510747990.523728;1510747990.523728;1510747990.523834;57.77342286110576;12.76659044853629;228.8086885728443;-0.8464471;2.549014;-0.07780695;-1.112783251437944;-4.266584976369909;288.1483006838771;69.70110428149806;108.3697;2.685879;-0.5898284;0.1077859;0.1629079;0.05172435;0.07127175;0.2055055;1;303208.1046389734;10557.73843175785;-0.001;1;0;2;
1510747990.604019;1510747990.604019;1510747990.604177;57.77342257678059;12.76659220255348;228.8117383220068;-0.8416167;2.545152;-0.07003496;-1.128863821382957;-4.251837287246064;288.1460016540282;69.70700318904758;108.2977;2.680694;-0.1499937;0.4658254;0.08128376;0.06710779;0.0295978;0.0408166;1;303208.1446389632;10557.77843174767;-0.001;1;0;2;
1510747990.683868;1510747990.683868;1510747990.683977;57.77342229407326;12.76659395457039;228.8146751701082;-0.8363092;2.541066;-0.06640967;-1.139986572653547;-4.23598950932019;288.1414666552282;69.71290209828085;108.2173;2.67515;0.006445297;0.6596445;0.01166902;0.2582613;0.01007869;-0.07007898;1;303208.184638953;10557.8184317375;-0.001;1;0;2;
1510747990.696605;1510747990.696605;1510747990.696714;57.77342201270171;12.76659570382062;228.8174847187404;-0.8341308;2.538121;-0.06971159;-1.142288002867381;-4.216262403970783;288.1371212882104;69.7188010095513;108.1926;2.671672;0.1143087;0.3090639;0.1489721;0.1462273;0.02064268;-0.1011899;1;303208.2246399429;10557.85843272732;-0.001;1;0;2;
1510747990.729054;1510747990.729054;1510747990.729185;57.77342159237154;12.76659832314078;228.8216919450748;-0.8292106;2.532844;-0.06619472;-1.126980213517683;-4.190344406127559;288.131274400314;69.72764938011007;108.1276;2.665125;0.493226;0.5024376;0.03509161;0.3005538;-0.04323559;-0.1184319;1;303208.2846399276;10557.91843271205;-0.001;1;0;2;
1510747990.740038;1510747990.740038;1510747990.740101;57.77342131341108;12.76660006641009;228.8245193065273;-0.8259734;2.529546;-0.07157259;-1.120447450338181;-4.178321626999868;288.1284878381087;69.73354829651079;108.0834;2.660984;0.1094588;0.07376366;0.1080177;0.1419033;-0.03571617;-0.1055156;1;303208.3246399174;10557.95843270187;-0.001;1;0;2;
1510747990.750824;1510747990.750824;1510747990.750926;57.77342103467388;12.76660180635126;228.8274342505077;-0.827152;2.52374;-0.07401925;-1.107853189952507;-4.168900637513913;288.1255329508114;69.73944721573693;108.1465;2.655832;0.1428615;0.03953606;0.2251075;0.04603824;-0.08023605;0.02968883;1;303208.3646409072;10557.9984336917;-0.001;1;0;2;
1510747990.758534;1510747990.758534;1510747990.758638;57.77342089546386;12.76660267505853;228.8289308645606;-0.8242276;2.521795;-0.07223542;-1.103788725262678;-4.16468839463102;288.1234847128933;69.74239667650365;108.0995;2.653074;0.3979988;0.2773934;0.04141778;0.2129623;0.01538782;-0.1744993;1;303208.3846409021;10558.01843368661;-0.001;1;0;2;
1510747990.769767;1510747990.769767;1510747990.769878;57.77342061678621;12.76660441007375;228.8320243562537;-0.8240453;2.517823;-0.07606222;-1.086703176610986;-4.1573235956861;288.1187903920659;69.74829559999237;108.1225;2.649242;0.07706242;0.1479294;0.04051318;0.09664202;-0.04170081;-0.02940227;1;303208.424640892;10558.05843367643;-0.001;1;0;2;
1510747990.79369;1510747990.79369;1510747990.793799;57.77342033843951;12.76660614199662;228.8351243980722;-0.823086;2.515131;-0.07404789;-1.083615656482841;-4.150107533399697;288.1157916874893;69.75419452624323;108.1209;2.646385;0.01966306;0.09352167;0.04039863;-0.05898542;-0.05481514;0.257694;1;303208.4646408817;10558.09843366625;-0.001;1;0;2;
1510747990.873646;1510747990.873646;1510747990.873721;57.77342006001231;12.76660787183816;228.8381004872053;-0.823412;2.511499;-0.06905785;-1.090576925432959;-4.141318441972533;288.1134562239175;69.76009345432324;108.1521;2.643035;-0.2290235;0.2407826;0.1060362;0.01576479;0.03096819;0.2226569;1;303208.5046418716;10558.13843465607;-0.001;1;0;2;
1510747990.953718;1510747990.953718;1510747990.953822;57.77341978166299;12.76660959853094;228.8408733632155;-0.8246435;2.506004;-0.06312357;-1.098197447832923;-4.1275456408849;288.1098634702449;69.76599238494946;108.2147;2.638199;-0.2724316;0.5240061;0.1539809;0.1878162;-0.1166191;-0.06709675;1;303208.5446418614;10558.17843464589;-0.001;1;0;2;
1510747991.033733;1510747991.033733;1510747991.033839;57.77341950288197;12.76661132215725;228.8435966275638;-0.8233023;2.502517;-0.06416902;-1.117065239532067;-4.117771978567028;288.1073613092759;69.77189131845128;108.2107;2.634467;-0.6324668;0.2001586;0.06380823;0.2004522;-0.02844119;-0.05335902;1;303208.5846418513;10558.21843463572;-0.001;1;0;2;
1510747991.069506;1510747991.069506;1510747991.070256;57.77341922371251;12.76661304298278;228.8461996329964;-0.8250917;2.498117;-0.06551406;-1.129264411635123;-4.107357117037603;288.1035249134733;69.77779025425744;108.2776;2.630849;-0.4284033;0.02063917;0.1199001;0.04061218;0.03886503;0.03072267;1;303208.6246428411;10558.25843562554;-0.001;1;0;2;
1510747991.111002;1510747991.111002;1510747991.111121;57.77341894466817;12.76661476147072;228.8487807040706;-0.8219252;2.496024;-0.06231956;-1.131655104534713;-4.099918228107243;288.1013050043177;69.78368919191308;108.2264;2.62787;-0.110585;0.1028239;0.1730129;-0.03165951;0.1531959;0.2079751;1;303208.6646428309;10558.29843561536;-0.001;1;0;2;
1510747991.130188;1510747991.130188;1510747991.130251;57.77341866719849;12.76661647842673;228.8513740753739;-0.8158649;2.496099;-0.06204965;-1.12992487490991;-4.094598335536135;288.1012295221846;69.78958813076895;108.1003;2.626051;0.09437239;0.08310286;0.1037884;-0.05865536;0.1415018;0.1982746;1;303208.7046428207;10558.33843560518;-0.001;1;0;2;
1510747991.147026;1510747991.147026;1510747991.147139;57.77341839180527;12.76661819499907;228.854009590078;-0.8091772;2.493711;-0.06047796;-1.139024979825303;-4.09547418493317;288.1012489068447;69.79548707036153;107.9776;2.62171;-0.02457359;0.1262804;0.06381862;0.1785353;0.05711957;0.05073186;1;303208.7446438106;10558.378436595;-0.001;1;0;2;
1510747991.160223;1510747991.160223;1510747991.160327;57.7734181174397;12.76661990910818;228.8566766616752;-0.809344;2.488877;-0.0635973;-1.148242856387404;-4.097895572993425;288.1017100284583;69.80138601207699;108.0137;2.617164;-0.1176103;0.05074143;0.1905563;0.2340454;0.08867176;-0.1224744;1;303208.7846438003;10558.41843658483;-0.001;1;0;2;
1510747991.175036;1510747991.175036;1510747991.175141;57.77341784282027;12.7666216195683;228.8593800313177;-0.8105773;2.483397;-0.06822887;-1.144857761922663;-4.094290516547592;288.1003469869909;69.80728495653381;108.0766;2.612335;0.1383862;0.01220469;0.1437917;0.09572083;-0.04876836;-0.1457775;1;303208.8246437902;10558.45843657465;-0.001;1;0;2;
1510747991.189765;1510747991.189765;1510747991.18984;57.77341756810562;12.7666233270432;228.8620896013692;-0.8072121;2.481624;-0.06654134;-1.133082387717746;-4.082133549543962;288.0950148921924;69.8131839032516;108.0184;2.609607;-0.2547199;0.2192605;-0.01569605;0.05371195;0.1012476;0.1223333;1;303208.86464378;10558.49843656447;-0.001;1;0;2;
1510747991.201049;1510747991.201049;1510747991.201154;57.77341729391905;12.76662503177871;228.8647095715096;-0.8092462;2.476448;-0.06216561;-1.130680324345994;-4.062671793503974;288.0910121026835;69.81908285208665;108.0962;2.605316;-0.001371225;0.4983935;0.2195024;-0.04559538;0.02237967;0.1031483;1;303208.9046447698;10558.53843755429;-0.001;1;0;2;
1510747991.228071;1510747991.228071;1510747991.228193;57.77341702027176;12.76662673366347;228.8673687966686;-0.8038206;2.47246;-0.06282311;-1.139416338714786;-4.044568118805205;288.0879909729974;69.82498180351624;108.0098;2.599843;-0.2085192;0.5447912;-0.08055528;0.1547944;-0.06363203;-0.07482692;1;303208.9446447596;10558.57843754411;-0.001;1;0;2;
1510747991.309858;1510747991.309858;1510747991.310003;57.77341674680666;12.76662843254248;228.8701210232423;-0.8054727;2.466752;-0.0679739;-1.15831691823713;-4.030915086136984;288.0839346964234;69.83088075788064;108.0835;2.594928;-0.7102695;0.3291294;0.05910783;0.2770377;-0.147284;-0.2224962;1;303208.9846447494;10558.61843753393;-0.001;1;0;2;
1510747991.349438;1510747991.349438;1510747991.352597;57.77341662307342;12.76662928785991;228.871596388223;-0.8049486;2.465547;-0.06788087;-1.172518541208663;-4.029247489774155;288.0824942766812;69.8335581847879;108.0808;2.59362;-0.5840473;0.2964212;-0.0637234;0.04131816;-0.03772621;0.06431443;1;303209.0046439988;10558.63843752885;-0.001;1;0;2;
1510747991.466909;1510747991.466909;1510747991.467023;57.77341648792842;12.76663013493009;228.8730169866183;-0.8070157;2.461418;-0.07103736;-1.179177149568283;-4.021734620020219;288.0806342266105;69.83596356041686;108.1526;2.590338;-0.4542754;0.1738433;0.002166475;0.1010669;-0.1074456;-0.06822783;1;303209.0246449937;10558.65843852376;-0.001;1;0;2;
1510747991.507327;1510747991.507327;1510747991.507659;57.77341635274188;12.76663098148641;228.8744614918257;-0.8071553;2.460243;-0.06597725;-1.191030769930595;-4.016189568834929;288.078322460402;69.83836893666466;108.1636;2.589266;-0.3896576;0.4581321;-0.05590893;0.09579393;-0.05645801;0.02533576;1;303209.0446449886;10558.67843851867;-0.001;1;0;2;
1510747991.554373;1510747991.554373;1510747991.554438;57.77341621781336;12.76663182738955;228.8758866574734;-0.8041089;2.459194;-0.06921595;-1.20148548322905;-4.009163559057775;288.073203795536;69.8407743135281;108.1067;2.587321;-0.5402539;0.2642888;-0.2093013;-0.008670921;0.03648024;0.02099605;1;303209.0646449835;10558.69843851358;-0.001;1;0;2;
1510747991.561575;1510747991.561575;1510747991.561681;57.7734159480117;12.76663351704141;228.8787058182617;-0.8038582;2.455083;-0.06734739;-1.22401549034341;-3.994515135568257;288.0632984253372;69.84558506906286;108.1298;2.583335;-0.7112248;0.3109605;-0.1671785;-0.004883967;0.03423687;0.1057846;1;303209.1046449734;10558.7384385034;-0.001;1;0;2;
1510747991.571369;1510747991.571369;1510747991.571618;57.77341567878523;12.76663520381196;228.8814417864355;-0.8005544;2.451621;-0.06150253;-1.247556960031134;-3.975647721948334;288.0551780368504;69.85039582679387;108.084;2.579017;-0.4752365;0.6605999;-0.1140207;0.06465107;0.1031284;0.06981182;1;303209.1446449631;10558.77843849322;-0.001;1;0;2;
1510747991.579228;1510747991.579228;1510747991.57933;57.77341541083676;12.76663688900704;228.8840805780959;-0.7982193;2.448602;-0.05887968;-1.264582499201024;-3.956576503879751;288.0478588855183;69.85520658570194;108.0554;2.575424;-0.2122048;0.6191741;0.04807935;0.1762098;0.09391772;0.005632521;1;303209.184645953;10558.81843948304;-0.001;1;0;2;
1510747991.584602;1510747991.584602;1510747991.584717;57.77341514422314;12.76663857281287;228.8865242635171;-0.7927241;2.447055;-0.05580723;-1.275874602203577;-3.938322036816195;288.0425942233568;69.86001734561833;107.9497;2.572254;-0.1552198;0.4296624;-0.04453393;0.205578;0.04136308;0.02215169;1;303209.2246459428;10558.85843947287;-0.001;1;0;2;
1510747991.602693;1510747991.602693;1510747991.60292;57.77341474612777;12.76664109542549;228.8899635099889;-0.789665;2.443639;-0.05023829;-1.292825721454754;-3.918219838159601;288.0437070827105;69.86723348793647;107.9083;2.568062;0.004312664;0.4064108;0.1814622;0.160344;0.02508715;0.07344452;1;303209.2846459275;10558.9184394576;-0.001;1;0;2;
1510747991.625008;1510747991.625008;1510747991.625121;57.77341448166093;12.76664277467044;228.8922351396549;-0.7872555;2.440293;-0.05246326;-1.302059688510361;-3.913951939924002;288.0448000531132;69.8720442519016;107.8801;2.564137;-0.08495452;0.1487634;0.05191639;0.1659007;-0.06440502;-0.04404101;1;303209.3246469173;10558.95844044742;-0.001;1;0;2;
1510747991.703651;1510747991.703651;1510747991.703716;57.77341421709696;12.76664445117488;228.8945510079197;-0.7864781;2.435821;-0.0566996;-1.301016130117635;-3.915440269156356;288.0449380688057;69.87685501829358;107.8942;2.559643;0.1425205;-0.1392961;0.04066355;0.1311312;0.002528089;-0.07600503;1;303209.3646469072;10558.99844043724;-0.001;1;0;2;
1510747991.76392;1510747991.76392;1510747991.764032;57.77341408505426;12.76664528849334;228.8957330875789;-0.7863;2.435713;-0.05509981;-1.298203358196317;-3.916655632750556;288.0429907981837;69.87926040236397;107.8912;2.559486;0.1550454;0.02021519;-0.01794976;0.01616057;0.01711669;-0.01345981;1;303209.3846469021;10559.01844043215;-0.001;1;0;2;
1510747991.806931;1510747991.806931;1510747991.807047;57.77341395315533;12.7666461253677;228.8969348091662;-0.7836801;2.434485;-0.06030588;-1.29341336587913;-3.918404675140842;288.0398828366002;69.88166578685825;107.8438;2.557513;0.2595184;-0.2909572;-0.1772773;0.06831211;-0.004230794;-0.07611901;1;303209.404646897;10559.03844042706;-0.001;1;0;2;
1510747991.886852;1510747991.886852;1510747991.88696;57.77341368979292;12.76664779672374;228.8994025527879;-0.781489;2.43077;-0.0579362;-1.280456437189295;-3.923670598034974;288.0336160237214;69.88647655788824;107.8225;2.553305;0.2807297;-0.0759029;-0.1922653;-0.07897478;0.07522707;0.1096265;1;303209.4446478868;10559.07844141689;-0.001;1;0;2;
1510747991.966897;1510747991.966897;1510747991.96743;57.77341342741646;12.7666494660168;228.9018169269635;-0.779423;2.426987;-0.05492844;-1.266878456441284;-3.92334770468368;288.0271951082403;69.89128733044144;107.8043;2.549072;0.4858596;0.1574974;-0.04093557;0.008966639;0.1327558;0.1384793;1;303209.4846478766;10559.11844140671;-0.001;1;0;2;
1510747992.034644;1510747992.034644;1510747992.034731;57.77341303590335;12.76665196594563;228.9051724287689;-0.7751535;2.420709;-0.0503251;-1.245706117671125;-3.905668013177892;288.0185196822706;69.89850349192569;107.756;2.54179;0.4205874;0.482686;0.08285813;0.1029094;0.02585904;-0.05106681;1;303209.5446478614;10559.17844139144;-0.001;1;0;2;
1510747992.050322;1510747992.050322;1510747992.050432;57.77341277567601;12.76665362876581;228.9073526441743;-0.7731029;2.417629;-0.05162132;-1.234359137734879;-3.89001265260218;288.0146965428185;69.90331426925378;107.7331;2.538231;0.09039157;0.3872896;0.07380577;0.1074502;0.01474785;-0.07386637;1;303209.5846488512;10559.21844238126;-0.001;1;0;2;
1510747992.064936;1510747992.064936;1510747992.065026;57.77341251556945;12.76665528856404;228.9095516097586;-0.7728394;2.413809;-0.05352132;-1.228776888449212;-3.874993790526915;288.0138400847568;69.90812504910447;107.7537;2.534513;-0.040553;0.2434551;0.05062409;0.05081138;-0.02111766;0.06693596;1;303209.624648841;10559.25844237109;-0.001;1;0;2;
1510747992.075741;1510747992.075741;1510747992.075805;57.77341225535287;12.76665694555875;228.9118193779705;-0.7732036;2.408513;-0.05375945;-1.223775066248872;-3.865196428436064;288.0119535841704;69.91293583159448;107.7982;2.529581;0.1024333;0.2686998;0.002060376;0.1009707;-0.0635815;0.03111975;1;303209.6646488308;10559.29844236091;-0.001;1;0;2;
1510747992.087302;1510747992.087302;1510747992.087825;57.77341199493367;12.76665859908328;228.9141747543311;-0.7752675;2.402809;-0.05497506;-1.221241812987766;-3.858665580661674;288.0103858005708;69.91774661717251;107.8823;2.524783;0.2654963;0.2968666;0.2136647;0.2190681;-0.0188467;-0.1248796;1;303209.7046488207;10559.33844235073;-0.001;1;0;2;
1510747992.098759;1510747992.098759;1510747992.098866;57.77341173464126;12.76666024984802;228.9165695216808;-0.7718898;2.39999;-0.05617195;-1.218713410233072;-3.853969208369056;288.0074333981792;69.92255740522847;107.8289;2.521064;-0.1025828;0.1693726;0.07804605;0.2328368;0.02983448;-0.09350543;1;303209.7446498105;10559.37844334055;-0.001;1;0;2;
1510747992.110271;1510747992.110271;1510747992.110421;57.77341147512696;12.76666189770615;228.918893521564;-0.7688783;2.395106;-0.05487707;-1.21546197594439;-3.847404692064342;288.0020830706829;69.92736819578055;107.7977;2.515493;-0.04409584;0.1942506;0.01958162;0.2300178;0.04360612;-0.1118596;1;303209.7846498003;10559.41844333037;-0.001;1;0;2;
1510747992.147819;1510747992.147819;1510747992.147943;57.77341121632917;12.766663542377;228.9211775893021;-0.7671685;2.391094;-0.05501521;-1.216571630123363;-3.839889014147462;287.9980686648596;69.93217898899348;107.7885;2.511151;-0.1274386;0.1491589;0.1049979;0.1360395;0.1031273;-0.06624681;1;303209.8246497901;10559.45844332019;-0.001;1;0;2;
1510747992.226878;1510747992.226878;1510747992.226944;57.77341095856896;12.76666518367371;228.9233939531113;-0.7628968;2.386858;-0.05495973;-1.209173137418894;-3.826801103025196;287.9921479190718;69.93698978479954;107.7251;2.505813;-0.04495655;0.2115773;0.005360919;0.05159161;0.06992389;0.01868237;1;303209.86465078;10559.49844431002;-0.001;1;0;2;
1510747992.30389;1510747992.30389;1510747992.304003;57.77341070192518;12.76666682188418;228.925596414923;-0.7614017;2.382678;-0.05173014;-1.199194519422651;-3.812687316908356;287.985269517254;69.94180058318241;107.7216;2.501377;0.1409442;0.374435;0.1074391;0.04700565;0.07692781;0.05535065;1;303209.9046507698;10559.53844429984;-0.001;1;0;2;
1510747992.383983;1510747992.383983;1510747992.384682;57.77341044631871;12.76666845760485;228.9277677720544;-0.7563707;2.380164;-0.04952643;-1.198220382412775;-3.798168502589843;287.979385486644;69.9466113837501;107.6293;2.497454;0.002402379;0.4257376;-0.05151056;0.05470512;0.06603542;0.1109107;1;303209.9446507596;10559.57844428966;-0.001;1;0;2;
1510747992.429368;1510747992.429368;1510747992.429476;57.77341019117785;12.76667009046;228.9299379939696;-0.756069;2.375059;-0.05065831;-1.197022622793206;-3.789861366089511;287.9731551895956;69.95142218700207;107.6582;2.492498;-0.1821016;0.1533543;-0.06986806;0.1183658;-0.0506248;0.09082872;1;303209.9846517494;10559.61844527948;-0.001;1;0;2;
1510747992.442011;1510747992.442011;1510747992.442229;57.77341007472155;12.76667091232757;228.9310319318555;-0.7575544;2.37247;-0.05322745;-1.199622400814816;-3.789698826032905;287.9698692718198;69.95363956514332;107.7088;2.490482;0.01288506;-0.1250611;-0.01688829;0.03564553;-0.08056942;0.008920885;1;303210.0046519988;10559.63844527439;-0.001;1;0;2;
1510747992.462216;1510747992.462216;1510747992.462326;57.77340994867221;12.7666717281647;228.9320968889533;-0.7594839;2.368031;-0.04885782;-1.20213709547802;-3.789413215665786;287.9666644775918;69.955668918908;107.7823;2.486843;-0.1161808;0.08725416;0.1561217;0.3104899;-0.1251067;-0.01895949;1;303210.0246519937;10559.6584452693;-0.001;1;0;2;
1510747992.472659;1510747992.472659;1510747992.472765;57.77340982257767;12.76667254281973;228.9332026420099;-0.7552407;2.36797;-0.05170958;-1.20781557243868;-3.793000217083756;287.9634758094219;69.95769827387673;107.6896;2.485492;-0.4426856;-0.1755842;-0.196705;-0.01778329;-0.01109134;0.1153422;1;303210.0446519887;10559.67844526422;-0.001;1;0;2;
1510747992.481122;1510747992.481122;1510747992.481218;57.77340957021444;12.76667416922243;228.9353141751402;-0.7570219;2.360877;-0.05028629;-1.221514673067542;-3.791732406241729;287.9584900724868;69.96175698590531;107.7786;2.479278;-0.2475825;0.08813535;-0.02564372;0.08593792;-0.01904715;-0.06702179;1;303210.0846519785;10559.71844525404;-0.001;1;0;2;
1510747992.49071;1510747992.49071;1510747992.490816;57.77340931768475;12.76667579045708;228.9374420115181;-0.7580206;2.353552;-0.04933748;-1.233232865737278;-3.781080326961276;287.9552855636096;69.96581570181031;107.8525;2.47261;-0.2347144;0.4286312;0.1083473;0.1117029;-0.00199143;-0.07877267;1;303210.1246529683;10559.75844624386;-0.001;1;0;2;
1510747992.500201;1510747992.500201;1510747992.500363;57.77340906559377;12.76667740849459;228.9395602515207;-0.7544914;2.348702;-0.04971206;-1.239126067473343;-3.763673279539824;287.9531263192008;69.96987442000371;107.809;2.466913;-0.06572787;0.5144598;0.06773586;0.3009767;-0.004899321;-0.1533762;1;303210.1646529581;10559.79844623368;-0.001;1;0;2;
1510747992.524426;1510747992.524426;1510747992.524592;57.77340881485906;12.76667902378404;228.941687875673;-0.7485067;2.345615;-0.05157638;-1.2463826765863;-3.749034369919305;287.9530478485683;69.97393314054744;107.6983;2.462148;0.097002;0.2690393;0.0002525993;0.2601222;0.00126427;-0.1625716;1;303210.204652948;10559.8384462235;-0.001;1;0;2;
1510747992.553578;1510747992.553578;1510747992.553686;57.77340856581924;12.7666806367969;228.9439225423882;-0.7447698;2.343085;-0.05569733;-1.260282789950526;-3.747743873632479;287.9557913774676;69.97799186351217;107.6333;2.458603;-0.5022305;-0.2646359;0.3069786;0.09502485;0.1779044;0.0852539;1;303210.2446529377;10559.87844621332;-0.001;1;0;2;
1510747992.597006;1510747992.597006;1510747992.597145;57.77340844171193;12.76668144223384;228.9450042803489;-0.7444279;2.339587;-0.04995202;-1.264676171648865;-3.746517882621644;287.9585630148822;69.98002122576352;107.6504;2.455166;-0.2095187;0.1775602;0.3356492;0.2290581;-0.009400376;-0.06799149;1;303210.2646539327;10559.89844720824;-0.001;1;0;2;
1510747992.676962;1510747992.676962;1510747992.677053;57.77340819442114;12.76668305164816;228.947195156381;-0.7418247;2.337431;-0.05329385;-1.270399398559535;-3.748503540982282;287.9592374146917;69.98407995187618;107.6077;2.452323;-0.1020666;-0.1846288;0.1568522;0.1911538;-0.02229327;-0.04166054;1;303210.3046539225;10559.93844719806;-0.001;1;0;2;
1510747992.757011;1510747992.757011;1510747992.757142;57.77340794692564;12.76668465818374;228.949270229901;-0.7432414;2.33325;-0.04797541;-1.261395287536395;-3.748798024307195;287.9592374169537;69.98813868015294;107.6689;2.448768;0.3787354;-0.0655564;0.2036974;0.03509611;-0.09166401;0.09752198;1;303210.3446539123;10559.97844718788;-0.001;1;0;2;
1510747992.904874;1510747992.904874;1510747992.905014;57.77340757689928;12.76668706581344;228.9519718151689;-0.7380781;2.331821;-0.03481893;-1.242981267454744;-3.747292008460754;287.9502100278567;69.9942267747096;107.5639;2.445843;0.5480211;0.2569504;-0.09169532;0.2410455;-0.05340553;0.06823558;1;303210.4046548971;10560.03844817261;-0.001;1;0;2;
1510747992.922884;1510747992.922884;1510747992.922987;57.77340733074907;12.76668866865054;228.95351982618;-0.7369897;2.326622;-0.03421932;-1.235660694396241;-3.743909322929663;287.9429755687987;69.99828550636416;107.5763;2.440558;0.4332349;0.2349035;-0.07654608;0.3069954;-0.08183463;-0.1355703;1;303210.4446548868;10560.07844816243;-0.001;1;0;2;
1510747992.936252;1510747992.936252;1510747992.936419;57.77340708487835;12.76669026716259;228.9551003601894;-0.7358016;2.321816;-0.04066295;-1.228155256073585;-3.735379629662368;287.9356969824082;70.00234424147163;107.5838;2.435618;0.225893;0.1409621;-0.08271087;0.07813372;-0.06928114;-0.1451212;1;303210.4846548767;10560.11844815226;-0.001;1;0;2;
1510747992.94831;1510747992.94831;1510747992.948416;57.77340683915873;12.76669186204442;228.9569111862375;-0.7350557;2.316777;-0.04544104;-1.228952957516711;-3.726383087208015;287.9300864586002;70.00640297968039;107.6029;2.430589;-0.1396192;0.2242356;0.05305685;0.04420781;0.03172445;-0.0808143;1;303210.5246548665;10560.15844814208;-0.001;1;0;2;
1510747992.959783;1510747992.959783;1510747992.959885;57.77340659326934;12.76669345309638;228.9589427873496;-0.7350525;2.311513;-0.05013297;-1.227670656010895;-3.716603735128792;287.9295188804954;70.01046172080717;107.6405;2.425571;0.08753436;0.2893694;0.07913776;0.05336624;0.05275239;-0.06683923;1;303210.5646558563;10560.1984491319;-0.001;1;0;2;
1510747992.976709;1510747992.976709;1510747992.977668;57.7734063478956;12.76669504092375;228.961174454384;-0.7349132;2.307278;-0.05335307;-1.228300815709501;-3.706057145194185;287.9315041416992;70.01452046453169;107.6677;2.421494;0.2527283;0.3508706;0.3129956;0.1218122;-0.01823889;-0.006007741;1;303210.6046558461;10560.23844912172;-0.001;1;0;2;
1510747992.994598;1510747992.994598;1510747992.99469;57.77340610296022;12.76669662647223;228.9634454785565;-0.7307817;2.304526;-0.0503961;-1.227598601270321;-3.692773693476864;287.9360079038299;70.01857920992444;107.5942;2.417619;0.1481282;0.5363598;0.1701231;0.149625;-0.05098722;0.03248855;1;303210.644655836;10560.27844911154;-0.001;1;0;2;
1510747993.027304;1510747993.027304;1510747993.027411;57.77340585854382;12.76669821047484;228.9655936953461;-0.7304263;2.302772;-0.04738005;-1.227258454144328;-3.682322339357866;287.9411347198899;70.02263795671161;107.5987;2.415839;0.3621951;0.3166196;0.1940955;0.0831247;-0.01353679;0.05258476;1;303210.6846568258;10560.31845010137;-0.001;1;0;2;
1510747993.068031;1510747993.068031;1510747993.068147;57.77340561459213;12.76669979344179;228.9675302204236;-0.726831;2.301283;-0.04507593;-1.224240370180416;-3.67545869236755;287.9427279649919;70.02669670465488;107.5281;2.413336;0.1156169;0.0281364;0.0284654;0.1393148;-0.03974759;0.07021294;1;303210.7246568156;10560.35845009119;-0.001;1;0;2;
1510747993.136928;1510747993.136928;1510747993.137058;57.77340537135041;12.76670137424539;228.9692841478287;-0.72487;2.298442;-0.04084104;-1.218875956348067;-3.669660087033732;287.9402765199206;70.03075545463905;107.504;2.410035;0.05364557;0.07335448;-0.01631672;0.007750322;0.07101743;0.2042469;1;303210.7646568054;10560.39845008101;-0.001;1;0;2;
1510747993.217179;1510747993.217179;1510747993.217524;57.77340512883596;12.7667029527423;228.9709352064856;-0.7245528;2.294515;-0.03849023;-1.216287820120409;-3.659326248876647;287.9347799048154;70.03481420659298;107.5249;2.406196;0.1055091;0.3213875;0.02786969;0.01714971;-0.04330163;0.03947031;1;303210.8046567953;10560.43845007083;-0.001;1;0;2;
1510747993.293872;1510747993.293872;1510747993.293982;57.77340488664878;12.76670452882677;228.9726075297586;-0.7229928;2.292278;-0.03797065;-1.219928402946818;-3.647083461615935;287.9297410945792;70.03887296058822;107.5055;2.403593;-0.1309966;0.4052796;-0.02629782;-0.008689093;0.03481141;0.03566428;1;303210.8446577851;10560.47845106065;-0.001;1;0;2;
1510747993.334719;1510747993.334719;1510747993.334909;57.77340464424748;12.76670610272986;228.9742582083088;-0.7246917;2.287146;-0.03751924;-1.220886726333462;-3.631432271862156;287.9254541309377;70.04293171620984;107.581;2.399211;0.06635157;0.5392023;0.01029099;0.1903576;-0.1722444;-0.1559412;1;303210.8846577749;10560.51845105048;-0.001;1;0;2;
1510747993.346782;1510747993.346782;1510747993.34691;57.7734044014094;12.76670767395816;228.9759435931345;-0.7223477;2.28521;-0.03888458;-1.220657583504962;-3.615544949381764;287.9236342051125;70.04699047393898;107.5416;2.396658;0.1846659;0.4767731;-0.1035441;0.2000729;0.001758259;-0.1372342;1;303210.9246577647;10560.5584510403;-0.001;1;0;2;
1510747993.354287;1510747993.354287;1510747993.354397;57.77340415884953;12.76670924353762;228.9776780087523;-0.7182426;2.283887;-0.04265378;-1.225141175627747;-3.602948703649108;287.924291113059;70.0510492331446;107.4575;2.394162;-0.3164886;0.1916699;-0.1402364;0.05748853;0.04243854;-0.06324188;1;303210.9646587545;10560.59845203012;-0.001;1;0;2;
1510747993.416988;1510747993.416988;1510747993.417153;57.77340345088383;12.76671395304566;228.9828140682606;-0.7183098;2.276666;-0.03948324;-1.227374796135116;-3.584991865459509;287.9314475715662;70.06235535662675;107.511;2.387295;0.3596694;0.1478606;0.09908993;-0.04903578;0.00634328;0.003657913;1;303211.0846599785;10560.71845299958;-0.001;1;0;2;
1510747993.477028;1510747993.477028;1510747993.477097;57.77340321444751;12.7667155190523;228.9844992996139;-0.7139391;2.274965;-0.03802974;-1.215086839757895;-3.581324679299407;287.9287266447101;70.06602738199989;107.4231;2.38436;0.473676;0.2020401;0.04927751;0.06807831;0.07585998;0.05701089;1;303211.1246599682;10560.75845298941;-0.001;1;0;2;
1510747993.557992;1510747993.557992;1510747993.558169;57.77340297930103;12.7667170839238;228.9861481761905;-0.7091812;2.273267;-0.0390613;-1.207240182157499;-3.576209668961911;287.9272978332374;70.06969940828077;107.3261;2.381319;-0.05705395;0.1585305;0.1040983;0.1650659;0.02762827;0.04349331;1;303211.1646599581;10560.79845297923;-0.001;1;0;2;
1510747993.637128;1510747993.637128;1510747993.637198;57.77340274536449;12.7667186464088;228.9877768517734;-0.7089821;2.268682;-0.0402627;-1.203346149041073;-3.563818665202199;287.9229797696988;70.07337143649738;107.3545;2.376883;0.1635794;0.3506659;0.09771562;0.09036843;-0.1475206;-0.1181763;1;303211.2046599479;10560.83845296905;-0.001;1;0;2;
1510747993.719895;1510747993.719895;1510747993.720532;57.77340251109361;12.76672020632209;228.9894959399841;-0.708354;2.265517;-0.04137359;-1.20138875963955;-3.550131286187895;287.9168004124243;70.07704346696254;107.3628;2.373675;-0.04960696;0.3936837;-0.08571064;0.1192551;-0.03936008;-0.006116307;1;303211.2446609378;10560.87845395887;-0.001;1;0;2;
1510747993.763777;1510747993.763777;1510747993.763881;57.77340239330154;12.76672098528998;228.9903735876329;-0.7125589;2.263914;-0.04071615;-1.19685317642153;-3.544137907687372;287.9151262988009;70.0788794829365;107.4712;2.373404;0.2077532;0.3413844;0.04078676;0.1629233;-0.131715;0.05112224;1;303211.2646609326;10560.89845395378;-0.001;1;0;2;
1510747993.776756;1510747993.776756;1510747993.776863;57.77340215724736;12.76672254187316;228.9920753758501;-0.7119719;2.261812;-0.03742819;-1.185778775694116;-3.535450265477207;287.9087581097677;70.08255151628278;107.4729;2.371223;0.2789942;0.3082224;-0.1169363;0.1452231;0.06193949;0.06633897;1;303211.3046609224;10560.93845394361;-0.001;1;0;2;
1510747993.789554;1510747993.789554;1510747993.78967;57.77340192084093;12.76672409696069;228.9936757003963;-0.7107601;2.26024;-0.03663165;-1.173756886945498;-3.531834483327639;287.905678570461;70.08622355091686;107.4564;2.369359;0.2115569;0.09518652;-0.1556792;0.07839756;-0.005780844;-0.01790447;1;303211.3446609123;10560.97845393343;-0.001;1;0;2;
1510747993.804877;1510747993.804877;1510747993.805004;57.77340168476196;12.76672565080481;228.9952216618036;-0.7082791;2.259225;-0.03900019;-1.170638128472899;-3.533776796227999;287.9076659353959;70.08989558671372;107.4065;2.367648;-0.2927251;-0.2243852;0.04015752;-0.001354831;-0.003270129;0.02557016;1;303211.3846619021;10561.01845492325;-0.001;1;0;2;
1510747993.814641;1510747993.814641;1510747993.81474;57.77340144944738;12.7667272028368;228.9967672367712;-0.7060061;2.257205;-0.03932203;-1.173491782162576;-3.532879417691068;287.9128606614439;70.0935676238619;107.3686;2.365041;-0.1095398;-0.06610047;0.03142551;-0.07132703;0.1035318;-0.009208175;1;303211.4246618919;10561.05845491307;-0.001;1;0;2;
1510747993.822137;1510747993.822137;1510747993.822242;57.7734012144834;12.7667287520219;228.9983620380869;-0.706764;2.250904;-0.03721362;-1.1681550033649;-3.521898073963089;287.9163499658552;70.09723966296457;107.4318;2.359255;0.2805167;0.5096982;0.04631102;0.02403017;0.07282795;-0.03683396;1;303211.4646618817;10561.09845490289;-0.001;1;0;2;
1510747993.827926;1510747993.827926;1510747993.828057;57.77340097951789;12.76673029855427;229.0001042153641;-0.7093611;2.247933;-0.04072031;-1.151891844103204;-3.507621520501319;287.91680922021;70.10091170415517;107.5137;2.357201;0.586016;0.4991454;0.2182099;0.08433107;0.005296779;-0.06101356;1;303211.5046628716;10561.13845589271;-0.001;1;0;2;
