SampleTimeStamp;SentTimeStamp;ReceivedTimeStamp;lat;lon;alt;vel_north;vel_east;vel_down;roll;pitch;heading;wander;track;speed;arate_lon;arate_trans;arate_down;accel_lon;accel_trans;accel_down;alignment;timeDistance.time1;timeDistance.time2;timeDistance.distanceTag;timeDistance.time1Type;timeDistance.time2Type;timeDistance.distanceType;
1510747747.216576;1510747747.216576;1510747747.216696;57.7734092501972;12.76671852163368;211.6468372177853;-0.6783547;2.463117;-0.04311831;-1.501349851902658;-4.164117171971003;285.4373896382238;164.0864828097577;105.3978;2.554821;0.1535268;0.18771;-0.03300068;-0.3976456;0.04601035;0.198685;0;302965.1629389585;10314.79673152506;-0.001;1;0;2;
1510747747.293722;1510747747.293722;1510747747.293868;57.77340901851691;12.76672007874784;211.6479783979208;-0.6837929;2.477665;-0.03573771;-1.494020279153248;-4.154219830157369;285.4409495229155;164.0866011728446;105.4286;2.570291;0.3657713;0.260888;0.150895;-0.4284396;0.004850868;0.216161;0;302965.2029389484;10314.83673151489;-0.001;1;0;2;
1510747747.375395;1510747747.375395;1510747747.376215;57.77340878505434;12.76672164530343;211.6488992214706;-0.6923302;2.488974;-0.03320462;-1.480871596818394;-4.140116304627539;285.4442987734278;164.0867195277072;105.5444;2.583469;0.4445057;0.3360259;0.419038;-0.271946;-0.05264751;-0.002492323;0;302965.2429389381;10314.87673150471;-0.001;1;0;2;
1510747747.413827;1510747747.413827;1510747747.413892;57.77340866778128;12.76672243165713;211.6493517956997;-0.6925371;2.494979;-0.03392893;-1.472777765649698;-4.131540605638848;285.4448722207516;164.0867787025034;105.5132;2.58931;0.4225266;0.438906;0.2126372;-0.3415096;-0.09431171;-0.1133482;0;302965.2629399331;10314.89673249962;-0.001;1;0;2;
1510747747.489571;1510747747.489571;1510747747.489748;57.77340843176957;12.76672401091591;211.6503325060692;-0.693572;2.509515;-0.03762657;-1.464348352752384;-4.112495239785368;285.4472802698216;164.0868970465318;105.4496;2.603595;0.1154332;0.4450601;-0.05315601;-0.3232782;-0.0009665479;-0.1670245;0;302965.3029399229;10314.93673248944;-0.001;1;0;2;
1510747747.569313;1510747747.569313;1510747747.569418;57.77340819419624;12.76672559993658;211.6514662862945;-0.6988727;2.523507;-0.03929467;-1.465927104358945;-4.094691649633689;285.4492815938497;164.0870153825077;105.4798;2.618494;-0.1908922;0.4961216;-0.0145734;-0.3940064;-0.02108082;-0.01847466;0;302965.3429399127;10314.97673247926;-0.001;1;0;2;
1510747747.703711;1510747747.703711;1510747747.704371;57.77340783362189;12.76672800103709;211.653411865245;-0.7079651;2.543916;-0.04532035;-1.465223058140013;-4.074637569095121;285.450101778509;164.087192871922;105.5517;2.640592;0.03617973;0.2248275;-0.1118956;-0.4515131;-0.001663088;0.06474688;0;302965.4029408974;10315.036733464;-0.001;1;0;2;
1510747747.783511;1510747747.783511;1510747747.783625;57.77340759093561;12.76672961452366;211.6548652040945;-0.7118858;2.558938;-0.04744365;-1.463611741736492;-4.070059347016874;285.4497594213778;164.0873111877789;105.5463;2.656115;-0.1554394;0.04648976;0.02559063;-0.3508665;0.1350027;0.1602166;0;302965.4429408873;10315.07673345382;-0.001;1;0;2;
1510747747.863488;1510747747.863488;1510747747.863608;57.77340734709622;12.76673123843772;211.656343305214;-0.7164777;2.573697;-0.04719916;-1.462090487850564;-4.068768949493979;285.4501558725571;164.0874294949132;105.5564;2.671565;-0.01393126;0.07070273;0.05332165;-0.4051774;0.01173793;-0.03496106;0;302965.4829408771;10315.11673344364;-0.001;1;0;2;
1510747747.943662;1510747747.943662;1510747747.943769;57.7734071019128;12.76673287327768;211.6577557677667;-0.7190161;2.590249;-0.04646292;-1.461487010397555;-4.065327797704735;285.4517682110795;164.0875477926795;105.5139;2.688191;0.06327973;0.01779601;-0.08516143;-0.4705274;-0.02987252;-0.005823839;0;302965.5229408669;10315.15673343346;-0.001;1;0;2;
1510747748.023739;1510747748.023739;1510747748.023853;57.77340685530038;12.76673451921737;211.6590608074387;-0.7246078;2.605783;-0.03991874;-1.459928288781562;-4.058737668344094;285.4524472259695;164.0876660809593;105.54;2.704656;0.03051788;0.3338949;0.04653791;-0.4839135;-0.07760266;0.07891794;0;302965.5629418567;10315.19673442328;-0.001;1;0;2;
1510747748.063164;1510747748.063164;1510747748.063225;57.77340660650735;12.76673617623385;211.6602619402742;-0.7280143;2.622447;-0.03832451;-1.454342067364478;-4.050884158644013;285.4556589351381;164.0877843596514;105.5151;2.721624;0.1757382;0.2959311;-0.02866793;-0.4814654;0.06523824;0.03057058;0;302965.6029418466;10315.23673441311;-0.001;1;0;2;
1510747748.082263;1510747748.082263;1510747748.08238;57.77340635669207;12.76673784479935;211.6614175774991;-0.7318325;2.638745;-0.04110919;-1.455292107568119;-4.040737351587636;285.4556507791816;164.0879026287155;105.5009;2.738348;-0.1413239;0.2042353;-0.01953514;-0.4459427;-0.03725568;-0.02177249;0;302965.6429418364;10315.27673440293;-0.001;1;0;2;
1510747748.099795;1510747748.099795;1510747748.099893;57.77340610498118;12.76673952423886;211.6626607551408;-0.7397974;2.654183;-0.04520764;-1.464243884708721;-4.031219933576926;285.4573495138343;164.0880208886423;105.5747;2.755356;-0.5135157;0.005614357;0.155651;-0.4498684;0.0411904;0.06310247;0;302965.6829428262;10315.31673539275;-0.001;1;0;2;
1510747748.125668;1510747748.125668;1510747748.127014;57.77340585086294;12.76674121501515;211.6640308137775;-0.7453099;2.670268;-0.04624042;-1.47387368026723;-4.027984936727977;285.4579929913302;164.088139139283;105.5952;2.772331;-0.2808735;0.005682363;-0.02152979;-0.4479425;-0.1250031;0.02066193;0;302965.722942816;10315.35673538257;-0.001;1;0;2;
1510747748.152363;1510747748.152363;1510747748.152501;57.77340559405692;12.766742916606;211.6654419292871;-0.7560467;2.685274;-0.04479176;-1.477717576987912;-4.030246862019601;285.4587829501432;164.088257380905;105.7247;2.789678;0.2778144;-0.02007822;0.2367463;-0.400913;-0.03712522;0.04675949;0;302965.7629428058;10315.39673537239;-0.001;1;0;2;
1510747748.170956;1510747748.170956;1510747748.171072;57.77340533496645;12.76674462894926;211.666825388579;-0.7576431;2.701919;-0.04402151;-1.467395658656877;-4.032477556602213;285.4592778881313;164.0883756132446;105.664;2.806134;0.4008392;0.02917345;0.09381757;-0.4494728;0.1514707;-0.01673131;0;302965.8029427957;10315.43673536221;-0.001;1;0;2;
1510747748.202762;1510747748.202762;1510747748.205322;57.773405075225;12.76674635278756;211.668157158827;-0.757196;2.718278;-0.04452524;-1.451844741722388;-4.030401418858093;285.4605221815593;164.0884938355838;105.5656;2.821769;0.1230364;0.06286405;0.09892897;-0.4434704;0.1794178;0.04145344;0;302965.8429437855;10315.47673635204;-0.001;1;0;2;
1510747748.240268;1510747748.240268;1510747748.240375;57.77340481563765;12.76674808802964;211.6694879222975;-0.7557905;2.734761;-0.04438734;-1.443716261227979;-4.021843910097485;285.4644918402455;164.0886120480037;105.4489;2.837276;0.08258512;0.2928139;0.03206548;-0.4776785;0.09266952;-0.009037034;0;302965.8829437753;10315.51673634186;-0.001;1;0;2;
1510747748.255106;1510747748.255106;1510747748.25521;57.77340455553536;12.76674983457881;211.6708978653093;-0.7580022;2.751598;-0.04530782;-1.439241965848457;-4.009733203346325;285.4678467104852;164.0887302507957;105.4017;2.854095;0.3765098;0.4296928;-0.1385717;-0.5205958;-0.01940943;-0.06632413;0;302965.9229437651;10315.55673633168;-0.001;1;0;2;
1510747748.29941;1510747748.29941;1510747748.300324;57.7734042934846;12.76675159283331;211.6723220959747;-0.7681027;2.767394;-0.04693354;-1.427373794585522;-3.99613650458946;285.4711898403157;164.0888484435232;105.5122;2.872011;0.3973759;0.2474481;0.1505758;-0.3921078;-0.1152358;0.03577259;0;302965.962944755;10315.5967373215;-0.001;1;0;2;
1510747748.535095;1510747748.535095;1510747748.535156;57.77340349913504;12.76675692080592;211.6764598918699;-0.784929;2.815394;-0.04014475;-1.396454568506486;-3.980137325563085;285.4690936961583;164.0889090109864;105.5784;2.922766;-0.08966976;0.1577116;0.1474743;-0.3423522;0.02786657;0.05393393;0;302966.0829459789;10315.71673829097;-0.001;1;0;2;
1510747748.550395;1510747748.550395;1510747748.550607;57.77340323145503;12.76675871438941;211.6776832369652;-0.7881699;2.825444;-0.04276276;-1.403174020596183;-3.972220019404822;285.46889475785;164.0888965223456;105.5867;2.933316;-0.04601115;0.1687118;0.00954095;-0.3041225;-0.08622581;-0.06449574;0;302966.1229459688;10315.75673828079;-0.001;1;0;2;
1510747748.563156;1510747748.563156;1510747748.563218;57.77340296135486;12.76676051454983;211.6790704819181;-0.79467;2.834543;-0.04646439;-1.411642762544378;-3.963134435636756;285.4711399286065;164.0888840280115;105.6609;2.94383;-0.1507592;0.2414879;0.1622444;-0.2934057;0.1042154;-0.03358822;0;302966.1629459586;10315.79673827061;-0.001;1;0;2;
1510747748.574309;1510747748.574309;1510747748.574372;57.77340268978629;12.76676232048511;211.6806332399506;-0.7961041;2.842615;-0.05050419;-1.408379942704162;-3.951559101130212;285.472864910821;164.0888715285516;105.6455;2.95199;0.08705042;0.3522859;0.02582401;-0.3208281;0.01593656;-0.05663626;0;302966.2029459483;10315.83673826043;-0.001;1;0;2;
1510747748.594844;1510747748.594844;1510747748.594972;57.77340241816064;12.76676413195282;211.6823177467057;-0.7959214;2.849721;-0.05101002;-1.410329930223588;-3.937323121325128;285.4734752891542;164.0888590244273;105.6049;2.958784;0.1617627;0.4400279;0.01066343;-0.2536779;0.0007787746;0.005639253;0;302966.2429469382;10315.87673925026;-0.001;1;0;2;
1510747748.603515;1510747748.603515;1510747748.603619;57.77340228206815;12.7667650397997;211.6831599096074;-0.7961141;2.85393;-0.05337633;-1.409537699092016;-3.930375431598483;285.475361297512;164.0888527704899;105.5866;2.96289;-0.09369525;0.2411326;0.00572459;-0.146138;0.0529787;0.07288013;0;302966.2629469331;10315.89673924517;-0.001;1;0;2;
1510747748.617293;1510747748.617293;1510747748.617597;57.77340200992717;12.76676685904278;211.6847944758063;-0.7965365;2.858963;-0.05026939;-1.41789591504794;-3.915895033432475;285.4790960628786;164.0888402597299;105.5684;2.967851;-0.2145323;0.3476214;0.05553686;-0.1612344;0.02935818;0.04041862;0;302966.302946923;10315.93673923499;-0.001;1;0;2;
1510747748.696758;1510747748.696758;1510747748.698331;57.7734017372572;12.76676868175211;211.686360199773;-0.8014396;2.86319;-0.04781928;-1.420027677402063;-3.903851725296673;285.4805665860217;164.0888277461466;105.6375;2.973241;0.2378831;0.2861546;0.08543336;-0.1580941;-0.08177959;0.106959;0;302966.3429469127;10315.97673922481;-0.001;1;0;2;
1510747748.823505;1510747748.823505;1510747748.823568;57.77340132597429;12.76677142181715;211.6885425099848;-0.8029691;2.868645;-0.04337776;-1.404112168091922;-3.895694168293037;285.4803884762608;164.0888089709269;105.6376;2.978906;0.3804565;0.1071417;-0.03740745;-0.06764297;0.01347888;0.1439608;0;302966.4029478975;10316.03674020954;-0.001;1;0;2;
1510747748.903623;1510747748.903623;1510747748.903731;57.77340105149307;12.76677325186332;211.6897899266013;-0.8040702;2.872505;-0.03703607;-1.389259905227613;-3.893734080032039;285.4801679522986;164.0887964513752;105.638;2.98292;0.6706234;0.1424709;0.08540013;-0.1079161;0.01377828;0.1238526;0;302966.4429478873;10316.07674019937;-0.001;1;0;2;
1510747748.983648;1510747748.983648;1510747748.983758;57.77340077742736;12.76677508466257;211.6907749223594;-0.8007259;2.874258;-0.03523113;-1.371087623919666;-3.889352154857473;285.4794754091644;164.0887839293722;105.5671;2.983709;0.2371946;-0.03358534;0.1065429;0.06889645;0.1819875;-0.002399448;0;302966.4829478771;10316.11674018919;-0.001;1;0;2;
1510747749.002983;1510747749.002983;1510747749.003091;57.77340050458373;12.76677691765423;211.6917154704656;-0.7961197;2.874327;-0.03372978;-1.357813589900429;-3.885625323764366;285.4792716164508;164.0887714072796;105.4815;2.982543;0.2584853;0.1694819;-0.04068296;-0.1114;-0.01506054;-0.06689284;0;302966.5229488669;10316.15674117901;-0.001;1;0;2;
1510747749.011033;1510747749.011033;1510747749.011135;57.77340023233399;12.76677875021945;211.6927265959465;-0.7959375;2.872454;-0.03798566;-1.352126571472148;-3.87803248619592;285.4819474419363;164.0887588853729;105.4877;2.980689;0.05895913;0.08520079;0.06280427;-0.01718162;-0.002298115;-0.01505158;0;302966.5629488568;10316.19674116883;-0.001;1;0;2;
1510747749.019686;1510747749.019686;1510747749.019787;57.77339995979156;12.76678058131149;211.6938120335533;-0.7998664;2.867564;-0.03899346;-1.345965893100733;-3.868521398309344;285.4851260109124;164.0887463646067;105.5857;2.977031;0.2520097;0.1687952;0.2458404;0.09747936;-0.01817507;-0.02810583;0;302966.6029488466;10316.23674115865;-0.001;1;0;2;
1510747749.030726;1510747749.030726;1510747749.030829;57.77339968621774;12.76678240962802;211.6950284673289;-0.8012549;2.863565;-0.04102749;-1.336253978165135;-3.861487567558905;285.4873702128277;164.0887338462786;105.6322;2.973553;0.2648892;0.1713398;0.1253255;0.06055839;0.002462766;0.06238901;0;302966.6429498364;10316.27674214848;-0.001;1;0;2;
1510747749.043152;1510747749.043152;1510747749.043309;57.77339941196421;12.76678423583495;211.6962799936048;-0.8024415;2.860169;-0.04277218;-1.329210462460772;-3.856399968822011;285.4907123018378;164.0887213298018;105.6719;2.970603;0.108965;-0.006321419;0.1088935;0.07719041;-0.04256658;0.05482974;0;302966.6829498262;10316.3167421383;-0.001;1;0;2;
1510747749.053802;1510747749.053802;1510747749.053982;57.77339913771458;12.76678605940254;211.6975847516126;-0.8020597;2.854609;-0.04532737;-1.334557549931254;-3.853715497949863;285.4946217114182;164.0887088158028;105.6938;2.965146;-0.06866264;-0.03715801;0.112205;0.05499282;-0.1488533;-0.1326209;0;302966.722949816;10316.35674212812;-0.001;1;0;2;
1510747749.07017;1510747749.07017;1510747749.070278;57.77339886352265;12.76678787983478;211.6989157671808;-0.799452;2.850216;-0.04202024;-1.346881768653347;-3.847695415002354;285.49988151049;164.088696304361;105.6682;2.960212;-0.09262411;0.3357658;-0.07108364;0.07186369;-0.1507775;-0.1227234;0;302966.7629498059;10316.39674211794;-0.001;1;0;2;
1510747749.123633;1510747749.123633;1510747749.123789;57.77339858940584;12.76678969659499;211.7002510237374;-0.799849;2.84354;-0.04365388;-1.347618812914716;-3.837459667423644;285.5025944459025;164.088683795806;105.7106;2.953892;0.07734779;0.2292881;0.07241844;0.06616762;-0.08575204;-0.008505421;0;302966.8029507957;10316.43674310776;-0.001;1;0;2;
1510747749.203491;1510747749.203491;1510747749.203577;57.77339831606748;12.76679151053858;211.7015123361084;-0.7955354;2.839937;-0.04125016;-1.340967233457436;-3.824864561266177;285.5032237862439;164.0886712895269;105.6488;2.949257;0.1318234;0.228853;-0.03341753;0.08653677;0.09769998;0.06465419;0;302966.8429507855;10316.47674309758;-0.001;1;0;2;
1510747749.283578;1510747749.283578;1510747749.283664;57.77339804428445;12.7667933227517;211.7026677018346;-0.7912593;2.83682;-0.03808912;-1.337000575111175;-3.815139204229723;285.50455209749;164.0886587848334;105.5851;2.945104;-0.1278745;0.1556985;0.08328192;0.120187;0.1115848;0.1349597;0;302966.8829507753;10316.51674308741;-0.001;1;0;2;
1510747749.363496;1510747749.363496;1510747749.363663;57.77339777401306;12.76679513201766;211.7036795710193;-0.7869683;2.831181;-0.03710464;-1.332313354405504;-3.803929066646024;285.5059259028487;164.0886462825609;105.5341;2.93852;0.02600874;0.1355768;-0.1125766;0.2012484;-0.01743881;-0.04078101;0;302966.9229517652;10316.55674407723;-0.001;1;0;2;
1510747749.422095;1510747749.422095;1510747749.42216;57.77339750416225;12.76679693750172;211.7047697038277;-0.7895785;2.822465;-0.03808978;-1.320513610811149;-3.798845215840231;285.5095063288616;164.0886337835364;105.6288;2.930826;0.730662;0.2188047;0.1650888;0.2766358;-0.1211733;-0.1531515;0;302966.962951755;10316.59674406705;-0.001;1;0;2;
1510747749.45275;1510747749.45275;1510747749.452852;57.77339696771966;12.7668005258196;211.7075303937463;-0.7806171;2.808209;-0.04987226;-1.276418531111423;-3.801992667676515;285.5134195525681;164.0886078442329;105.5347;2.914687;0.4550217;-0.1646464;-0.06761284;0.1579463;-0.01216195;-0.03746214;0;302967.042951989;10316.67674404669;-0.001;1;0;2;
1510747749.459053;1510747749.459053;1510747749.459158;57.77339683441495;12.7668014185859;211.7083458627871;-0.7803241;2.80406;-0.04984134;-1.267635977070515;-3.803872872798203;285.5148114145611;164.0886012189972;105.551;2.910611;0.4158204;-0.02907336;0.08422042;0.2244067;-0.026526;-0.0585155;0;302967.0629529839;10316.69674504161;-0.001;1;0;2;
1510747749.464708;1510747749.464708;1510747749.464816;57.77339656811312;12.7668032011368;211.710057441076;-0.7800073;2.79837;-0.05353034;-1.257010741296377;-3.811295433882028;285.5189609322254;164.0885879712321;105.5751;2.905045;0.2709434;-0.2866958;0.1329335;0.156583;-0.06771276;-0.03105515;0;302967.1029529738;10316.73674503143;-0.001;1;0;2;
1510747749.47228;1510747749.47228;1510747749.472387;57.77339630214422;12.76680497917362;211.7118537050684;-0.7775034;2.791179;-0.05421525;-1.250845795960989;-3.821336669627917;285.5201909793716;164.0885747275823;105.5656;2.897445;0.2705543;-0.1735025;-0.2457547;0.1151753;-0.1930167;-0.1423895;0;302967.1429529636;10316.77674502125;-0.001;1;0;2;
1510747749.479818;1510747749.479818;1510747749.479925;57.77339603553894;12.76680675316682;211.7138000887906;-0.7810076;2.784558;-0.05678669;-1.246265462911736;-3.838935530207443;285.520899727299;164.0885614877012;105.6676;2.892012;0.505673;-0.3280853;-0.1265685;0.1219727;-0.1285758;-0.07454367;0;302967.1829529534;10316.81674501107;-0.001;1;0;2;
1510747749.549628;1510747749.549628;1510747749.549729;57.77339576808254;12.76680852422898;211.7157940656633;-0.7843383;2.780278;-0.05876945;-1.237283115047481;-3.859322392331854;285.5217954663962;164.0885482503401;105.7542;2.888794;0.4937568;-0.5199556;0.03228937;0.1820608;-0.1084829;-0.06435098;0;302967.2229539432;10316.85674600089;-0.001;1;0;2;
1510747749.674359;1510747749.674359;1510747749.674743;57.77339536691863;12.76681117971757;211.7186702803463;-0.781396;2.782388;-0.05412921;-1.231345156970609;-3.894906812832923;285.5264910461072;164.088528395388;105.6867;2.890028;-0.2181828;-0.641685;0.1231605;0.002787919;0.08356846;0.1211837;0;302967.282953928;10316.91674598563;-0.001;1;0;2;
1510747749.753556;1510747749.753556;1510747749.753671;57.77339509981535;12.76681295263252;211.7203524524124;-0.7815591;2.787565;-0.04913068;-1.242203872278602;-3.920452162085609;285.5313491508323;164.0885151567655;105.6621;2.895056;-0.6225612;-0.7292902;0.1389165;-0.1670268;0.04958187;0.2422789;0;302967.3229539178;10316.95674597545;-0.001;1;0;2;
1510747749.833501;1510747749.833501;1510747749.833571;57.77339483180658;12.76681472973574;211.7217699592561;-0.78381;2.792855;-0.0437451;-1.258335162361583;-3.942949672661272;285.5376555394998;164.0885019144869;105.6767;2.900758;-0.4812351;-0.6235583;0.04993618;-0.1760657;0.02126711;0.119716;0;302967.3629549076;10316.99674696527;-0.001;1;0;2;
1510747749.880253;1510747749.880253;1510747749.880358;57.77339469727561;12.7668156196514;211.7223936451499;-0.78884;2.795088;-0.03977415;-1.262455377125216;-3.950860243182376;285.5399586442754;164.0884952920426;105.7603;2.90427;-0.2926753;-0.3635405;0.1841678;-0.1702655;-0.06556112;0.0572579;0;302967.3829549025;10317.01674696018;-0.001;1;0;2;
1510747749.894033;1510747749.894033;1510747749.894149;57.77339442698533;12.76681740317994;211.7235914399342;-0.7916595;2.802325;-0.03787222;-1.271214801433006;-3.964385906673248;285.5443792558839;164.0884820439501;105.775;2.912;0.02335555;-0.2277624;0.02791141;-0.197683;-0.0391159;-0.05603073;0;302967.4229548924;10317.05674695;-0.001;1;0;2;
1510747749.900993;1510747749.900993;1510747749.901101;57.77339415547487;12.76681919256217;211.72468360556;-0.7943229;2.811651;-0.03549424;-1.272319921203889;-3.970065692136743;285.5479640210831;164.0884687905231;105.7756;2.9217;0.205922;-0.09202968;0.02525289;-0.2301206;0.05232116;0.01232845;0;302967.4629548822;10317.09674693982;-0.001;1;0;2;
1510747749.917052;1510747749.917052;1510747749.918931;57.77339388350384;12.76682098938568;211.7256564735065;-0.7946112;2.823747;-0.03210526;-1.275406486211729;-3.969183553686939;285.5499996818456;164.0884555306372;105.7168;2.93342;-0.1701425;0.04067781;0.03332002;-0.283853;0.1060889;0.06654435;0;302967.502955872;10317.13674792965;-0.001;1;0;2;
1510747749.929225;1510747749.929225;1510747749.929374;57.77339361108942;12.7668227939307;211.7265383755474;-0.7941539;2.83414;-0.02947859;-1.273441461203696;-3.969092245940615;285.5536040336414;164.0884422641101;105.6534;2.943302;0.2656235;0.01722101;-0.08743583;-0.3118625;0.1019362;0.1201855;0;302967.5429558618;10317.17674791947;-0.001;1;0;2;
1510747749.939181;1510747749.939181;1510747749.939284;57.77339333855651;12.7668246054797;211.7273738023911;-0.7941433;2.843328;-0.03021372;-1.259721153324276;-3.965996155516877;285.5559284240803;164.0884289914297;105.6051;2.952148;0.3138087;0.1606781;-0.01735148;-0.2278474;0.06753872;-0.0006822457;0;302967.5829558517;10317.21674790929;-0.001;1;0;2;
1510747749.948991;1510747749.948991;1510747749.949101;57.7733930659971;12.76682642367387;211.7283701418922;-0.796515;2.852974;-0.03723234;-1.24458919827534;-3.966949586231591;285.5597379239316;164.0884157132028;105.5991;2.962076;0.1697678;-0.1378302;0.1658455;-0.2839017;0.07175451;-0.02507473;0;302967.6229568415;10317.25674889911;-0.001;1;0;2;
1510747749.983472;1510747749.983472;1510747749.983577;57.77339279312291;12.76682824846741;211.7295057896432;-0.7995686;2.86075;-0.03991954;-1.23472183045893;-3.966929586249882;285.5625583482766;164.0884024294725;105.6155;2.970388;0.174741;-0.05553047;0.2558685;-0.2713736;6.095793e-05;-0.04840831;0;302967.6629568313;10317.29674888893;-0.001;1;0;2;
1510747750.054657;1510747750.054657;1510747750.054792;57.77339251918713;12.76683007833516;211.730786697185;-0.8034441;2.866424;-0.04321298;-1.22899093920585;-3.967026107077112;285.5622984643754;164.0883891416493;105.6579;2.976896;-0.05012061;-0.001065091;0.09162569;-0.1444115;-0.0951661;-0.1164079;0;302967.7029568211;10317.33674887876;-0.001;1;0;2;
1510747750.094547;1510747750.094547;1510747750.094742;57.77339224291471;12.76683191146329;211.7321969377467;-0.808264;2.869713;-0.04738638;-1.213762176729251;-3.964778062749153;285.561021170276;164.0883758508862;105.73;2.981366;0.4010235;0.06158254;-0.07014172;-0.0742117;-0.1423073;-0.179939;0;302967.7429578109;10317.37674986858;-0.001;1;0;2;
1510747750.169483;1510747750.169483;1510747750.16964;57.77339196550537;12.76683374630101;211.7338960603143;-0.8079999;2.871231;-0.05499637;-1.198916370886178;-3.969436942770372;285.556031825081;164.0883625591212;105.7173;2.982755;0.07596407;-0.1846379;-0.1708664;-0.01853165;0.007958048;-0.1165062;0;302967.7829578008;10317.4167498584;-0.001;1;0;2;
1510747750.249579;1510747750.249579;1510747750.249747;57.77339168742655;12.76683558262644;211.7358516536959;-0.8103344;2.873902;-0.06103104;-1.185240253741198;-3.983330979959349;285.5549031794221;164.0883492663092;105.7465;2.98596;0.1841616;-0.5246856;-0.004949733;-0.03159669;-0.01987428;0.006118536;0;302967.8229577906;10317.45674984822;-0.001;1;0;2;
1510747750.296748;1510747750.296748;1510747750.296819;57.77339140982262;12.76683742008522;211.7380206400824;-0.8087066;2.873938;-0.06356479;-1.178571704115918;-4.008825802441079;285.5563490988285;164.0883359729817;105.7162;2.985553;0.246535;-0.6870719;0.1120021;-0.1330079;0.1087463;-0.004212575;0;302967.8629577804;10317.49674983804;-0.001;1;0;2;
1510747750.311551;1510747750.311551;1510747750.31166;57.77339113251415;12.76683925761109;211.7401894893312;-0.8059334;2.872437;-0.06407001;-1.172873084718601;-4.034330134283061;285.5628036194778;164.088322679387;105.6728;2.983358;-0.1700932;-0.733538;0.1563378;0.02579445;0.0804681;0.119981;0;302967.9029587702;10317.53675082787;-0.001;1;0;2;
1510747750.325902;1510747750.325902;1510747750.327521;57.77339085576863;12.76684109436825;211.7422551117424;-0.8058885;2.87076;-0.05620946;-1.176217480917524;-4.056595479885114;285.5701693314317;164.0883093863998;105.6807;2.981731;-0.1019907;-0.3547581;0.1325143;0.00887522;-0.07327832;0.1461053;0;302967.9429587601;10317.57675081769;-0.001;1;0;2;
1510747750.342655;1510747750.342655;1510747750.342777;57.77339057860151;12.76684292927054;211.7440394056822;-0.808383;2.865785;-0.04969987;-1.185677721741488;-4.067983318083917;285.5788381561059;164.08829609458;105.7527;2.977617;-0.1270398;-0.09995428;0.1824413;0.05938404;-0.09102714;0.05181554;0;302967.9829587499;10317.61675080751;-0.001;1;0;2;
1510747750.349561;1510747750.349561;1510747750.349672;57.7733904398608;12.76684384488164;211.7448498903896;-0.8093675;2.863285;-0.04610746;-1.189268297661158;-4.071536559233007;285.5826002173945;164.0882893484659;105.7841;2.975479;-0.1054212;-0.02045846;0.2149145;0.1375814;-0.08279152;0.1846831;0;302968.0029589992;10317.63675080242;-0.001;1;0;2;
1510747750.355739;1510747750.355739;1510747750.355847;57.77339030137092;12.76684475789898;211.7455872210926;-0.8085827;2.861559;-0.04571383;-1.194546234736314;-4.070929862767306;285.5847312586868;164.0882825028195;105.7785;2.973605;-0.319775;0.008120219;0.05665289;0.08451156;-0.05376241;-0.01651171;0;302968.0229599942;10317.65675179734;-0.001;1;0;2;
1510747750.365182;1510747750.365182;1510747750.36529;57.7733901627054;12.7668456700162;211.7462678168982;-0.8103784;2.857543;-0.04126389;-1.20523074452819;-4.066536506429999;285.5883699812911;164.0882756577945;105.833;2.97023;-0.3777813;0.3425187;0.1255674;0.1196531;-0.1938915;-0.06413048;0;302968.0429599891;10317.67675179226;-0.001;1;0;2;
1510747750.375307;1510747750.375307;1510747750.375417;57.77339002385548;12.76684658121476;211.7469320391582;-0.8105307;2.855876;-0.04120781;-1.218559909160438;-4.060039679826571;285.5919522489681;164.0882688135036;105.8446;2.968668;-0.478702;0.3670862;0.1167433;0.02010599;-0.01383052;0.005082696;0;302968.062959984;10317.69675178717;-0.001;1;0;2;
1510747750.439739;1510747750.439739;1510747750.439832;57.77338974573293;12.76684840180413;211.7482362707677;-0.8116932;2.8517;-0.04096429;-1.24336991485079;-4.043513550285515;285.5967242316394;164.0882551263918;105.8882;2.964968;-0.6875564;0.4237615;0.07118101;0.06450909;-0.1183086;-0.02901228;0;302968.1029599739;10317.73675177701;-0.001;1;0;2;
1510747750.519645;1510747750.519645;1510747750.519721;57.77338946762118;12.76685021991865;211.7494930403882;-0.8120776;2.848284;-0.04039733;-1.283599715646164;-4.020180810671586;285.6011249193184;164.0882414413383;105.9134;2.961788;-1.269416;0.5436785;0.2013546;-0.01580068;-0.06047268;0.06493122;0;302968.1429599637;10317.77675176685;-0.001;1;0;2;
1510747750.599797;1510747750.599797;1510747750.599914;57.77338918915179;12.76685203749738;211.750756307746;-0.811666;2.847638;-0.0394681;-1.346966933873924;-3.996932267499449;285.6082357654861;164.0882277569466;105.9092;2.961055;-1.890088;0.6174713;0.1119597;-0.02148157;-0.08936179;0.02255554;0;302968.1829609535;10317.81675275668;-0.001;1;0;2;
1510747750.680466;1510747750.680466;1510747750.680532;57.77338891012218;12.76685385402454;211.7519359293431;-0.8152481;2.845899;-0.03775114;-1.43182019098504;-3.965417604658458;285.6166914446986;164.0882140733595;105.9851;2.960367;-2.293759;0.8166022;0.1991484;-0.09315772;-0.1143376;0.04276842;0;302968.2229609434;10317.85675274652;-0.001;1;0;2;
1510747750.757555;1510747750.757555;1510747750.757724;57.77338848710895;12.76685657861405;211.7534805596024;-0.8277755;2.845519;-0.03140173;-1.576363569649582;-3.900510827159728;285.6372489594082;164.0881935473382;106.22;2.963476;-2.17766;1.242276;0.3985992;-0.1032218;-0.1211707;0.01311534;0;302968.2829609281;10317.91675273127;-0.001;1;0;2;
1510747750.778839;1510747750.778839;1510747750.77948;57.77338820194448;12.76685839627083;211.754368504387;-0.8323875;2.847391;-0.02976237;-1.645398902151467;-3.846874008229915;285.6514519832176;164.088179861427;106.2954;2.966564;-1.176117;1.389269;0.4032943;-0.07976557;0.06820756;-0.0156651;0;302968.322961918;10317.95675372111;-0.001;1;0;2;
1510747750.79945;1510747750.79945;1510747750.799558;57.77338763504567;12.76686204300971;211.7561072580238;-0.8131787;2.863617;-0.032198;-1.682002939925154;-3.74125761686379;285.6612402560366;164.0881524793708;105.8529;2.976838;-0.2124839;0.9997605;-0.1295554;-0.1799162;0.319723;0.115756;0;302968.4029618976;10318.03675370078;-0.001;1;0;2;
1510747750.805817;1510747750.805817;1510747750.805923;57.77338735779579;12.76686387576888;211.7571580322666;-0.8036126;2.870613;-0.03736351;-1.689661422032299;-3.713438042200783;285.6559929491959;164.0881387816957;105.6393;2.980975;0.07871266;0.4451286;-0.1879515;-0.05455199;0.1930944;-0.0004828517;0;302968.4429628875;10318.07675469062;-0.001;1;0;2;
1510747750.814187;1510747750.814187;1510747750.814289;57.77338708284879;12.76686571343082;211.7584991168827;-0.8009903;2.877309;-0.04392373;-1.682009123398637;-3.712422694074224;285.6471354107568;164.0881250808972;105.5562;2.986719;0.695097;-0.1297392;-0.2977523;-0.1016378;0.1209578;-0.07516856;0;302968.4829628773;10318.11675468045;-0.001;1;0;2;
1510747750.829597;1510747750.829597;1510747750.829707;57.77338680760393;12.76686755545912;211.7601013680784;-0.8038042;2.882146;-0.05056788;-1.646370119105041;-3.734941936760806;285.6384381389475;164.088111376952;105.5833;2.992134;1.223844;-0.770071;-0.182163;-0.02414695;0.06319883;-0.081042;0;302968.5229628672;10318.15675467029;-0.001;1;0;2;
1510747750.909382;1510747750.909382;1510747750.909451;57.77338653157085;12.76686939957618;211.7619233619673;-0.8050735;2.883646;-0.05669625;-1.592434393419446;-3.776122566216527;285.6353687414866;164.0880976714822;105.599;2.993921;1.451573;-1.187247;-0.03091208;-0.02278677;0.08924395;-0.0438725;0;302968.562962857;10318.19675466012;-0.001;1;0;2;
1510747750.989872;1510747750.989872;1510747750.989937;57.77338625480622;12.76687124535749;211.7640003359806;-0.8065224;2.885784;-0.06066834;-1.534726301977815;-3.831954908460031;285.6396124237098;164.08808396481;105.6147;2.996369;1.464227;-1.396475;0.1107134;-0.0103198;0.08433647;-0.02827952;0;302968.6029638468;10318.23675564996;-0.001;1;0;2;
1510747751.05534;1510747751.05534;1510747751.055404;57.77338597750289;12.76687309207065;211.7662125608379;-0.809156;2.88545;-0.06713086;-1.477765082898066;-3.891659699960581;285.6501490619713;164.0880702572257;105.6649;2.996757;0.9840832;-1.619041;0.4001498;-0.04473905;-0.02692484;-0.1337561;0;302968.6429638367;10318.2767556398;-0.001;1;0;2;
1510747751.099595;1510747751.099595;1510747751.09977;57.77338570007363;12.76687493978605;211.7685080789607;-0.8080801;2.888476;-0.06749546;-1.432488944888519;-3.9490162990787;285.6577514941808;164.0880565489846;105.6295;2.999381;0.7374411;-1.496827;0.02959947;-0.1400505;-0.1235131;-0.008795979;0;302968.6829638265;10318.31675562963;-0.001;1;0;2;
1510747751.174138;1510747751.174138;1510747751.174211;57.77338542159065;12.76687678891576;211.7707600765843;-0.8113826;2.888817;-0.06472898;-1.407682287393204;-3.999502804338476;285.6631851178352;164.0880428396517;105.6885;3.000601;0.2920523;-1.205054;-0.01554801;-0.09488022;-0.1573546;0.06076358;0;302968.7229648163;10318.35675661947;-0.001;1;0;2;
1510747751.182498;1510747751.182498;1510747751.182665;57.77338514148616;12.76687863849355;211.7729399287092;-0.8203283;2.889125;-0.06336753;-1.390312557815438;-4.03716449277736;285.6638586410498;164.0880291297435;105.8512;3.003329;0.1648131;-0.8271213;0.1559153;-0.1545048;-0.1444254;-0.1055834;0;302968.7629648062;10318.3967566093;-0.001;1;0;2;
1510747751.201561;1510747751.201561;1510747751.201668;57.77338485967848;12.76688048908417;211.7751105489494;-0.820471;2.889822;-0.06315466;-1.381087963176491;-4.060757415947986;285.6600514025239;164.0880154187355;105.8502;3.004038;0.3038478;-0.3921568;-0.2817298;-0.1023331;-0.193066;-0.1993051;0;302968.802964796;10318.43675659914;-0.001;1;0;2;
1510747751.214567;1510747751.214567;1510747751.214866;57.77338457672026;12.76688234004968;211.7773969223717;-0.8245086;2.890205;-0.06875677;-1.381937599144526;-4.06870047551125;285.656803475149;164.0880017069105;105.9222;3.005511;-0.2156376;-0.06630623;0.01268865;-0.1188108;-0.00472063;-0.2247371;0;302968.8429647858;10318.47675658898;-0.001;1;0;2;
1510747751.232467;1510747751.232467;1510747751.232547;57.77338429338528;12.76688419337946;211.7798606514269;-0.8227527;2.895987;-0.07320159;-1.393576802325957;-4.062845634897807;285.6552401426011;164.0879879926198;105.8599;3.010592;-0.4509962;0.1716982;-0.1681133;-0.2253947;-0.006734042;-0.1152708;0;302968.8829657757;10318.51675757881;-0.001;1;0;2;
1510747751.247408;1510747751.247408;1510747751.247668;57.77338400943436;12.7668860505599;211.78250931657;-0.8278852;2.900729;-0.07488173;-1.41632594992699;-4.052950743384367;285.656265262244;164.0879742749545;105.9291;3.016558;-0.6778179;0.2701992;0.2151349;-0.2984791;0.003789365;0.0290126;0;302968.9229657655;10318.55675756865;-0.001;1;0;2;
1510747751.261827;1510747751.261827;1510747751.261962;57.77338372461563;12.76688791208791;211.785128833086;-0.8276865;2.907121;-0.07340217;-1.443299041909949;-4.038901812753706;285.6594093363739;164.0879605534128;105.8922;3.022651;-1.05095;0.3148994;0.07761332;-0.14058;0.02030249;0.07279236;0;302968.9629657553;10318.59675755848;-0.001;1;0;2;
1510747751.400357;1510747751.400357;1510747751.400466;57.77338329165993;12.76689070591928;211.7888389738024;-0.8344636;2.919187;-0.06163209;-1.492219958601397;-4.02740548182128;285.6650299747324;164.0870113647777;105.9528;3.036113;-0.6127014;0.2642908;-0.08446523;-0.06506383;-0.244205;0.110718;0;302969.0229659941;10318.65675854323;-0.001;1;0;2;
1510747751.519583;1510747751.519583;1510747751.519649;57.77338285884088;12.76689350375516;211.792148271062;-0.8409287;2.929577;-0.05764856;-1.557923889503864;-4.038018727482103;285.6686423022903;164.0851335712605;106.016;3.047882;-1.196014;-0.3941982;-0.05561374;-0.1479797;-0.09909854;0.2957749;0;302969.0829659789;10318.71675852796;-0.001;1;0;2;
1510747751.599666;1510747751.599666;1510747751.599782;57.7733825679728;12.76689537386996;211.7941382335574;-0.8464283;2.931949;-0.05290928;-1.604801388428599;-4.057116310917717;285.6721258070608;164.0838817052478;106.103;3.051683;-0.9362471;-0.4352934;0.05660334;-0.03140139;0.02561429;0.04053883;0;302969.1229659687;10318.75675851778;-0.001;1;0;2;
1510747751.635754;1510747751.635754;1510747751.635856;57.77338227652444;12.76689724731029;211.7960396321263;-0.8454031;2.93661;-0.05261531;-1.654689677600392;-4.08308939580611;285.6748916358152;164.0826298367659;106.0603;3.055877;-1.26715;-0.6660252;0.004611675;-0.06216201;0.08656655;0.04736117;0;302969.1629669585;10318.7967595076;-0.001;1;0;2;
1510747751.643656;1510747751.643656;1510747751.643762;57.77338198522935;12.76689912491572;211.7978094966911;-0.8455751;2.943918;-0.04839767;-1.719942975161425;-4.112812278464292;285.6762135483421;164.0813779651878;106.0255;3.062948;-1.871408;-0.7447301;-0.03555475;-0.1653041;-0.06389276;0.1133655;0;302969.2029669483;10318.83675949743;-0.001;1;0;2;
1510747751.651733;1510747751.651733;1510747751.651841;57.77338169306315;12.76690100720945;211.7993574694625;-0.8487326;2.950538;-0.04104936;-1.795206818494933;-4.145800704338654;285.6773959793475;164.0801260899167;106.0481;3.070183;-1.84638;-0.8347459;-0.1281814;-0.2176272;-0.08030891;0.2549113;0;302969.2429669382;10318.87675948725;-0.001;1;0;2;
1510747751.661209;1510747751.661209;1510747751.661273;57.77338154656906;12.76690195036576;211.8000117840345;-0.850126;2.954961;-0.03902273;-1.833963622455486;-4.163409844781709;285.6754299062813;164.0795001507526;106.0502;3.074819;-1.984873;-1.008227;-0.3070591;-0.2038928;-0.1638078;0.1909024;0;302969.2629679331;10318.89676048216;-0.001;1;0;2;
1510747751.672392;1510747751.672392;1510747751.672559;57.77338125168519;12.76690384109728;211.8011754512916;-0.8598138;2.962797;-0.03246073;-1.913500544524394;-4.212000112580729;285.6683404880167;164.0782482693722;106.1829;3.085036;-2.046004;-1.467593;-0.1675821;-0.2039125;-0.06978894;0.3991215;0;302969.3029679229;10318.93676047198;-0.001;1;0;2;
1510747751.69144;1510747751.69144;1510747751.691592;57.77338095377679;12.76690573697248;211.8019320377407;-0.8655342;2.969279;-0.02315986;-1.970601081695104;-4.266448278894682;285.6636610043235;164.0769963834354;106.2512;3.092857;-1.014774;-1.541279;-0.1130046;-0.1816159;0.1835086;0.211788;0;302969.3429679127;10318.9767604618;-0.001;1;0;2;
1510747751.713567;1510747751.713567;1510747751.713676;57.77338050814212;12.76690859181592;211.8027032562576;-0.8523376;2.981982;-0.01915668;-2.001506740660756;-4.365158176504604;285.6676780837636;164.0751185445774;105.9515;3.101402;-0.1234117;-1.685826;0.09552718;0.04012734;0.5135244;-0.1111814;0;302969.4029688975;10319.03676144654;-0.001;1;0;2;
1510747751.793956;1510747751.793956;1510747751.79402;57.77338021599464;12.76691050109008;211.803316688755;-0.8425173;2.986948;-0.02695851;-2.010344674138206;-4.429647704602829;285.6867511279621;164.0738666459351;105.752;3.103497;-0.2550619;-1.606483;0.6606665;-0.07742528;0.3851405;-0.2419323;0;302969.4429688873;10319.07676143636;-0.001;1;0;2;
1510747751.87541;1510747751.87541;1510747751.875519;57.77337992775792;12.76691241384347;211.8043000636872;-0.8308581;2.991187;-0.03852651;-2.009026801335371;-4.483411039123405;285.7068574030134;164.0726147437377;105.5236;3.104436;0.2181437;-1.248158;0.2144042;-0.09631992;0.1711188;-0.401923;0;302969.4829688771;10319.11676142618;-0.001;1;0;2;
1510747751.953853;1510747751.953853;1510747751.953919;57.77337964041789;12.76691432774635;211.8057808385603;-0.8331342;2.991807;-0.05174905;-1.97795207588959;-4.5162599914158;285.7191710237299;164.0713628396855;105.561;3.105644;0.9838531;-0.6612555;0.07402038;-0.1396401;0.02032917;-0.4806135;0;302969.5229688669;10319.156761416;-0.001;1;0;2;
1510747752.033584;1510747752.033584;1510747752.033653;57.7733793520437;12.76691624222355;211.8078282831605;-0.839408;2.990513;-0.06448938;-1.916261390758988;-4.529090162322542;285.7204346141318;164.0701109344382;105.6789;3.106087;1.738492;0.0002925971;0.008740423;-0.1479347;0.01371421;-0.4785819;0;302969.5629698567;10319.19676240582;-0.001;1;0;2;
1510747752.063618;1510747752.063618;1510747752.063746;57.77337906292957;12.76691815831889;211.8104082274442;-0.838388;2.993403;-0.07726499;-1.846907449037783;-4.519488196513142;285.7106616345882;164.0688590273493;105.6464;3.108594;1.842541;0.534313;-0.375778;-0.03033836;-0.0753279;-0.5133733;0;302969.6029698466;10319.23676239565;-0.001;1;0;2;
1510747752.070753;1510747752.070753;1510747752.070882;57.77337877347132;12.76692007557882;211.8134534546723;-0.8383692;2.996667;-0.08761529;-1.793721496169812;-4.490754106607739;285.7000724028558;164.0676071188114;105.6299;3.111732;0.9757051;0.8885052;-0.3485492;-0.1497978;0.03692387;-0.2132484;0;302969.6429698364;10319.27676238547;-0.001;1;0;2;
1510747752.078883;1510747752.078883;1510747752.079881;57.77337848352449;12.76692199600531;211.816788850974;-0.8433339;2.999304;-0.09172823;-1.767999328988636;-4.452956181640138;285.6932594151346;164.0663552074674;105.7047;3.115612;0.4735316;1.030748;-0.08433624;-0.1372845;-0.1618251;-0.04287011;0;302969.6829708262;10319.31676337529;-0.001;1;0;2;
1510747752.086676;1510747752.086676;1510747752.086792;57.77337819182588;12.7669239193772;211.820149689399;-0.8500927;3.003216;-0.0904742;-1.764222104358226;-4.408966765436926;285.6905325547738;164.0651032935197;105.8047;3.121212;-0.03892122;1.103651;0.06844772;-0.1050894;-0.2038789;0.05249785;0;302969.722970816;10319.35676336511;-0.001;1;0;2;
1510747752.093449;1510747752.093449;1510747752.093585;57.77337789767291;12.76692584500036;211.8234575680097;-0.8571237;3.005929;-0.088588;-1.779207125817552;-4.368728934937898;285.6928644124453;164.0638513778479;105.9152;3.125743;-0.6221225;0.873128;0.268259;-0.1035373;-0.1043202;0.1075077;0;302969.7629708059;10319.39676335493;-0.001;1;0;2;
1510747752.100076;1510747752.100076;1510747752.100185;57.77337760085918;12.7669277726607;211.8265508897763;-0.863646;3.007921;-0.08239955;-1.800030652233146;-4.330779019748979;285.6962280095728;164.0625994605736;106.02;3.129452;-0.803591;0.8269925;0.244045;-0.1155091;-0.05677107;0.2012711;0;302969.8029707957;10319.43676334475;-0.001;1;0;2;
1510747752.105901;1510747752.105901;1510747752.106011;57.77337730261104;12.76692970263342;211.8294121958209;-0.8625038;3.01206;-0.07631072;-1.821235478509506;-4.298197181930685;285.6955836850831;164.06134754173;105.9791;3.133116;-0.9980423;0.6701506;-0.05260891;-0.02712573;0.1127369;0.3227973;0;302969.8429717855;10319.47676433458;-0.001;1;0;2;
1510747752.143834;1510747752.143834;1510747752.143903;57.7733770042865;12.76693163548147;211.831993082883;-0.8626261;3.016425;-0.06987945;-1.848808201192214;-4.269644783469289;285.6912627638176;164.0600956208602;105.9593;3.137346;-0.8164288;0.5550423;-0.153496;-0.1009874;0.1241293;0.2090161;0;302969.8829717753;10319.5167643244;-0.001;1;0;2;
1510747752.223538;1510747752.223538;1510747752.223602;57.77337670681268;12.76693357165679;211.8343525113374;-0.8597713;3.020682;-0.06377045;-1.883248939605279;-4.24620492867567;285.6856937431115;164.0588436975242;105.8878;3.140657;-1.047594;0.5100173;-0.1177796;-0.1209742;0.05338478;0.2310779;0;302969.9229717652;10319.55676431422;-0.001;1;0;2;
1510747752.303559;1510747752.303559;1510747752.303662;57.77337641016358;12.76693551148147;211.8365046283369;-0.8584159;3.025675;-0.0575249;-1.914169287826324;-4.22888308341138;285.6770833470321;164.0575917714213;105.8392;3.145089;-0.6355606;0.4340988;-0.244358;-0.1018732;-0.05049186;0.1655957;0;302969.962972755;10319.59676530404;-0.001;1;0;2;
1510747752.490419;1510747752.490419;1510747752.490515;57.77337552843956;12.76694134358175;211.8423522339338;-0.857871;3.037945;-0.05207008;-1.935867051681316;-4.210798343116531;285.6498952495068;164.0574117988706;105.7689;3.156747;0.1525336;0.2333046;-0.1214775;-0.105145;-0.0173998;-0.05971583;0;302970.0829729789;10319.71676527351;-0.001;1;0;2;
1510747752.500994;1510747752.500994;1510747752.501057;57.77337523538898;12.76694329141574;211.8443166685673;-0.8555911;3.040596;-0.05778636;-1.921989888322744;-4.200955885169016;285.6422909042893;164.0577491170242;105.716;3.15868;-0.01837906;0.194757;-0.1595555;-0.1128366;0.04966329;-0.1985172;0;302970.1229739687;10319.75676626333;-0.001;1;0;2;
1510747752.507184;1510747752.507184;1510747752.507342;57.773374942956;12.76694524263178;211.8464294802239;-0.8546168;3.04504;-0.05951101;-1.90555769569111;-4.191055496712301;285.6361526337762;164.0580864322137;105.6772;3.162694;0.2992664;0.2479738;-0.03216433;-0.1205712;0.05120907;-0.0691031;0;302970.1629739585;10319.79676625315;-0.001;1;0;2;
1510747752.514579;1510747752.514579;1510747752.514764;57.7733746507347;12.7669471965195;211.8487281843751;-0.8555369;3.049286;-0.05988952;-1.898751979020777;-4.183853407760584;285.6324304778878;164.0584237452777;105.6725;3.167032;0.3712063;0.3962776;0.060792;-0.09553596;-0.002726037;0.01914102;0;302970.2029739484;10319.83676624297;-0.001;1;0;2;
1510747752.521732;1510747752.521732;1510747752.521833;57.77337435756201;12.76694915378285;211.8510937989128;-0.8577195;3.052826;-0.06356076;-1.88050790515773;-4.176233969832123;285.6291628312805;164.0587610552883;105.6932;3.17103;0.4028215;0.2710424;-0.03580741;-0.03840431;-0.04239351;-0.1402026;0;302970.2429749382;10319.8767672328;-0.001;1;0;2;
1510747752.525326;1510747752.525326;1510747752.525427;57.77337421062239;12.76695013364625;211.8523230918771;-0.8602615;3.056448;-0.06545734;-1.872907084781395;-4.174562514143744;285.6282424664854;164.0589297093252;105.7197;3.175204;0.5881264;0.1291792;0.01581599;-0.2600527;-0.03650255;0.009916685;0;302970.2629749331;10319.89676722771;-0.001;1;0;2;
1510747752.600464;1510747752.600464;1510747752.600546;57.77337391616678;12.76695209526857;211.8547389607455;-0.8618633;3.058701;-0.06551858;-1.855154581265168;-4.163083304307877;285.6240358128325;164.0592670155455;105.7365;3.177807;0.3136349;0.3498593;0.01624064;-0.2157492;-0.1028874;0.01596626;0;302970.3029749229;10319.93676721753;-0.001;1;0;2;
1510747752.677597;1510747752.677597;1510747752.677842;57.77337362072267;12.76695405968185;211.8571850964289;-0.8623078;3.063308;-0.0652091;-1.84915864171021;-4.149048822602834;285.6204195527141;164.0596043194442;105.7217;3.182363;-0.2558939;0.4771358;-0.09165789;-0.1901614;0.05430005;0.05368083;0;302970.3429749127;10319.97676720735;-0.001;1;0;2;
1510747752.797075;1510747752.797075;1510747752.797767;57.77337332406708;12.76695602663874;211.8596259475742;-0.8674763;3.065898;-0.06748845;-1.846021501154801;-4.131298181106899;285.6186294115176;164.0599416210048;105.7985;3.186259;-0.09771378;0.3086759;-0.03789186;-0.1907125;-0.1419845;0.002900195;0;302970.3829759026;10320.01676819717;-0.001;1;0;2;
1510747752.853638;1510747752.853638;1510747752.853703;57.77337317553805;12.7669570111485;211.8607994081203;-0.868491;3.067731;-0.05924242;-1.84824518342821;-4.119531093491428;285.6166957017529;164.060110270898;105.8071;3.188299;0.2606916;0.8510342;-0.01285401;-0.2043336;-0.03461914;0.1723566;0;302970.4029758975;10320.03676819208;-0.001;1;0;2;
1510747752.933746;1510747752.933746;1510747752.933852;57.77337287739376;12.76695898244736;211.863128582643;-0.8709478;3.071164;-0.05844768;-1.847094390266191;-4.099781786475427;285.6122553825338;164.0604475688502;105.8327;3.192271;0.4415033;0.7752323;-0.218476;-0.06805712;-0.2282139;-0.05045243;0;302970.4429758873;10320.07676818191;-0.001;1;0;2;
1510747752.962563;1510747752.962563;1510747752.962664;57.77337257834927;12.76696095612214;211.8653455935051;-0.8689876;3.075338;-0.06166177;-1.85245209346545;-4.077528752785698;285.6106543405697;164.0607848646595;105.7785;3.195754;-0.4208746;0.4301303;-0.3035714;0.1157593;-0.1015434;-0.09167163;0;302970.4829758771;10320.11676817173;-0.001;1;0;2;
1510747752.97711;1510747752.97711;1510747752.977241;57.77337227950763;12.76696293266432;211.8676415921609;-0.8711681;3.079472;-0.06386939;-1.874197002390437;-4.062943489500208;285.6092631366829;164.0611221585657;105.796;3.200325;-0.6865888;0.1806531;-0.05423405;-0.07602923;0.05794562;0.1733723;0;302970.5229768669;10320.15676916155;-0.001;1;0;2;
1510747752.992414;1510747752.992414;1510747752.992517;57.77337198027231;12.76696491195352;211.869956850741;-0.8746768;3.081605;-0.06437775;-1.900627494367178;-4.053601114615224;285.6085999674702;164.0614594503881;105.846;3.203334;-0.6007493;0.1135471;0.08280404;-0.189382;-0.1029218;0.00635205;0;302970.5629768568;10320.19676915137;-0.001;1;0;2;
1510747753.004911;1510747753.004911;1510747753.005019;57.77337168007192;12.7669668932134;211.8723672424808;-0.8740859;3.083908;-0.06574298;-1.918700982678656;-4.053769840793263;285.6096138622901;164.0617967407269;105.8246;3.205389;-0.6162192;-0.06382918;0.02359426;-0.05858487;-0.002856272;0.1493542;0;302970.6029768466;10320.23676914119;-0.001;1;0;2;
1510747753.018943;1510747753.018943;1510747753.019052;57.77337137943804;12.7669688756084;211.8748314234635;-0.8768112;3.085703;-0.06761734;-1.922945524907563;-4.055292691881887;285.6080186829701;164.0621340300786;105.8626;3.207859;0.1048212;-0.1459684;0.1278716;-0.1687113;0.18716;0.01160552;0;302970.6429768364;10320.27676913101;-0.001;1;0;2;
1510747753.028313;1510747753.028313;1510747753.028695;57.77337107839013;12.76697086046374;211.8772616304224;-0.8762819;3.089688;-0.06387463;-1.908916617465998;-4.055159523562795;285.606247987721;164.062471317034;105.8341;3.211548;0.1248059;-0.005055184;0.07756685;-0.04615958;0.1871185;0.1617781;0;302970.6829778262;10320.31677012084;-0.001;1;0;2;
1510747753.038602;1510747753.038602;1510747753.038894;57.77337077850346;12.76697284828837;211.8795064867266;-0.8727412;3.092197;-0.06063414;-1.903591142888181;-4.050011947295494;285.6036408834728;164.0628086014391;105.7612;3.212999;-0.06667574;0.08566668;0.03446939;-0.04758161;0.1025159;0.1379975;0;302970.7229778161;10320.35677011066;-0.001;1;0;2;
1510747753.067681;1510747753.067681;1510747753.067783;57.77337047911116;12.76697483920123;211.8815909431299;-0.8711092;3.097908;-0.05369943;-1.906506003787508;-4.041890223280268;285.6013311947261;164.0631458832173;105.7056;3.218053;-0.1443459;0.2538514;-0.01423189;-0.04227198;0.190938;0.1765971;0;302970.7629778059;10320.39677010048;-0.001;1;0;2;
1510747753.134336;1510747753.134336;1510747753.134438;57.77337017900609;12.7669768323652;211.8834765098803;-0.8748021;3.099743;-0.05095811;-1.906926733188127;-4.031102265855016;285.6014754581468;164.0634831628429;105.76;3.220821;-0.1021542;0.1627516;0.1376353;-0.13887;0.1292599;0.1455734;0;302970.8029787957;10320.4367710903;-0.001;1;0;2;
1510747753.213597;1510747753.213597;1510747753.213705;57.77336987806844;12.7669788284392;211.8851660547033;-0.8764409;3.104077;-0.04770219;-1.899411004825744;-4.019074202495212;285.6012635183754;164.0638204398613;105.7671;3.225437;-0.1995114;0.1053994;0.0850269;-0.09664381;0.08037324;0.1504243;0;302970.8429787855;10320.47677108012;-0.001;1;0;2;
1510747753.289743;1510747753.289743;1510747753.289867;57.77336957611956;12.766980826903;211.8868113167511;-0.880583;3.107567;-0.04705948;-1.887848686952068;-4.012243748319944;285.6038145753162;164.0641577148849;105.821;3.229923;0.358878;0.02198926;0.2252406;-0.266015;0.1058493;0.1198067;0;302970.8829787754;10320.51677106995;-0.001;1;0;2;
1510747753.369761;1510747753.369761;1510747753.36987;57.77336927427284;12.76698282837128;211.8884881316671;-0.8785346;3.11032;-0.05075344;-1.876239081601439;-4.005733855552669;285.6062253258128;164.0644949873848;105.7728;3.232014;-0.06243879;0.02358291;0.180608;-0.1224163;-0.01720935;-0.0235983;0;302970.9229797652;10320.55677205977;-0.001;1;0;2;
1510747753.377772;1510747753.377772;1510747753.377879;57.77336897234198;12.76698483209708;211.8903394306905;-0.8776052;3.113701;-0.05423379;-1.865411770616612;-3.999577971087371;285.6099815344134;164.0648322579407;105.7406;3.235015;0.341608;0.1025596;-0.008099879;0.01503852;-0.08793945;-0.1298673;0;302970.962979755;10320.59677204959;-0.001;1;0;2;
1510747753.415961;1510747753.415961;1510747753.416068;57.77336807312694;12.76699084356915;211.8973506141754;-0.8819844;3.120131;-0.06474071;-1.84665748828932;-4.009069658189458;285.6148782744028;164.0663999942573;105.7843;3.242393;0.06661303;-0.2710771;0.2999513;-0.08424824;-0.03474886;-0.05003169;0;302971.0829809789;10320.71677301906;-0.001;1;0;2;
1510747753.426159;1510747753.426159;1510747753.426956;57.7733677727682;12.76699284831206;211.8998017002803;-0.8821158;3.120778;-0.06447563;-1.851364821330983;-4.016760686216706;285.618052077558;164.066984341489;105.7834;3.243052;-0.09795053;-0.274137;0.1960172;-0.1573919;-0.01572953;0.1294545;0;302971.1229809687;10320.75677300888;-0.001;1;0;2;
1510747753.479624;1510747753.479624;1510747753.479735;57.77336747186408;12.76699485452921;211.9021426182676;-0.8840564;3.12169;-0.05824034;-1.850816262563322;-4.0220095036114;285.6181658735857;164.0675686874375;105.812;3.244458;0.2328507;0.01530806;0.04009342;-0.04544857;-0.1408486;-0.01766836;0;302971.1629809585;10320.7967729987;-0.001;1;0;2;
1510747753.559587;1510747753.559587;1510747753.559749;57.77336717092769;12.76699686190349;211.9043530464274;-0.8786972;3.125477;-0.0553659;-1.853779394782955;-4.025463428400812;285.6131113076426;164.0681530326128;105.7028;3.246646;-0.2146034;0.004708327;-0.329359;-0.04940647;0.07406383;0.098711;0;302971.2029819483;10320.83677398852;-0.001;1;0;2;
1510747753.639508;1510747753.639508;1510747753.639619;57.77336687033646;12.76699887121952;211.9063241578554;-0.8772568;3.127563;-0.05122695;-1.856547226945253;-4.022624751427231;285.6034711131941;164.0687373760954;105.6684;3.248266;-0.3197747;-0.04089919;-0.2951653;-0.05524608;0.2316108;0.2403322;0;302971.2429819382;10320.87677397834;-0.001;1;0;2;
1510747753.679664;1510747753.679664;1510747753.679772;57.77336672041437;12.7669998763266;211.9071988335974;-0.8760837;3.12762;-0.04786506;-1.852844216013283;-4.015908904031341;285.5963223250738;164.069029547278;105.6482;3.248004;-0.1975294;0.3231448;-0.5180444;-0.04979148;-0.09692688;-0.09162859;0;302971.2629819331;10320.89677397325;-0.001;1;0;2;
1510747753.759513;1510747753.759513;1510747753.759576;57.7733664207901;12.76700188819283;211.9089153631161;-0.8773221;3.129506;-0.04880468;-1.864572097357547;-4.001552820613862;285.5838183061546;164.0696138883987;105.6602;3.250154;-0.4907793;0.2035111;-0.2982941;-0.02284397;-0.05362191;0.02294145;0;302971.3029819229;10320.93677396308;-0.001;1;0;2;
1510747753.825664;1510747753.825664;1510747753.825765;57.77336612098694;12.76700390150304;211.9106402294755;-0.8796758;3.131608;-0.04596347;-1.87401876945434;-3.986713182308794;285.5709595257878;164.0701982282609;105.6902;3.252815;-0.2492106;0.3739412;-0.1367788;-0.07372954;0.02907123;-0.01710179;0;302971.3429829127;10320.9767749529;-0.001;1;0;2;
1510747753.843894;1510747753.843894;1510747753.843999;57.77336551900806;12.76700793280043;211.9142299225979;-0.8804426;3.135466;-0.05068136;-1.863414362775442;-3.96758014564362;285.5537669656988;164.0713669036566;105.6848;3.256736;0.2162453;0.09696405;-0.1537609;0.03154546;0.1842294;-0.05125602;0;302971.4229828924;10321.05677493254;-0.001;1;0;2;
1510747753.856007;1510747753.856007;1510747753.856108;57.77336521839813;12.7670099505448;211.9162824159429;-0.8782851;3.13637;-0.05683384;-1.855118664560932;-3.970503792436369;285.5504969471205;164.0719512398018;105.644;3.257024;0.220474;-0.1342569;-0.1099984;-0.1390196;-0.01563468;-0.04726323;0;302971.4629828822;10321.09677492236;-0.001;1;0;2;
1510747753.867467;1510747753.867467;1510747753.867582;57.77336491818254;12.7670119694036;211.9184449729496;-0.8762711;3.13752;-0.05956534;-1.849006082330683;-3.974624522003462;285.5495324195505;164.0725355749814;105.6044;3.257589;0.1405012;-0.2279461;-0.1434243;-0.03353512;0.06079827;0.00810411;0;302971.502983872;10321.13677591219;-0.001;1;0;2;
1510747753.881489;1510747753.881489;1510747753.881595;57.77336461754034;12.76701398798216;211.9207362111723;-0.8795376;3.13564;-0.06097271;-1.836387410590731;-3.978587753742545;285.5489942625307;164.0731199102818;105.6686;3.256659;0.5122;-0.02324024;-0.03189245;-0.009924113;-0.02131412;-0.0350845;0;302971.5429838618;10321.17677590201;-0.001;1;0;2;
1510747753.891065;1510747753.891065;1510747753.891168;57.77336431547079;12.76701600527614;211.923143621271;-0.8842739;3.131469;-0.06613749;-1.806090675547501;-3.978136274143173;285.552733190511;164.0737042460581;105.7688;3.253926;0.9260218;-0.0006067041;0.142092;0.09612138;0.01881485;-0.09093297;0;302971.5829838517;10321.21677589183;-0.001;1;0;2;
1510747753.959584;1510747753.959584;1510747753.959693;57.77336401219556;12.76701802154203;211.9257077516032;-0.8855618;3.132527;-0.06428856;-1.759540443581111;-3.977194543764778;285.5614676651782;164.0742885822368;105.7855;3.255295;1.446287;0.1734253;0.255367;0.01889971;0.123356;0.1497695;0;302971.6229848415;10321.25677688165;-0.001;1;0;2;
1510747754.039542;1510747754.039542;1510747754.039687;57.77336370924303;12.76702003895194;211.9281995729627;-0.8858684;3.133001;-0.06345289;-1.717797030711857;-3.978086504344299;285.5766648566234;164.0748729173027;105.7885;3.255835;0.827828;-0.01247267;0.6377699;-0.01992567;0.03098648;0.1236904;0;302971.6629848313;10321.29677687147;-0.001;1;0;2;
1510747754.077029;1510747754.077029;1510747754.07714;57.7733634071303;12.76702205826563;211.930544738839;-0.8829589;3.136087;-0.05951848;-1.70507118598912;-3.981549419291753;285.5953490279479;164.0754572511133;105.7245;3.258014;-0.08169176;-0.04084426;0.511904;-0.05083577;-0.1692944;0.04789894;0;302971.7029848211;10321.3367768613;-0.001;1;0;2;
1510747754.15682;1510747754.15682;1510747754.156928;57.77336310372426;12.76702407812646;211.9327365998798;-0.8899801;3.136592;-0.05618473;-1.714719505766876;-3.983738270409792;285.6152687411669;164.0760415846703;105.8408;3.26041;-0.49548;-0.1108367;0.5958415;-0.1552562;-0.08356601;0.2129741;0;302971.742984811;10321.37677685112;-0.001;1;0;2;
1510747754.236979;1510747754.236979;1510747754.237096;57.77336279755258;12.76702609816946;211.9346792238644;-0.8978375;3.134873;-0.04822004;-1.721196616387291;-3.978378238391091;285.6294178856622;164.0766259179829;105.9819;3.260911;-0.1683926;0.2075881;0.3048263;-0.05479644;-0.2299947;0.2384368;0;302971.7829858008;10321.41677784094;-0.001;1;0;2;
1510747754.260748;1510747754.260748;1510747754.260897;57.77336248881349;12.76702811829116;211.9365005971481;-0.9035906;3.135908;-0.0470833;-1.72903967495284;-3.976441855400069;285.6385339591221;164.0772102516059;106.074;3.263494;-0.1961126;0.0125082;0.2715488;-0.1311577;-0.03012131;0.1881303;0;302971.8229857906;10321.45677783076;-0.001;1;0;2;
1510747754.277554;1510747754.277554;1510747754.277672;57.77336217920487;12.76703013991837;211.9382101033545;-0.9013675;3.138707;-0.04467531;-1.736135159851923;-3.976095195559461;285.6431976722059;164.0777945842041;106.0229;3.265569;-0.5226624;-0.00259518;0.08705727;-0.09718021;0.0740306;0.166655;0;302971.8629857804;10321.49677782058;-0.001;1;0;2;
1510747754.290959;1510747754.290959;1510747754.291064;57.77336187064932;12.76703216359472;211.9399096610646;-0.898109;3.140444;-0.04755126;-1.751807819128349;-3.978422549054982;285.6454054736593;164.0783789154046;105.9596;3.266341;-0.6888307;-0.1584626;0.1232674;0.03155082;0.1183343;0.05616001;0;302971.9029867703;10321.5367788104;-0.001;1;0;2;
1510747754.298174;1510747754.298174;1510747754.298283;57.77336156332898;12.76703418817215;211.9416382250662;-0.8929559;3.140769;-0.04779004;-1.77192772245405;-3.978305114788448;285.64770610945;164.0789632458048;105.871;3.265241;-0.4471014;0.1035596;-0.06719493;0.01636319;0.1740011;-0.05664426;0;302971.9429867601;10321.57677880023;-0.001;1;0;2;
1510747754.310506;1510747754.310506;1510747754.310731;57.77336125717979;12.76703621364477;211.9434769668632;-0.893745;3.140332;-0.04962596;-1.78299301370298;-3.974460108204055;285.6464182596947;164.0795475753303;105.8865;3.265037;0.1597947;0.311163;0.0653174;0.02659017;-0.005355302;-0.1469189;0;302971.9829867498;10321.61677879005;-0.001;1;0;2;
1510747754.314012;1510747754.314012;1510747754.314116;57.77336110111542;12.76703722359402;211.9444607322107;-0.8895846;3.138266;-0.05213457;-1.78368402723951;-3.969690402386257;285.6454177714881;164.0794486565762;105.8261;3.261913;-0.05907966;0.3939238;-0.114662;0.1030125;0.04904106;-0.06025149;0;302972.0029869992;10321.63677878496;-0.001;1;0;2;
1510747754.323926;1510747754.323926;1510747754.323998;57.7733609470071;12.7670382325742;211.9454418360828;-0.8897673;3.139162;-0.05357884;-1.779509912346275;-3.959587096616847;285.6436899167219;164.0789586548445;105.8249;3.262824;0.09637415;0.5614328;-0.2283132;-0.008930892;-0.009304311;-0.1217961;0;302972.0229869941;10321.65677877988;-0.001;1;0;2;
1510747754.403699;1510747754.403699;1510747754.403771;57.77336063916797;12.76704025060724;211.947529137794;-0.8902642;3.138031;-0.05539723;-1.765918125174956;-3.938882419243821;285.6390586816567;164.0779786512767;105.8387;3.261872;0.3068536;0.6117618;-0.02670164;-0.01331543;-0.03677757;-0.05372869;0;302972.062987984;10321.69677976971;-0.001;1;0;2;
1510747754.473967;1510747754.473967;1510747754.474312;57.77336033234825;12.76704226914258;211.9496712420798;-0.8880749;3.136899;-0.05837012;-1.768676085559532;-3.916851378335416;285.6370660773756;164.0769986473447;105.8071;3.260186;-0.03712658;0.474161;0.05077303;0.1135421;-0.09890779;-0.1389998;0;302972.1029879738;10321.73677975955;-0.001;1;0;2;
1510747754.55395;1510747754.55395;1510747754.554056;57.77336002534864;12.76704428779157;211.9519054423277;-0.89037;3.138416;-0.06002158;-1.770078509865234;-3.903296044224251;285.6410705115458;164.0760186433689;105.8387;3.262271;-0.2024822;0.1871911;0.2622504;0.001971266;-0.09426856;0.06946184;0;302972.1429879636;10321.77677974939;-0.001;1;0;2;
1510747754.633758;1510747754.633758;1510747754.633823;57.77335971750093;12.76704630730629;211.9540433624354;-0.8922476;3.138184;-0.05558722;-1.760444099419086;-3.894867938157376;285.6503509734526;164.0750386384753;105.8715;3.262561;0.6031595;0.1388457;0.3030908;0.0416891;-0.02828721;0.06867468;0;302972.1829889535;10321.81678073922;-0.001;1;0;2;
